% program   : RTKPOST ver.demo5 b34g
% inp file  : C:\Users\89231\Documents\Учеба\Диссертация\RTKLIB\Файлы\05.04.2020\samr0960.20o
% inp file  : C:\Users\89231\Documents\Учеба\Диссертация\RTKLIB\Файлы\05.04.2020\kotl0960.20o
% inp file  : C:\Users\89231\Documents\Учеба\Диссертация\RTKLIB\Файлы\05.04.2020\samr0960.20*
% inp file  : C:\Users\89231\Documents\Учеба\Диссертация\RTKLIB\Файлы\05.04.2020\igs21000.sp3
% inp file  : C:\Users\89231\Documents\Учеба\Диссертация\RTKLIB\Файлы\05.04.2020\igs21000.clk_30s
% obs start : 2020/04/05 00:00:00.0 GPST (week2100      0.0s)
% obs end   : 2020/04/05 23:59:30.0 GPST (week2100  86370.0s)
% pos mode  : Static
% freqs     : L1+L2/E5b
% solution  : Forward
% elev mask : 15.0 deg
% dynamics  : on
% tidecorr  : off
% ionos opt : Broadcast
% tropo opt : Saastamoinen
% ephemeris : Precise
% navi sys  : GPS
% amb res   : Fix and Hold
% val thres : 3.0
% antenna1  :                       ( 0.0000  0.0000  0.0000)
% antenna2  :                       ( 0.0000  0.0000  0.0000)
% ref pos   :  2111993.7756   2235910.4280   5568910.2461
%
% (x/y/z-ecef=WGS84,Q=1:fix,2:float,3:sbas,4:dgps,5:single,6:ppp,ns=# of satellites)
%  GPST                      x-ecef(m)      y-ecef(m)      z-ecef(m)   Q  ns   sdx(m)   sdy(m)   sdz(m)  sdxy(m)  sdyz(m)  sdzx(m) age(s)  ratio
2020/04/05 00:00:00.000   2447582.4272   2941189.1313   5085908.2572   2   8   1.4579   1.8928   2.6720   1.2318   0.8886   1.2699   0.00    0.0
2020/04/05 00:00:30.000   2447582.1674   2941188.8498   5085907.7472   2   7   0.8676   0.9750   1.0049   0.5343   0.5220   0.5478   0.00    0.0
2020/04/05 00:01:00.000   2447582.1673   2941189.2883   5085908.2620   2   7   0.6281   0.5801   0.5522   0.2072   0.3063   0.3101   0.00    0.0
2020/04/05 00:01:30.000   2447582.0704   2941189.3971   5085908.1225   2   7   0.4978   0.3950   0.3597  -0.0878   0.2029   0.2049   0.00    0.0
2020/04/05 00:02:00.000   2447581.8534   2941189.5256   5085907.8515   2   7   0.4112   0.2928   0.2577  -0.1338   0.1461   0.1485   0.00    0.0
2020/04/05 00:02:30.000   2447581.7671   2941189.6113   5085907.8986   2   7   0.3477   0.2291   0.1963  -0.1344   0.1113   0.1143   0.00    1.2
2020/04/05 00:03:00.000   2447581.5275   2941189.7378   5085907.8378   2   7   0.2989   0.1861   0.1559  -0.1255   0.0883   0.0917   0.00    1.1
2020/04/05 00:03:30.000   2447581.3490   2941189.7975   5085907.9134   2   7   0.2601   0.1553   0.1277  -0.1147   0.0722   0.0759   0.00    1.0
2020/04/05 00:04:00.000   2447581.2028   2941189.8280   5085907.9713   2   7   0.2288   0.1322   0.1071  -0.1041   0.0604   0.0642   0.00    1.9
2020/04/05 00:04:30.000   2447580.9968   2941189.8466   5085907.9778   2   7   0.2031   0.1144   0.0915  -0.0944   0.0515   0.0554   0.00    1.0
2020/04/05 00:05:00.000   2447580.9290   2941189.8776   5085907.9784   2   7   0.1818   0.1003   0.0794  -0.0858   0.0446   0.0485   0.00    1.7
2020/04/05 00:05:30.000   2447580.9236   2941189.8643   5085907.9642   2   7   0.1638   0.0889   0.0698  -0.0783   0.0391   0.0429   0.00    1.0
2020/04/05 00:06:00.000   2447580.9479   2941189.8708   5085907.9641   2   7   0.1486   0.0795   0.0619  -0.0717   0.0346   0.0384   0.00    1.3
2020/04/05 00:06:30.000   2447580.9648   2941189.8958   5085907.9901   2   7   0.1356   0.0717   0.0555  -0.0659   0.0309   0.0347   0.00    1.6
2020/04/05 00:07:00.000   2447580.9142   2941189.9064   5085907.9761   2   7   0.1244   0.0651   0.0501  -0.0608   0.0278   0.0315   0.00    1.0
2020/04/05 00:07:30.000   2447580.9033   2941189.9034   5085907.9716   2   7   0.1147   0.0594   0.0455  -0.0563   0.0252   0.0288   0.00    1.8
2020/04/05 00:08:00.000   2447580.9080   2941189.9277   5085907.9992   2   7   0.1062   0.0546   0.0416  -0.0524   0.0230   0.0266   0.00    2.0
2020/04/05 00:08:30.000   2447580.9135   2941189.9265   5085907.9891   2   7   0.0987   0.0503   0.0382  -0.0488   0.0211   0.0246   0.00    2.1
2020/04/05 00:09:00.000   2447580.9445   2941189.9344   5085908.0056   2   7   0.0921   0.0466   0.0353  -0.0457   0.0194   0.0228   0.00    1.0
2020/04/05 00:09:30.000   2447580.9518   2941189.9272   5085908.0104   2   7   0.0862   0.0434   0.0327  -0.0429   0.0179   0.0213   0.00    1.3
2020/04/05 00:10:00.000   2447580.9861   2941189.9269   5085908.0236   2   7   0.0809   0.0405   0.0305  -0.0404   0.0166   0.0200   0.00    1.0
2020/04/05 00:10:30.000   2447580.9875   2941189.9346   5085908.0214   2   7   0.0762   0.0379   0.0284  -0.0381   0.0155   0.0188   0.00    1.1
2020/04/05 00:11:00.000   2447581.0057   2941189.9341   5085908.0194   2   6   0.0720   0.0357   0.0267  -0.0361   0.0146   0.0178   0.00    1.1
2020/04/05 00:11:30.000   2447581.0062   2941189.9391   5085908.0111   2   6   0.0682   0.0336   0.0252  -0.0342   0.0138   0.0169   0.00    1.5
2020/04/05 00:12:00.000   2447581.0148   2941189.9406   5085908.0081   2   6   0.0647   0.0318   0.0238  -0.0325   0.0130   0.0161   0.00    1.1
2020/04/05 00:12:30.000   2447581.0339   2941189.9277   5085908.0007   2   6   0.0615   0.0301   0.0225  -0.0309   0.0124   0.0153   0.00    2.0
2020/04/05 00:13:00.000   2447581.0467   2941189.9224   5085907.9993   2   6   0.0586   0.0286   0.0214  -0.0295   0.0117   0.0146   0.00    2.0
2020/04/05 00:13:30.000   2447581.0536   2941189.9139   5085907.9931   2   6   0.0559   0.0272   0.0203  -0.0282   0.0111   0.0140   0.00    1.9
2020/04/05 00:14:00.000   2447581.0586   2941189.9172   5085907.9892   2   6   0.0535   0.0259   0.0193  -0.0270   0.0106   0.0134   0.00    1.9
2020/04/05 00:14:30.000   2447581.0844   2941189.9051   5085907.9830   2   6   0.0512   0.0247   0.0184  -0.0259   0.0101   0.0128   0.00    1.8
2020/04/05 00:15:00.000   2447581.0948   2941189.9030   5085907.9796   2   6   0.0491   0.0236   0.0176  -0.0249   0.0096   0.0123   0.00    1.8
2020/04/05 00:15:30.000   2447581.1113   2941189.8945   5085907.9771   2   6   0.0472   0.0226   0.0168  -0.0239   0.0091   0.0119   0.00    1.8
2020/04/05 00:16:00.000   2447581.1300   2941189.8905   5085907.9818   2   6   0.0454   0.0217   0.0161  -0.0230   0.0087   0.0114   0.00    1.8
2020/04/05 00:16:30.000   2447581.1484   2941189.8867   5085907.9829   2   6   0.0437   0.0208   0.0154  -0.0222   0.0083   0.0110   0.00    1.8
2020/04/05 00:17:00.000   2447581.1411   2941189.8872   5085907.9792   2   6   0.0422   0.0200   0.0148  -0.0215   0.0080   0.0106   0.00    1.7
2020/04/05 00:17:30.000   2447581.1465   2941189.8883   5085907.9835   2   6   0.0407   0.0193   0.0142  -0.0207   0.0076   0.0103   0.00    1.0
2020/04/05 00:18:00.000   2447581.1513   2941189.8918   5085907.9846   2   6   0.0393   0.0186   0.0137  -0.0201   0.0073   0.0099   0.00    1.7
2020/04/05 00:18:30.000   2447581.1524   2941189.8946   5085907.9911   2   6   0.0381   0.0179   0.0132  -0.0194   0.0070   0.0096   0.00    1.7
2020/04/05 00:19:00.000   2447581.1505   2941189.8993   5085907.9947   2   6   0.0369   0.0173   0.0127  -0.0189   0.0067   0.0093   0.00    1.7
2020/04/05 00:19:30.000   2447581.1448   2941189.9080   5085908.0016   2   6   0.0357   0.0167   0.0122  -0.0183   0.0065   0.0091   0.00    1.7
2020/04/05 00:20:00.000   2447581.1366   2941189.9237   5085908.0128   2   6   0.0347   0.0162   0.0118  -0.0178   0.0062   0.0088   0.00    1.7
2020/04/05 00:20:30.000   2447581.1356   2941189.9375   5085908.0241   2   6   0.0337   0.0157   0.0114  -0.0173   0.0060   0.0086   0.00    1.8
2020/04/05 00:21:00.000   2447581.1265   2941189.9519   5085908.0347   2   6   0.0327   0.0152   0.0110  -0.0168   0.0058   0.0083   0.00    1.8
2020/04/05 00:21:30.000   2447581.1237   2941189.9660   5085908.0478   2   6   0.0319   0.0147   0.0107  -0.0164   0.0056   0.0081   0.00    1.8
2020/04/05 00:22:00.000   2447581.1267   2941189.9749   5085908.0600   2   6   0.0310   0.0143   0.0104  -0.0160   0.0054   0.0079   0.00    1.7
2020/04/05 00:22:30.000   2447581.1255   2941189.9867   5085908.0694   2   6   0.0302   0.0139   0.0100  -0.0156   0.0052   0.0077   0.00    1.7
2020/04/05 00:23:00.000   2447581.1295   2941189.9994   5085908.0829   2   6   0.0295   0.0135   0.0097  -0.0152   0.0050   0.0075   0.00    1.1
2020/04/05 00:23:30.000   2447581.1359   2941190.0121   5085908.0946   2   6   0.0287   0.0132   0.0095  -0.0149   0.0048   0.0074   0.00    1.8
2020/04/05 00:24:00.000   2447581.1323   2941190.0286   5085908.1035   2   6   0.0281   0.0128   0.0092  -0.0146   0.0047   0.0072   0.00    1.8
2020/04/05 00:24:30.000   2447581.1327   2941190.0425   5085908.1132   2   6   0.0274   0.0125   0.0089  -0.0142   0.0045   0.0071   0.00    1.8
2020/04/05 00:25:00.000   2447581.1331   2941190.0566   5085908.1225   2   6   0.0268   0.0122   0.0087  -0.0139   0.0044   0.0069   0.00    1.9
2020/04/05 00:25:30.000   2447581.1375   2941190.0712   5085908.1345   2   6   0.0262   0.0119   0.0085  -0.0137   0.0042   0.0068   0.00    1.9
2020/04/05 00:26:00.000   2447581.1396   2941190.0846   5085908.1456   2   6   0.0257   0.0116   0.0082  -0.0134   0.0041   0.0067   0.00    1.9
2020/04/05 00:26:30.000   2447581.1369   2941190.0971   5085908.1534   2   6   0.0251   0.0113   0.0080  -0.0131   0.0039   0.0065   0.00    1.9
2020/04/05 00:27:00.000   2447581.1398   2941190.1096   5085908.1643   2   6   0.0246   0.0111   0.0078  -0.0129   0.0038   0.0064   0.00    1.8
2020/04/05 00:27:30.000   2447581.1412   2941190.1218   5085908.1766   2   6   0.0241   0.0108   0.0076  -0.0126   0.0037   0.0063   0.00    1.8
2020/04/05 00:28:00.000   2447581.1408   2941190.1326   5085908.1871   2   6   0.0237   0.0106   0.0075  -0.0124   0.0036   0.0062   0.00    1.7
2020/04/05 00:28:30.000   2447581.1336   2941190.1447   5085908.1980   2   6   0.0232   0.0104   0.0073  -0.0122   0.0035   0.0061   0.00    1.1
2020/04/05 00:29:00.000   2447581.1211   2941190.1573   5085908.2076   2   6   0.0228   0.0102   0.0071  -0.0120   0.0034   0.0060   0.00    1.6
2020/04/05 00:29:30.000   2447581.1094   2941190.1677   5085908.2151   2   6   0.0224   0.0100   0.0070  -0.0118   0.0033   0.0059   0.00    1.1
2020/04/05 00:30:00.000   2447581.0967   2941190.1791   5085908.2231   2   6   0.0220   0.0098   0.0068  -0.0116   0.0031   0.0058   0.00    1.1
2020/04/05 00:30:30.000   2447581.0939   2941190.1870   5085908.2323   2   6   0.0217   0.0096   0.0067  -0.0114   0.0031   0.0057   0.00    1.0
2020/04/05 00:31:00.000   2447581.0950   2941190.1938   5085908.2397   2   6   0.0213   0.0094   0.0065  -0.0112   0.0030   0.0056   0.00    1.6
2020/04/05 00:31:30.000   2447581.0992   2941190.1990   5085908.2470   2   6   0.0209   0.0092   0.0064  -0.0111   0.0029   0.0056   0.00    1.6
2020/04/05 00:32:00.000   2447581.1043   2941190.2008   5085908.2510   2   6   0.0206   0.0091   0.0063  -0.0109   0.0028   0.0055   0.00    1.6
2020/04/05 00:32:30.000   2447581.1102   2941190.2035   5085908.2553   2   6   0.0203   0.0089   0.0061  -0.0108   0.0027   0.0054   0.00    1.6
2020/04/05 00:33:00.000   2447581.1116   2941190.2066   5085908.2588   2   6   0.0200   0.0088   0.0060  -0.0106   0.0026   0.0054   0.00    1.6
2020/04/05 00:33:30.000   2447581.1134   2941190.2085   5085908.2618   2   6   0.0197   0.0086   0.0059  -0.0105   0.0025   0.0053   0.00    1.6
2020/04/05 00:34:00.000   2447581.1145   2941190.2105   5085908.2656   2   6   0.0194   0.0085   0.0058  -0.0103   0.0024   0.0052   0.00    1.6
2020/04/05 00:34:30.000   2447581.1094   2941190.2140   5085908.2667   2   6   0.0192   0.0083   0.0057  -0.0102   0.0024   0.0052   0.00    1.5
2020/04/05 00:35:00.000   2447581.1047   2941190.2176   5085908.2686   2   6   0.0189   0.0082   0.0056  -0.0101   0.0023   0.0051   0.00    1.5
2020/04/05 00:35:30.000   2447581.1014   2941190.2214   5085908.2699   2   6   0.0186   0.0081   0.0055  -0.0099   0.0022   0.0051   0.00    1.5
2020/04/05 00:36:00.000   2447581.0947   2941190.2247   5085908.2711   2   6   0.0184   0.0080   0.0054  -0.0098   0.0021   0.0050   0.00    1.0
2020/04/05 00:36:30.000   2447581.0845   2941190.2297   5085908.2724   2   6   0.0182   0.0078   0.0053  -0.0097   0.0021   0.0050   0.00    1.5
2020/04/05 00:37:00.000   2447581.0726   2941190.2364   5085908.2750   2   6   0.0179   0.0077   0.0052  -0.0096   0.0020   0.0049   0.00    1.1
2020/04/05 00:37:30.000   2447581.0614   2941190.2422   5085908.2772   2   6   0.0177   0.0076   0.0051  -0.0095   0.0019   0.0049   0.00    1.1
2020/04/05 00:38:00.000   2447581.0433   2941190.2521   5085908.2809   2   6   0.0175   0.0075   0.0050  -0.0094   0.0018   0.0049   0.00    1.1
2020/04/05 00:38:30.000   2447581.0232   2941190.2630   5085908.2851   2   6   0.0173   0.0074   0.0049  -0.0093   0.0018   0.0048   0.00    1.1
2020/04/05 00:39:00.000   2447581.0054   2941190.2732   5085908.2890   2   6   0.0171   0.0073   0.0049  -0.0092   0.0017   0.0048   0.00    1.1
2020/04/05 00:39:30.000   2447580.9857   2941190.2832   5085908.2921   2   6   0.0169   0.0072   0.0048  -0.0091   0.0016   0.0047   0.00    1.0
2020/04/05 00:40:00.000   2447580.9631   2941190.2933   5085908.2936   2   6   0.0167   0.0071   0.0047  -0.0090   0.0016   0.0047   0.00    1.2
2020/04/05 00:40:30.000   2447580.9427   2941190.3013   5085908.2946   2   6   0.0166   0.0070   0.0046  -0.0089   0.0015   0.0047   0.00    1.0
2020/04/05 00:41:00.000   2447580.9226   2941190.3095   5085908.2961   2   6   0.0164   0.0070   0.0046  -0.0089   0.0014   0.0046   0.00    1.1
2020/04/05 00:41:30.000   2447580.9035   2941190.3168   5085908.2963   2   6   0.0162   0.0069   0.0045  -0.0088   0.0013   0.0046   0.00    1.0
2020/04/05 00:42:00.000   2447580.8859   2941190.3237   5085908.2953   2   6   0.0161   0.0068   0.0044  -0.0087   0.0013   0.0046   0.00    1.1
2020/04/05 00:42:30.000   2447580.8635   2941190.3309   5085908.2940   2   6   0.0159   0.0067   0.0044  -0.0086   0.0012   0.0046   0.00    1.1
2020/04/05 00:43:00.000   2447580.8437   2941190.3371   5085908.2921   2   6   0.0158   0.0066   0.0043  -0.0085   0.0011   0.0045   0.00    1.3
2020/04/05 00:43:30.000   2447580.8228   2941190.3432   5085908.2896   2   6   0.0156   0.0066   0.0043  -0.0085   0.0011   0.0045   0.00    1.1
2020/04/05 00:44:00.000   2447580.8010   2941190.3494   5085908.2869   2   6   0.0155   0.0065   0.0042  -0.0084   0.0010   0.0045   0.00    1.0
2020/04/05 00:44:30.000   2447580.7800   2941190.3555   5085908.2839   2   6   0.0153   0.0064   0.0042  -0.0083   0.0009   0.0045   0.00    1.1
2020/04/05 00:45:00.000   2447580.7573   2941190.3636   5085908.2817   2   6   0.0152   0.0064   0.0041  -0.0083   0.0008   0.0044   0.00    1.2
2020/04/05 00:45:30.000   2447580.7303   2941190.3729   5085908.2791   2   6   0.0151   0.0063   0.0041  -0.0082   0.0007   0.0044   0.00    1.0
2020/04/05 00:46:00.000   2447580.7068   2941190.3815   5085908.2770   2   6   0.0149   0.0062   0.0040  -0.0082   0.0006   0.0044   0.00    1.5
2020/04/05 00:46:30.000   2447580.6800   2941190.3905   5085908.2736   2   6   0.0148   0.0062   0.0040  -0.0081   0.0005   0.0044   0.00    1.1
2020/04/05 00:47:00.000   2447580.6612   2941190.3982   5085908.2713   2   6   0.0148   0.0061   0.0039  -0.0081   0.0002   0.0044   0.00    1.1
2020/04/05 00:47:30.000   2447580.6422   2941190.4055   5085908.2687   2   6   0.0147   0.0061   0.0039  -0.0080  -0.0004   0.0044   0.00    1.0
2020/04/05 00:48:00.000   2447580.6226   2941190.4129   5085908.2659   2   6   0.0147   0.0060   0.0039  -0.0080  -0.0006   0.0045   0.00    1.0
2020/04/05 00:48:30.000   2447580.6221   2941190.4100   5085908.2591   2   5   0.0146   0.0060   0.0038  -0.0080  -0.0006   0.0045   0.00    1.2
2020/04/05 00:49:00.000   2447580.6223   2941190.4074   5085908.2526   2   5   0.0146   0.0060   0.0038  -0.0080  -0.0007   0.0045   0.00    1.2
2020/04/05 00:49:30.000   2447580.6231   2941190.4045   5085908.2458   2   5   0.0146   0.0060   0.0038  -0.0080  -0.0007   0.0045   0.00    1.2
2020/04/05 00:50:00.000   2447580.6238   2941190.4013   5085908.2391   2   5   0.0146   0.0060   0.0038  -0.0080  -0.0007   0.0045   0.00    1.2
2020/04/05 00:50:30.000   2447580.6246   2941190.3978   5085908.2321   2   5   0.0146   0.0059   0.0037  -0.0080  -0.0008   0.0045   0.00    1.2
2020/04/05 00:51:00.000   2447580.6256   2941190.3941   5085908.2250   2   5   0.0146   0.0059   0.0037  -0.0080  -0.0008   0.0045   0.00    1.2
2020/04/05 00:51:30.000   2447580.6262   2941190.3903   5085908.2182   2   5   0.0146   0.0059   0.0037  -0.0080  -0.0009   0.0045   0.00    1.1
2020/04/05 00:52:00.000   2447580.6270   2941190.3864   5085908.2119   2   5   0.0146   0.0059   0.0037  -0.0080  -0.0009   0.0045   0.00    1.1
2020/04/05 00:52:30.000   2447580.6278   2941190.3821   5085908.2057   2   5   0.0146   0.0059   0.0037  -0.0080  -0.0010   0.0045   0.00    1.1
2020/04/05 00:53:00.000   2447580.6288   2941190.3776   5085908.1996   2   5   0.0146   0.0059   0.0036  -0.0080  -0.0010   0.0045   0.00    1.1
2020/04/05 00:53:30.000   2447580.6295   2941190.3723   5085908.1922   2   5   0.0146   0.0058   0.0036  -0.0081  -0.0011   0.0045   0.00    1.0
2020/04/05 00:54:00.000   2447580.6309   2941190.3674   5085908.1858   2   5   0.0145   0.0058   0.0036  -0.0081  -0.0011   0.0045   0.00    1.0
2020/04/05 00:54:30.000   2447580.6325   2941190.3623   5085908.1794   2   5   0.0145   0.0058   0.0036  -0.0081  -0.0011   0.0045   0.00    1.0
2020/04/05 00:55:00.000   2447580.6342   2941190.3571   5085908.1732   2   5   0.0145   0.0058   0.0035  -0.0081  -0.0012   0.0045   0.00    1.0
2020/04/05 00:55:30.000   2447580.6357   2941190.3516   5085908.1664   2   5   0.0145   0.0058   0.0035  -0.0081  -0.0012   0.0045   0.00    1.0
2020/04/05 00:56:00.000   2447580.6370   2941190.3463   5085908.1602   2   5   0.0145   0.0058   0.0035  -0.0081  -0.0013   0.0046   0.00    1.1
2020/04/05 00:56:30.000   2447580.6385   2941190.3410   5085908.1539   2   5   0.0145   0.0058   0.0035  -0.0081  -0.0013   0.0046   0.00    1.1
2020/04/05 00:57:00.000   2447580.6403   2941190.3352   5085908.1473   2   5   0.0145   0.0057   0.0035  -0.0081  -0.0013   0.0046   0.00    1.0
2020/04/05 00:57:30.000   2447580.6423   2941190.3291   5085908.1404   2   5   0.0145   0.0057   0.0035  -0.0081  -0.0014   0.0046   0.00    1.1
2020/04/05 00:58:00.000   2447580.6443   2941190.3228   5085908.1336   2   5   0.0144   0.0057   0.0034  -0.0081  -0.0014   0.0046   0.00    1.2
2020/04/05 00:58:30.000   2447580.6460   2941190.3169   5085908.1273   2   5   0.0144   0.0057   0.0034  -0.0081  -0.0014   0.0046   0.00    1.2
2020/04/05 00:59:00.000   2447580.6477   2941190.3104   5085908.1206   2   5   0.0144   0.0057   0.0034  -0.0081  -0.0015   0.0046   0.00    1.3
2020/04/05 00:59:30.000   2447580.6496   2941190.3037   5085908.1137   2   5   0.0144   0.0057   0.0034  -0.0081  -0.0015   0.0046   0.00    1.4
2020/04/05 01:00:00.000   2447580.6526   2941190.2966   5085908.1066   2   5   0.0144   0.0057   0.0034  -0.0081  -0.0015   0.0046   0.00    1.6
2020/04/05 01:00:30.000   2447580.6553   2941190.2901   5085908.1002   2   5   0.0144   0.0056   0.0034  -0.0081  -0.0016   0.0047   0.00    1.6
2020/04/05 01:01:00.000   2447580.6583   2941190.2834   5085908.0937   2   5   0.0143   0.0056   0.0033  -0.0081  -0.0016   0.0047   0.00    1.7
2020/04/05 01:01:30.000   2447580.6628   2941190.2759   5085908.0865   2   5   0.0143   0.0056   0.0033  -0.0081  -0.0016   0.0047   0.00    1.8
2020/04/05 01:02:00.000   2447580.6679   2941190.2683   5085908.0794   2   5   0.0143   0.0056   0.0033  -0.0080  -0.0017   0.0047   0.00    1.9
2020/04/05 01:02:30.000   2447580.6731   2941190.2607   5085908.0725   2   5   0.0143   0.0056   0.0033  -0.0080  -0.0017   0.0047   0.00    1.8
2020/04/05 01:03:00.000   2447580.6789   2941190.2533   5085908.0659   2   5   0.0143   0.0056   0.0033  -0.0080  -0.0017   0.0047   0.00    1.7
2020/04/05 01:03:30.000   2447580.6842   2941190.2460   5085908.0596   2   6   0.0142   0.0056   0.0033  -0.0080  -0.0018   0.0047   0.00    1.0
2020/04/05 01:04:00.000   2447580.6898   2941190.2390   5085908.0536   2   6   0.0142   0.0055   0.0033  -0.0080  -0.0018   0.0048   0.00    1.6
2020/04/05 01:04:30.000   2447580.6955   2941190.2326   5085908.0482   2   6   0.0142   0.0055   0.0032  -0.0080  -0.0018   0.0048   0.00    1.4
2020/04/05 01:05:00.000   2447580.7018   2941190.2255   5085908.0427   2   6   0.0142   0.0055   0.0032  -0.0080  -0.0019   0.0048   0.00    1.3
2020/04/05 01:05:30.000   2447580.7097   2941190.2180   5085908.0369   2   6   0.0141   0.0055   0.0032  -0.0080  -0.0019   0.0048   0.00    1.1
2020/04/05 01:06:00.000   2447580.7182   2941190.2105   5085908.0314   2   6   0.0141   0.0055   0.0032  -0.0080  -0.0019   0.0048   0.00    1.0
2020/04/05 01:06:30.000   2447580.7275   2941190.2028   5085908.0259   2   6   0.0141   0.0055   0.0032  -0.0080  -0.0019   0.0048   0.00    1.1
2020/04/05 01:07:00.000   2447580.7373   2941190.1952   5085908.0208   2   6   0.0140   0.0054   0.0032  -0.0080  -0.0020   0.0048   0.00    1.1
2020/04/05 01:07:30.000   2447580.7477   2941190.1877   5085908.0160   2   6   0.0140   0.0054   0.0032  -0.0079  -0.0020   0.0048   0.00    1.1
2020/04/05 01:08:00.000   2447580.7581   2941190.1803   5085908.0114   2   6   0.0140   0.0054   0.0032  -0.0079  -0.0020   0.0049   0.00    1.1
2020/04/05 01:08:30.000   2447580.7694   2941190.1725   5085908.0071   2   6   0.0140   0.0054   0.0032  -0.0079  -0.0020   0.0049   0.00    1.1
2020/04/05 01:09:00.000   2447580.7808   2941190.1651   5085908.0030   2   5   0.0139   0.0054   0.0032  -0.0079  -0.0021   0.0049   0.00    1.1
2020/04/05 01:09:30.000   2447580.7940   2941190.1569   5085907.9993   2   6   0.0139   0.0054   0.0031  -0.0079  -0.0021   0.0049   0.00    1.0
2020/04/05 01:10:00.000   2447580.8067   2941190.1490   5085907.9957   2   6   0.0138   0.0053   0.0031  -0.0079  -0.0021   0.0049   0.00    1.1
2020/04/05 01:10:30.000   2447580.8206   2941190.1408   5085907.9922   2   5   0.0138   0.0053   0.0031  -0.0078  -0.0021   0.0049   0.00    1.2
2020/04/05 01:11:00.000   2447580.8355   2941190.1323   5085907.9891   2   5   0.0138   0.0053   0.0031  -0.0078  -0.0021   0.0049   0.00    1.1
2020/04/05 01:11:30.000   2447580.8507   2941190.1241   5085907.9864   2   5   0.0137   0.0053   0.0031  -0.0078  -0.0022   0.0049   0.00    1.1
2020/04/05 01:12:00.000   2447580.8673   2941190.1152   5085907.9835   2   5   0.0137   0.0053   0.0031  -0.0078  -0.0022   0.0049   0.00    1.0
2020/04/05 01:12:30.000   2447580.8843   2941190.1062   5085907.9808   2   5   0.0136   0.0052   0.0031  -0.0077  -0.0022   0.0049   0.00    1.1
2020/04/05 01:13:00.000   2447580.9039   2941190.0964   5085907.9783   2   5   0.0136   0.0052   0.0031  -0.0077  -0.0022   0.0050   0.00    1.2
2020/04/05 01:13:30.000   2447580.9226   2941190.0868   5085907.9762   2   6   0.0135   0.0052   0.0031  -0.0077  -0.0022   0.0050   0.00    1.0
2020/04/05 01:14:00.000   2447580.9441   2941190.0763   5085907.9743   2   6   0.0135   0.0052   0.0031  -0.0077  -0.0022   0.0050   0.00    1.0
2020/04/05 01:14:30.000   2447580.9681   2941190.0652   5085907.9726   2   6   0.0134   0.0052   0.0031  -0.0076  -0.0022   0.0050   0.00    1.1
2020/04/05 01:14:59.999   2447580.9919   2941190.0542   5085907.9713   2   6   0.0134   0.0051   0.0031  -0.0076  -0.0023   0.0050   0.00    1.1
2020/04/05 01:15:30.000   2447581.0180   2941190.0424   5085907.9702   2   6   0.0133   0.0051   0.0030  -0.0076  -0.0023   0.0050   0.00    1.2
2020/04/05 01:16:00.000   2447581.0445   2941190.0304   5085907.9694   2   7   0.0132   0.0051   0.0030  -0.0075  -0.0023   0.0050   0.00    1.0
2020/04/05 01:16:30.000   2447581.0722   2941190.0181   5085907.9689   2   7   0.0132   0.0051   0.0030  -0.0075  -0.0023   0.0050   0.00    1.1
2020/04/05 01:17:00.000   2447581.1002   2941190.0057   5085907.9685   2   7   0.0131   0.0050   0.0030  -0.0075  -0.0023   0.0050   0.00    1.1
2020/04/05 01:17:30.000   2447581.1297   2941189.9932   5085907.9686   2   7   0.0130   0.0050   0.0030  -0.0074  -0.0023   0.0050   0.00    1.1
2020/04/05 01:18:00.000   2447581.1597   2941189.9805   5085907.9689   2   7   0.0130   0.0050   0.0030  -0.0074  -0.0023   0.0050   0.00    1.0
2020/04/05 01:18:30.000   2447581.1911   2941189.9673   5085907.9693   2   7   0.0129   0.0049   0.0030  -0.0073  -0.0023   0.0049   0.00    1.0
2020/04/05 01:19:00.000   2447581.2209   2941189.9547   5085907.9697   2   7   0.0128   0.0049   0.0030  -0.0073  -0.0023   0.0049   0.00    1.0
2020/04/05 01:19:30.000   2447581.2509   2941189.9418   5085907.9699   2   7   0.0127   0.0049   0.0030  -0.0072  -0.0023   0.0049   0.00    1.0
2020/04/05 01:20:00.000   2447581.2805   2941189.9291   5085907.9707   2   7   0.0126   0.0048   0.0030  -0.0072  -0.0023   0.0049   0.00    1.1
2020/04/05 01:20:30.000   2447581.3108   2941189.9161   5085907.9717   2   7   0.0125   0.0048   0.0030  -0.0071  -0.0023   0.0049   0.00    1.0
2020/04/05 01:21:00.000   2447581.3410   2941189.9035   5085907.9728   2   7   0.0124   0.0048   0.0030  -0.0071  -0.0023   0.0049   0.00    1.1
2020/04/05 01:21:30.000   2447581.3695   2941189.8914   5085907.9735   2   7   0.0123   0.0047   0.0029  -0.0070  -0.0023   0.0049   0.00    1.1
2020/04/05 01:22:00.000   2447581.3985   2941189.8793   5085907.9746   2   7   0.0122   0.0047   0.0029  -0.0070  -0.0023   0.0048   0.00    1.1
2020/04/05 01:22:30.000   2447581.4300   2941189.8664   5085907.9763   2   7   0.0121   0.0047   0.0029  -0.0069  -0.0023   0.0048   0.00    1.1
2020/04/05 01:23:00.000   2447581.4594   2941189.8539   5085907.9776   2   7   0.0120   0.0046   0.0029  -0.0068  -0.0023   0.0048   0.00    1.1
2020/04/05 01:23:30.000   2447581.4913   2941189.8409   5085907.9793   2   7   0.0119   0.0046   0.0029  -0.0068  -0.0022   0.0048   0.00    1.1
2020/04/05 01:24:00.000   2447581.5210   2941189.8286   5085907.9811   2   7   0.0118   0.0045   0.0029  -0.0067  -0.0022   0.0047   0.00    1.0
2020/04/05 01:24:30.000   2447581.5522   2941189.8156   5085907.9829   2   7   0.0117   0.0045   0.0029  -0.0066  -0.0022   0.0047   0.00    1.1
2020/04/05 01:25:00.000   2447581.5818   2941189.8035   5085907.9850   2   7   0.0116   0.0045   0.0029  -0.0066  -0.0022   0.0047   0.00    1.3
2020/04/05 01:25:30.000   2447581.6111   2941189.7912   5085907.9869   2   7   0.0114   0.0044   0.0028  -0.0065  -0.0022   0.0046   0.00    1.1
2020/04/05 01:26:00.000   2447581.6393   2941189.7796   5085907.9889   2   7   0.0113   0.0044   0.0028  -0.0064  -0.0022   0.0046   0.00    1.2
2020/04/05 01:26:30.000   2447581.6694   2941189.7671   5085907.9914   2   7   0.0112   0.0043   0.0028  -0.0063  -0.0021   0.0046   0.00    1.2
2020/04/05 01:27:00.000   2447581.6988   2941189.7548   5085907.9940   2   7   0.0111   0.0043   0.0028  -0.0063  -0.0021   0.0045   0.00    1.0
2020/04/05 01:27:30.000   2447581.7283   2941189.7426   5085907.9969   2   7   0.0109   0.0042   0.0028  -0.0062  -0.0021   0.0045   0.00    1.2
2020/04/05 01:28:00.000   2447581.7575   2941189.7302   5085907.9997   2   7   0.0108   0.0042   0.0028  -0.0061  -0.0021   0.0045   0.00    1.1
2020/04/05 01:28:30.000   2447581.7884   2941189.7174   5085908.0029   2   7   0.0107   0.0042   0.0028  -0.0060  -0.0021   0.0044   0.00    1.5
2020/04/05 01:29:00.000   2447581.8196   2941189.7043   5085908.0065   2   7   0.0105   0.0041   0.0027  -0.0059  -0.0020   0.0044   0.00    1.1
2020/04/05 01:29:30.000   2447581.8509   2941189.6909   5085908.0097   2   7   0.0104   0.0041   0.0027  -0.0059  -0.0020   0.0043   0.00    1.2
2020/04/05 01:30:00.000   2447581.8809   2941189.6781   5085908.0130   2   7   0.0102   0.0040   0.0027  -0.0058  -0.0020   0.0043   0.00    1.2
2020/04/05 01:30:30.000   2447581.9113   2941189.6650   5085908.0162   2   7   0.0101   0.0040   0.0027  -0.0057  -0.0020   0.0043   0.00    1.1
2020/04/05 01:31:00.000   2447581.9401   2941189.6524   5085908.0192   2   7   0.0100   0.0039   0.0027  -0.0056  -0.0019   0.0042   0.00    1.2
2020/04/05 01:31:30.000   2447581.9688   2941189.6397   5085908.0220   2   7   0.0098   0.0039   0.0027  -0.0055  -0.0019   0.0042   0.00    1.7
2020/04/05 01:32:00.000   2447581.9985   2941189.6268   5085908.0252   2   7   0.0097   0.0038   0.0026  -0.0055  -0.0019   0.0041   0.00    1.1
2020/04/05 01:32:30.000   2447582.0270   2941189.6141   5085908.0279   2   7   0.0096   0.0038   0.0026  -0.0054  -0.0019   0.0041   0.00    1.4
2020/04/05 01:33:00.000   2447582.0556   2941189.6014   5085908.0309   2   7   0.0094   0.0038   0.0026  -0.0053  -0.0018   0.0040   0.00    1.2
2020/04/05 01:33:30.000   2447582.0829   2941189.5892   5085908.0337   2   7   0.0093   0.0037   0.0026  -0.0052  -0.0018   0.0040   0.00    1.0
2020/04/05 01:34:00.000   2447582.1114   2941189.5764   5085908.0368   2   7   0.0092   0.0037   0.0026  -0.0051  -0.0018   0.0039   0.00    1.1
2020/04/05 01:34:30.000   2447582.1387   2941189.5642   5085908.0398   2   7   0.0090   0.0036   0.0025  -0.0051  -0.0017   0.0039   0.00    1.4
2020/04/05 01:35:00.000   2447582.1640   2941189.5528   5085908.0424   2   7   0.0089   0.0036   0.0025  -0.0050  -0.0017   0.0038   0.00    1.6
2020/04/05 01:35:30.000   2447582.1896   2941189.5411   5085908.0452   2   7   0.0088   0.0035   0.0025  -0.0049  -0.0017   0.0038   0.00    2.2
2020/04/05 01:36:00.000   2447582.2154   2941189.5295   5085908.0484   2   7   0.0086   0.0035   0.0025  -0.0048  -0.0017   0.0037   0.00    1.2
2020/04/05 01:36:30.000   2447582.2395   2941189.5183   5085908.0511   2   7   0.0085   0.0035   0.0025  -0.0048  -0.0016   0.0037   0.00    1.2
2020/04/05 01:37:00.000   2447582.2618   2941189.5080   5085908.0538   2   7   0.0084   0.0034   0.0025  -0.0047  -0.0016   0.0037   0.00    1.1
2020/04/05 01:37:30.000   2447582.2846   2941189.4974   5085908.0566   2   7   0.0083   0.0034   0.0024  -0.0046  -0.0016   0.0036   0.00    1.3
2020/04/05 01:38:00.000   2447582.3040   2941189.4879   5085908.0588   2   7   0.0081   0.0033   0.0024  -0.0045  -0.0015   0.0036   0.00    1.2
2020/04/05 01:38:30.000   2447582.3226   2941189.4788   5085908.0610   2   7   0.0080   0.0033   0.0024  -0.0045  -0.0015   0.0035   0.00    1.5
2020/04/05 01:39:00.000   2447582.3411   2941189.4695   5085908.0632   2   7   0.0079   0.0033   0.0024  -0.0044  -0.0015   0.0035   0.00    1.3
2020/04/05 01:39:30.000   2447582.3586   2941189.4608   5085908.0656   2   7   0.0078   0.0032   0.0024  -0.0043  -0.0015   0.0034   0.00    2.9
2020/04/05 01:40:00.000   2447582.3161   2941189.4568   5085908.0503   1   7   0.0007   0.0014   0.0016   0.0007   0.0012   0.0006   0.00    3.4
2020/04/05 01:40:30.000   2447582.3143   2941189.4561   5085908.0506   1   7   0.0007   0.0014   0.0016   0.0007   0.0012   0.0006   0.00    3.5
2020/04/05 01:41:00.000   2447582.3126   2941189.4555   5085908.0510   1   7   0.0007   0.0014   0.0016   0.0007   0.0012   0.0006   0.00    3.5
2020/04/05 01:41:30.000   2447582.3108   2941189.4547   5085908.0515   1   7   0.0007   0.0014   0.0016   0.0007   0.0012   0.0006   0.00    3.5
2020/04/05 01:42:00.000   2447582.3091   2941189.4541   5085908.0520   1   7   0.0007   0.0014   0.0016   0.0007   0.0012   0.0006   0.00    3.5
2020/04/05 01:42:30.000   2447582.3073   2941189.4533   5085908.0523   1   7   0.0007   0.0014   0.0016   0.0007   0.0012   0.0006   0.00    3.5
2020/04/05 01:43:00.000   2447582.3055   2941189.4524   5085908.0525   1   7   0.0007   0.0014   0.0016   0.0006   0.0012   0.0006   0.00    3.5
2020/04/05 01:43:30.000   2447582.3036   2941189.4513   5085908.0526   1   7   0.0007   0.0014   0.0016   0.0006   0.0012   0.0006   0.00    3.4
2020/04/05 01:44:00.000   2447582.3017   2941189.4502   5085908.0528   1   7   0.0007   0.0014   0.0016   0.0006   0.0012   0.0006   0.00    3.4
2020/04/05 01:44:30.000   2447582.2997   2941189.4490   5085908.0527   1   7   0.0007   0.0014   0.0016   0.0006   0.0012   0.0006   0.00    3.3
2020/04/05 01:45:00.000   2447582.2978   2941189.4477   5085908.0527   1   7   0.0007   0.0014   0.0016   0.0006   0.0012   0.0006   0.00    3.2
2020/04/05 01:45:30.000   2447582.2957   2941189.4463   5085908.0526   1   7   0.0007   0.0014   0.0016   0.0006   0.0012   0.0006   0.00    3.2
2020/04/05 01:46:00.000   2447582.2937   2941189.4448   5085908.0524   1   7   0.0007   0.0014   0.0016   0.0006   0.0012   0.0006   0.00    3.1
2020/04/05 01:46:30.000   2447582.2915   2941189.4433   5085908.0521   1   7   0.0007   0.0014   0.0016   0.0006   0.0012   0.0006   0.00    3.0
2020/04/05 01:47:00.000   2447582.5312   2941189.3616   5085908.0954   2   7   0.0062   0.0028   0.0021  -0.0034  -0.0011   0.0028   0.00    2.9
2020/04/05 01:47:30.000   2447582.5392   2941189.3560   5085908.0969   2   7   0.0061   0.0027   0.0021  -0.0033  -0.0011   0.0028   0.00    1.9
2020/04/05 01:48:00.000   2447582.5472   2941189.3503   5085908.0985   2   7   0.0061   0.0027   0.0021  -0.0033  -0.0010   0.0028   0.00    2.4
2020/04/05 01:48:30.000   2447582.5540   2941189.3451   5085908.0999   2   7   0.0060   0.0027   0.0021  -0.0032  -0.0010   0.0027   0.00    2.2
2020/04/05 01:49:00.000   2447582.5606   2941189.3399   5085908.1011   2   7   0.0059   0.0027   0.0021  -0.0032  -0.0010   0.0027   0.00    1.3
2020/04/05 01:49:30.000   2447582.5673   2941189.3347   5085908.1023   2   7   0.0058   0.0026   0.0020  -0.0031  -0.0010   0.0027   0.00    1.6
2020/04/05 01:50:00.000   2447582.5736   2941189.3297   5085908.1036   2   7   0.0057   0.0026   0.0020  -0.0031  -0.0009   0.0026   0.00    1.3
2020/04/05 01:50:30.000   2447582.5799   2941189.3247   5085908.1049   2   7   0.0057   0.0026   0.0020  -0.0030  -0.0009   0.0026   0.00    1.1
2020/04/05 01:51:00.000   2447582.5858   2941189.3199   5085908.1063   2   7   0.0056   0.0026   0.0020  -0.0030  -0.0009   0.0026   0.00    1.4
2020/04/05 01:51:30.000   2447582.5923   2941189.3149   5085908.1078   2   7   0.0055   0.0025   0.0020  -0.0030  -0.0009   0.0025   0.00    1.2
2020/04/05 01:52:00.000   2447582.5990   2941189.3097   5085908.1092   2   8   0.0054   0.0025   0.0020  -0.0029  -0.0009   0.0025   0.00    1.0
2020/04/05 01:52:30.000   2447582.6058   2941189.3046   5085908.1109   2   8   0.0054   0.0025   0.0020  -0.0029  -0.0008   0.0025   0.00    1.0
2020/04/05 01:53:00.000   2447582.6116   2941189.2998   5085908.1124   2   8   0.0053   0.0025   0.0019  -0.0028  -0.0008   0.0025   0.00    1.0
2020/04/05 01:53:30.000   2447582.6175   2941189.2950   5085908.1141   2   8   0.0052   0.0025   0.0019  -0.0028  -0.0008   0.0024   0.00    1.0
2020/04/05 01:54:00.000   2447582.6231   2941189.2902   5085908.1156   2   8   0.0052   0.0024   0.0019  -0.0027  -0.0008   0.0024   0.00    1.1
2020/04/05 01:54:30.000   2447582.6290   2941189.2853   5085908.1174   2   8   0.0051   0.0024   0.0019  -0.0027  -0.0008   0.0024   0.00    1.0
2020/04/05 01:55:00.000   2447582.6351   2941189.2805   5085908.1194   2   8   0.0050   0.0024   0.0019  -0.0027  -0.0007   0.0024   0.00    1.0
2020/04/05 01:55:30.000   2447582.6413   2941189.2757   5085908.1215   2   8   0.0050   0.0024   0.0019  -0.0026  -0.0007   0.0023   0.00    1.1
2020/04/05 01:56:00.000   2447582.6477   2941189.2709   5085908.1237   2   8   0.0049   0.0024   0.0019  -0.0026  -0.0007   0.0023   0.00    1.0
2020/04/05 01:56:30.000   2447582.6540   2941189.2660   5085908.1259   2   8   0.0048   0.0023   0.0019  -0.0026  -0.0007   0.0023   0.00    1.1
2020/04/05 01:57:00.000   2447582.6610   2941189.2609   5085908.1282   2   8   0.0048   0.0023   0.0019  -0.0025  -0.0007   0.0023   0.00    1.0
2020/04/05 01:57:30.000   2447582.6674   2941189.2559   5085908.1305   2   8   0.0047   0.0023   0.0018  -0.0025  -0.0006   0.0022   0.00    1.1
2020/04/05 01:58:00.000   2447582.6745   2941189.2507   5085908.1329   2   8   0.0047   0.0023   0.0018  -0.0024  -0.0006   0.0022   0.00    1.1
2020/04/05 01:58:30.000   2447582.6811   2941189.2460   5085908.1353   2   8   0.0046   0.0023   0.0018  -0.0024  -0.0006   0.0022   0.00    1.0
2020/04/05 01:59:00.000   2447582.6882   2941189.2409   5085908.1377   2   8   0.0046   0.0022   0.0018  -0.0024  -0.0006   0.0022   0.00    1.0
2020/04/05 01:59:30.000   2447582.6948   2941189.2360   5085908.1402   2   8   0.0045   0.0022   0.0018  -0.0023  -0.0006   0.0021   0.00    1.0
2020/04/05 02:00:00.000   2447582.7016   2941189.2311   5085908.1428   2   8   0.0045   0.0022   0.0018  -0.0023  -0.0005   0.0021   0.00    1.0
2020/04/05 02:00:30.000   2447582.7084   2941189.2261   5085908.1453   2   8   0.0044   0.0022   0.0018  -0.0023  -0.0005   0.0021   0.00    1.0
2020/04/05 02:01:00.000   2447582.7157   2941189.2209   5085908.1478   2   8   0.0044   0.0022   0.0018  -0.0022  -0.0005   0.0021   0.00    1.1
2020/04/05 02:01:30.000   2447582.7230   2941189.2159   5085908.1505   2   8   0.0043   0.0022   0.0018  -0.0022  -0.0005   0.0021   0.00    1.2
2020/04/05 02:02:00.000   2447582.7307   2941189.2108   5085908.1533   2   8   0.0043   0.0022   0.0017  -0.0022  -0.0005   0.0020   0.00    1.1
2020/04/05 02:02:30.000   2447582.7377   2941189.2059   5085908.1560   2   8   0.0042   0.0021   0.0017  -0.0022  -0.0005   0.0020   0.00    1.0
2020/04/05 02:03:00.000   2447582.7441   2941189.2012   5085908.1585   2   8   0.0042   0.0021   0.0017  -0.0021  -0.0004   0.0020   0.00    1.2
2020/04/05 02:03:30.000   2447582.7505   2941189.1967   5085908.1612   2   8   0.0041   0.0021   0.0017  -0.0021  -0.0004   0.0020   0.00    1.0
2020/04/05 02:04:00.000   2447582.7564   2941189.1922   5085908.1638   2   8   0.0041   0.0021   0.0017  -0.0021  -0.0004   0.0020   0.00    1.1
2020/04/05 02:04:30.000   2447582.7620   2941189.1879   5085908.1662   2   8   0.0040   0.0021   0.0017  -0.0020  -0.0004   0.0019   0.00    1.0
2020/04/05 02:05:00.000   2447582.7679   2941189.1836   5085908.1688   2   8   0.0040   0.0021   0.0017  -0.0020  -0.0004   0.0019   0.00    1.3
2020/04/05 02:05:30.000   2447582.7736   2941189.1794   5085908.1713   2   8   0.0040   0.0021   0.0017  -0.0020  -0.0004   0.0019   0.00    1.0
2020/04/05 02:06:00.000   2447582.7794   2941189.1751   5085908.1739   2   8   0.0039   0.0020   0.0017  -0.0020  -0.0003   0.0019   0.00    1.2
2020/04/05 02:06:30.000   2447582.7848   2941189.1710   5085908.1763   2   8   0.0039   0.0020   0.0017  -0.0019  -0.0003   0.0019   0.00    1.5
2020/04/05 02:07:00.000   2447582.7900   2941189.1670   5085908.1786   2   8   0.0039   0.0020   0.0017  -0.0019  -0.0003   0.0019   0.00    1.1
2020/04/05 02:07:30.000   2447582.7959   2941189.1629   5085908.1811   2   8   0.0038   0.0020   0.0016  -0.0019  -0.0003   0.0018   0.00    1.0
2020/04/05 02:08:00.000   2447582.8017   2941189.1589   5085908.1836   2   8   0.0038   0.0020   0.0016  -0.0019  -0.0003   0.0018   0.00    1.1
2020/04/05 02:08:30.000   2447582.8075   2941189.1550   5085908.1861   2   8   0.0037   0.0020   0.0016  -0.0018  -0.0002   0.0018   0.00    1.3
2020/04/05 02:09:00.000   2447582.8131   2941189.1512   5085908.1886   2   8   0.0037   0.0020   0.0016  -0.0018  -0.0002   0.0018   0.00    1.1
2020/04/05 02:09:30.000   2447582.8185   2941189.1461   5085908.1889   2   7   0.0037   0.0020   0.0016  -0.0018  -0.0002   0.0018   0.00    1.4
2020/04/05 02:10:00.000   2447582.8236   2941189.1413   5085908.1892   2   7   0.0036   0.0020   0.0016  -0.0018  -0.0001   0.0018   0.00    1.7
2020/04/05 02:10:30.000   2447582.8283   2941189.1367   5085908.1893   2   7   0.0036   0.0019   0.0016  -0.0017  -0.0001   0.0018   0.00    1.1
2020/04/05 02:11:00.000   2447582.8330   2941189.1321   5085908.1894   2   7   0.0036   0.0019   0.0016  -0.0017   0.0001   0.0017   0.00    1.1
2020/04/05 02:11:30.000   2447582.8377   2941189.1275   5085908.1895   2   7   0.0035   0.0019   0.0016  -0.0017   0.0001   0.0017   0.00    1.2
2020/04/05 02:12:00.000   2447582.8423   2941189.1229   5085908.1896   2   7   0.0035   0.0019   0.0016  -0.0017   0.0002   0.0017   0.00    1.2
2020/04/05 02:12:30.000   2447582.8469   2941189.1184   5085908.1897   2   7   0.0035   0.0019   0.0016  -0.0017   0.0002   0.0017   0.00    1.0
2020/04/05 02:13:00.000   2447582.8515   2941189.1140   5085908.1897   2   7   0.0034   0.0019   0.0016  -0.0016   0.0002   0.0017   0.00    1.0
2020/04/05 02:13:30.000   2447582.8562   2941189.1097   5085908.1899   2   7   0.0034   0.0019   0.0016  -0.0016   0.0002   0.0017   0.00    1.1
2020/04/05 02:14:00.000   2447582.8605   2941189.1054   5085908.1899   2   7   0.0034   0.0019   0.0016  -0.0016   0.0003   0.0017   0.00    1.1
2020/04/05 02:14:30.000   2447582.8651   2941189.1010   5085908.1899   2   7   0.0034   0.0019   0.0016  -0.0016   0.0003   0.0017   0.00    1.4
2020/04/05 02:15:00.000   2447582.8694   2941189.0968   5085908.1898   2   7   0.0033   0.0019   0.0015  -0.0016   0.0003   0.0016   0.00    1.0
2020/04/05 02:15:30.000   2447582.8736   2941189.0928   5085908.1898   2   7   0.0033   0.0018   0.0015  -0.0015   0.0003   0.0016   0.00    1.0
2020/04/05 02:16:00.000   2447582.8778   2941189.0889   5085908.1898   2   7   0.0033   0.0018   0.0015  -0.0015   0.0003   0.0016   0.00    1.1
2020/04/05 02:16:30.000   2447582.8820   2941189.0849   5085908.1898   2   7   0.0033   0.0018   0.0015  -0.0015   0.0003   0.0016   0.00    1.2
2020/04/05 02:17:00.000   2447582.8861   2941189.0813   5085908.1898   2   7   0.0032   0.0018   0.0015  -0.0015   0.0003   0.0016   0.00    1.5
2020/04/05 02:17:30.000   2447582.8906   2941189.0776   5085908.1897   2   7   0.0032   0.0018   0.0015  -0.0015   0.0004   0.0016   0.00    1.6
2020/04/05 02:18:00.000   2447582.8946   2941189.0741   5085908.1897   2   7   0.0032   0.0018   0.0015  -0.0014   0.0004   0.0016   0.00    1.3
2020/04/05 02:18:30.000   2447582.9005   2941189.0714   5085908.1907   2   6   0.0032   0.0018   0.0015  -0.0014   0.0004   0.0016   0.00    1.2
2020/04/05 02:19:00.000   2447582.9064   2941189.0686   5085908.1917   2   6   0.0031   0.0018   0.0015  -0.0014   0.0004   0.0016   0.00    1.0
2020/04/05 02:19:30.000   2447582.9116   2941189.0661   5085908.1925   2   6   0.0031   0.0018   0.0015  -0.0014   0.0004   0.0016   0.00    1.2
2020/04/05 02:20:00.000   2447582.9167   2941189.0637   5085908.1933   2   6   0.0031   0.0018   0.0015  -0.0014   0.0004   0.0015   0.00    1.1
2020/04/05 02:20:30.000   2447582.9217   2941189.0613   5085908.1940   2   6   0.0031   0.0018   0.0015  -0.0013   0.0004   0.0015   0.00    1.1
2020/04/05 02:21:00.000   2447582.9265   2941189.0590   5085908.1948   2   6   0.0031   0.0018   0.0015  -0.0013   0.0004   0.0015   0.00    1.1
2020/04/05 02:21:30.000   2447582.9313   2941189.0567   5085908.1956   2   6   0.0030   0.0017   0.0015  -0.0013   0.0004   0.0015   0.00    1.1
2020/04/05 02:22:00.000   2447582.9357   2941189.0546   5085908.1962   2   6   0.0030   0.0017   0.0015  -0.0013   0.0004   0.0015   0.00    1.5
2020/04/05 02:22:30.000   2447582.9397   2941189.0527   5085908.1969   2   6   0.0030   0.0017   0.0015  -0.0013   0.0005   0.0015   0.00    1.0
2020/04/05 02:23:00.000   2447582.9435   2941189.0509   5085908.1975   2   6   0.0030   0.0017   0.0015  -0.0013   0.0005   0.0015   0.00    1.2
2020/04/05 02:23:30.000   2447582.9473   2941189.0492   5085908.1980   2   6   0.0030   0.0017   0.0015  -0.0012   0.0005   0.0015   0.00    1.0
2020/04/05 02:24:00.000   2447582.9507   2941189.0475   5085908.1986   2   6   0.0029   0.0017   0.0015  -0.0012   0.0005   0.0015   0.00    1.1
2020/04/05 02:24:30.000   2447582.9537   2941189.0459   5085908.1991   2   6   0.0029   0.0017   0.0015  -0.0012   0.0005   0.0015   0.00    1.0
2020/04/05 02:25:00.000   2447582.9572   2941189.0442   5085908.1995   2   6   0.0029   0.0017   0.0015  -0.0012   0.0005   0.0015   0.00    1.0
2020/04/05 02:25:30.000   2447582.9603   2941189.0426   5085908.1999   2   6   0.0029   0.0017   0.0015  -0.0012   0.0005   0.0015   0.00    1.0
2020/04/05 02:26:00.000   2447582.9634   2941189.0409   5085908.2003   2   6   0.0029   0.0017   0.0015  -0.0012   0.0005   0.0015   0.00    1.0
2020/04/05 02:26:30.000   2447582.9665   2941189.0391   5085908.2007   2   6   0.0028   0.0017   0.0014  -0.0011   0.0005   0.0015   0.00    1.0
2020/04/05 02:27:00.000   2447582.9693   2941189.0375   5085908.2012   2   6   0.0028   0.0017   0.0014  -0.0011   0.0005   0.0014   0.00    1.1
2020/04/05 02:27:30.000   2447582.9717   2941189.0359   5085908.2016   2   6   0.0028   0.0017   0.0014  -0.0011   0.0005   0.0014   0.00    1.1
2020/04/05 02:28:00.000   2447582.9744   2941189.0344   5085908.2021   2   6   0.0028   0.0017   0.0014  -0.0011   0.0005   0.0014   0.00    1.1
2020/04/05 02:28:30.000   2447582.9768   2941189.0328   5085908.2027   2   6   0.0028   0.0017   0.0014  -0.0011   0.0005   0.0014   0.00    1.1
2020/04/05 02:29:00.000   2447582.9793   2941189.0313   5085908.2033   2   6   0.0028   0.0016   0.0014  -0.0011   0.0005   0.0014   0.00    1.0
2020/04/05 02:29:30.000   2447582.9813   2941189.0298   5085908.2037   2   6   0.0028   0.0016   0.0014  -0.0010   0.0005   0.0014   0.00    1.1
2020/04/05 02:30:00.000   2447582.9831   2941189.0283   5085908.2041   2   6   0.0027   0.0016   0.0014  -0.0010   0.0005   0.0014   0.00    1.2
2020/04/05 02:30:30.000   2447582.9849   2941189.0269   5085908.2046   2   6   0.0027   0.0016   0.0014  -0.0010   0.0006   0.0014   0.00    1.1
2020/04/05 02:31:00.000   2447582.9867   2941189.0255   5085908.2051   2   6   0.0027   0.0016   0.0014  -0.0010   0.0006   0.0014   0.00    1.0
2020/04/05 02:31:30.000   2447582.9884   2941189.0241   5085908.2056   2   7   0.0027   0.0016   0.0014  -0.0010   0.0006   0.0014   0.00    1.0
2020/04/05 02:32:00.000   2447582.9900   2941189.0228   5085908.2061   2   7   0.0027   0.0016   0.0014  -0.0010   0.0006   0.0014   0.00    1.0
2020/04/05 02:32:30.000   2447582.9915   2941189.0215   5085908.2065   2   7   0.0027   0.0016   0.0014  -0.0010   0.0006   0.0014   0.00    1.0
2020/04/05 02:33:00.000   2447582.9929   2941189.0203   5085908.2069   2   7   0.0027   0.0016   0.0014  -0.0009   0.0006   0.0014   0.00    1.0
2020/04/05 02:33:30.000   2447582.9940   2941189.0192   5085908.2073   2   7   0.0026   0.0016   0.0014  -0.0009   0.0006   0.0014   0.00    1.0
2020/04/05 02:34:00.000   2447582.9950   2941189.0180   5085908.2078   2   7   0.0026   0.0016   0.0014  -0.0009   0.0006   0.0014   0.00    1.0
2020/04/05 02:34:30.000   2447582.9960   2941189.0167   5085908.2082   2   7   0.0026   0.0016   0.0014  -0.0009   0.0006   0.0014   0.00    1.1
2020/04/05 02:35:00.000   2447582.9966   2941189.0158   5085908.2086   2   7   0.0026   0.0016   0.0014  -0.0009   0.0006   0.0014   0.00    1.0
2020/04/05 02:35:30.000   2447582.9971   2941189.0147   5085908.2089   2   7   0.0026   0.0016   0.0014  -0.0009   0.0006   0.0014   0.00    1.0
2020/04/05 02:36:00.000   2447582.9976   2941189.0137   5085908.2093   2   7   0.0026   0.0016   0.0014  -0.0009   0.0006   0.0014   0.00    1.1
2020/04/05 02:36:30.000   2447582.9978   2941189.0127   5085908.2097   2   7   0.0026   0.0016   0.0014  -0.0008   0.0006   0.0013   0.00    1.1
2020/04/05 02:37:00.000   2447582.9980   2941189.0118   5085908.2100   2   7   0.0026   0.0016   0.0014  -0.0008   0.0006   0.0013   0.00    1.0
2020/04/05 02:37:30.000   2447582.9983   2941189.0108   5085908.2104   2   7   0.0025   0.0016   0.0014  -0.0008   0.0006   0.0013   0.00    1.1
2020/04/05 02:38:00.000   2447582.9983   2941189.0100   5085908.2108   2   7   0.0025   0.0015   0.0014  -0.0008   0.0006   0.0013   0.00    1.2
2020/04/05 02:38:30.000   2447582.9987   2941189.0091   5085908.2112   2   7   0.0025   0.0015   0.0014  -0.0008   0.0006   0.0013   0.00    1.0
2020/04/05 02:39:00.000   2447582.9987   2941189.0083   5085908.2115   2   7   0.0025   0.0015   0.0014  -0.0008   0.0006   0.0013   0.00    1.2
2020/04/05 02:39:30.000   2447582.9989   2941189.0074   5085908.2120   2   7   0.0025   0.0015   0.0014  -0.0008   0.0006   0.0013   0.00    1.2
2020/04/05 02:40:00.000   2447582.9988   2941189.0067   5085908.2124   2   7   0.0025   0.0015   0.0014  -0.0008   0.0006   0.0013   0.00    1.0
2020/04/05 02:40:30.000   2447582.9989   2941189.0060   5085908.2130   2   7   0.0025   0.0015   0.0014  -0.0007   0.0006   0.0013   0.00    1.0
2020/04/05 02:41:00.000   2447582.9990   2941189.0053   5085908.2134   2   7   0.0025   0.0015   0.0014  -0.0007   0.0006   0.0013   0.00    1.1
2020/04/05 02:41:30.000   2447582.9993   2941189.0044   5085908.2141   2   7   0.0025   0.0015   0.0013  -0.0007   0.0006   0.0013   0.00    1.0
2020/04/05 02:42:00.000   2447582.9998   2941189.0036   5085908.2148   2   7   0.0024   0.0015   0.0013  -0.0007   0.0006   0.0013   0.00    1.0
2020/04/05 02:42:30.000   2447583.0001   2941189.0029   5085908.2155   2   7   0.0024   0.0015   0.0013  -0.0007   0.0006   0.0013   0.00    1.0
2020/04/05 02:43:00.000   2447583.0005   2941189.0022   5085908.2162   2   7   0.0024   0.0015   0.0013  -0.0007   0.0006   0.0013   0.00    1.3
2020/04/05 02:43:30.000   2447583.0007   2941189.0015   5085908.2170   2   7   0.0024   0.0015   0.0013  -0.0007   0.0006   0.0013   0.00    1.2
2020/04/05 02:44:00.000   2447583.0008   2941189.0008   5085908.2178   2   7   0.0024   0.0015   0.0013  -0.0007   0.0006   0.0013   0.00    1.1
2020/04/05 02:44:30.000   2447583.0010   2941189.0003   5085908.2188   2   7   0.0024   0.0015   0.0013  -0.0006   0.0006   0.0013   0.00    1.0
2020/04/05 02:45:00.000   2447583.0013   2941188.9997   5085908.2196   2   7   0.0024   0.0015   0.0013  -0.0006   0.0006   0.0013   0.00    1.4
2020/04/05 02:45:30.000   2447583.0012   2941188.9992   5085908.2203   2   7   0.0024   0.0015   0.0013  -0.0006   0.0006   0.0013   0.00    1.4
2020/04/05 02:46:00.000   2447583.0010   2941188.9988   5085908.2211   2   7   0.0024   0.0015   0.0013  -0.0006   0.0006   0.0013   0.00    1.4
2020/04/05 02:46:30.000   2447583.0008   2941188.9985   5085908.2219   2   7   0.0024   0.0015   0.0013  -0.0006   0.0006   0.0013   0.00    1.5
2020/04/05 02:47:00.000   2447583.0007   2941188.9983   5085908.2227   2   7   0.0024   0.0015   0.0013  -0.0006   0.0006   0.0013   0.00    1.1
2020/04/05 02:47:30.000   2447583.0004   2941188.9981   5085908.2235   2   7   0.0024   0.0015   0.0013  -0.0006   0.0006   0.0013   0.00    1.6
2020/04/05 02:48:00.000   2447582.9999   2941188.9980   5085908.2243   2   7   0.0023   0.0014   0.0013  -0.0006   0.0006   0.0013   0.00    1.6
2020/04/05 02:48:30.000   2447582.9994   2941188.9979   5085908.2252   2   7   0.0023   0.0014   0.0013  -0.0005   0.0006   0.0012   0.00    1.3
2020/04/05 02:49:00.000   2447582.9988   2941188.9979   5085908.2261   2   7   0.0023   0.0014   0.0013  -0.0005   0.0006   0.0012   0.00    1.8
2020/04/05 02:49:30.000   2447582.9983   2941188.9979   5085908.2270   2   7   0.0023   0.0014   0.0013  -0.0005   0.0006   0.0012   0.00    1.7
2020/04/05 02:50:00.000   2447582.9975   2941188.9979   5085908.2279   2   7   0.0023   0.0014   0.0013  -0.0005   0.0006   0.0012   0.00    1.7
2020/04/05 02:50:30.000   2447582.9969   2941188.9980   5085908.2288   2   7   0.0023   0.0014   0.0013  -0.0005   0.0006   0.0012   0.00    1.6
2020/04/05 02:51:00.000   2447582.9961   2941188.9982   5085908.2296   2   7   0.0023   0.0014   0.0013  -0.0005   0.0006   0.0012   0.00    2.0
2020/04/05 02:51:30.000   2447582.9953   2941188.9984   5085908.2306   2   7   0.0023   0.0014   0.0013  -0.0005   0.0006   0.0012   0.00    1.8
2020/04/05 02:52:00.000   2447582.9943   2941188.9988   5085908.2315   2   7   0.0023   0.0014   0.0013  -0.0005   0.0006   0.0012   0.00    1.3
2020/04/05 02:52:30.000   2447582.9932   2941188.9992   5085908.2324   2   7   0.0023   0.0014   0.0013  -0.0004   0.0006   0.0012   0.00    2.0
2020/04/05 02:53:00.000   2447582.9921   2941188.9996   5085908.2332   2   7   0.0023   0.0014   0.0013  -0.0004   0.0006   0.0012   0.00    2.0
2020/04/05 02:53:30.000   2447582.9910   2941189.0001   5085908.2342   2   7   0.0023   0.0014   0.0013  -0.0004   0.0006   0.0012   0.00    1.7
2020/04/05 02:54:00.000   2447582.9898   2941189.0006   5085908.2351   2   7   0.0023   0.0014   0.0013  -0.0004   0.0006   0.0012   0.00    1.9
2020/04/05 02:54:30.000   2447582.9887   2941189.0011   5085908.2361   2   7   0.0022   0.0014   0.0013  -0.0004   0.0006   0.0012   0.00    2.1
2020/04/05 02:55:00.000   2447582.9876   2941189.0016   5085908.2372   2   7   0.0022   0.0014   0.0013  -0.0004   0.0006   0.0012   0.00    1.8
2020/04/05 02:55:30.000   2447582.9865   2941189.0021   5085908.2382   2   7   0.0022   0.0014   0.0013  -0.0004   0.0006   0.0012   0.00    2.7
2020/04/05 02:56:00.000   2447582.9854   2941189.0027   5085908.2392   2   7   0.0022   0.0014   0.0013  -0.0004   0.0006   0.0012   0.00    2.7
2020/04/05 02:56:30.000   2447582.9843   2941189.0033   5085908.2402   2   7   0.0022   0.0014   0.0013  -0.0003   0.0006   0.0012   0.00    2.7
2020/04/05 02:57:00.000   2447582.9833   2941189.0039   5085908.2412   2   7   0.0022   0.0014   0.0013  -0.0003   0.0006   0.0012   0.00    2.6
2020/04/05 02:57:30.000   2447582.9821   2941189.0045   5085908.2421   2   7   0.0022   0.0014   0.0013  -0.0003   0.0006   0.0012   0.00    2.5
2020/04/05 02:58:00.000   2447583.0363   2941188.9993   5085908.2775   1   7   0.0008   0.0010   0.0010   0.0006   0.0008   0.0005   0.00    3.4
2020/04/05 02:58:30.000   2447582.9789   2941189.0051   5085908.2422   2   6   0.0022   0.0014   0.0013  -0.0003   0.0006   0.0012   0.00    2.7
2020/04/05 02:59:00.000   2447582.9770   2941189.0051   5085908.2414   2   6   0.0022   0.0014   0.0013  -0.0003   0.0006   0.0012   0.00    2.5
2020/04/05 02:59:30.000   2447582.9751   2941189.0050   5085908.2406   2   6   0.0022   0.0014   0.0012  -0.0003   0.0006   0.0012   0.00    2.4
2020/04/05 03:00:00.000   2447582.9727   2941189.0050   5085908.2397   2   6   0.0022   0.0013   0.0012  -0.0002   0.0006   0.0012   0.00    2.2
2020/04/05 03:00:30.000   2447582.9705   2941189.0050   5085908.2388   2   6   0.0022   0.0013   0.0012  -0.0002   0.0006   0.0012   0.00    1.1
2020/04/05 03:01:00.000   2447582.9682   2941189.0051   5085908.2379   2   6   0.0022   0.0013   0.0012  -0.0002   0.0006   0.0012   0.00    1.1
2020/04/05 03:01:30.000   2447582.9659   2941189.0051   5085908.2370   2   6   0.0022   0.0013   0.0012  -0.0002   0.0006   0.0012   0.00    1.1
2020/04/05 03:02:00.000   2447582.9634   2941189.0052   5085908.2360   2   6   0.0022   0.0013   0.0012  -0.0002   0.0006   0.0012   0.00    1.1
2020/04/05 03:02:30.000   2447582.9610   2941189.0052   5085908.2350   2   6   0.0022   0.0013   0.0012  -0.0001   0.0007   0.0012   0.00    1.1
2020/04/05 03:03:00.000   2447582.9584   2941189.0053   5085908.2340   2   6   0.0021   0.0013   0.0012  -0.0001   0.0007   0.0012   0.00    1.1
2020/04/05 03:03:30.000   2447582.9557   2941189.0055   5085908.2330   2   6   0.0021   0.0013   0.0012  -0.0001   0.0007   0.0012   0.00    1.0
2020/04/05 03:04:00.000   2447582.9530   2941189.0057   5085908.2320   2   6   0.0021   0.0013   0.0012   0.0000   0.0007   0.0012   0.00    1.0
2020/04/05 03:04:30.000   2447582.9502   2941189.0059   5085908.2309   2   6   0.0021   0.0013   0.0012   0.0001   0.0007   0.0012   0.00    1.0
2020/04/05 03:05:00.000   2447582.9474   2941189.0060   5085908.2297   2   6   0.0021   0.0013   0.0012   0.0001   0.0007   0.0012   0.00    1.1
2020/04/05 03:05:30.000   2447582.9444   2941189.0063   5085908.2285   2   6   0.0021   0.0013   0.0012   0.0001   0.0007   0.0012   0.00    1.5
2020/04/05 03:06:00.000   2447582.9414   2941189.0066   5085908.2273   2   6   0.0021   0.0013   0.0012   0.0002   0.0007   0.0012   0.00    1.2
2020/04/05 03:06:30.000   2447582.9380   2941189.0070   5085908.2259   2   6   0.0021   0.0013   0.0012   0.0002   0.0007   0.0011   0.00    1.0
2020/04/05 03:07:00.000   2447582.9347   2941189.0075   5085908.2246   2   6   0.0021   0.0013   0.0012   0.0002   0.0007   0.0011   0.00    1.3
2020/04/05 03:07:30.000   2447582.9315   2941189.0077   5085908.2233   2   6   0.0021   0.0013   0.0012   0.0002   0.0007   0.0011   0.00    1.0
2020/04/05 03:08:00.000   2447582.9283   2941189.0081   5085908.2220   2   6   0.0021   0.0013   0.0012   0.0002   0.0007   0.0011   0.00    1.3
2020/04/05 03:08:30.000   2447582.9251   2941189.0084   5085908.2207   2   6   0.0021   0.0013   0.0012   0.0002   0.0007   0.0011   0.00    1.7
2020/04/05 03:09:00.000   2447582.9219   2941189.0088   5085908.2194   2   6   0.0021   0.0013   0.0012   0.0002   0.0007   0.0011   0.00    1.4
2020/04/05 03:09:30.000   2447582.9187   2941189.0093   5085908.2182   2   6   0.0021   0.0013   0.0012   0.0003   0.0007   0.0011   0.00    1.3
2020/04/05 03:10:00.000   2447582.9156   2941189.0096   5085908.2169   2   6   0.0021   0.0013   0.0012   0.0003   0.0007   0.0011   0.00    1.4
2020/04/05 03:10:30.000   2447582.9126   2941189.0099   5085908.2157   2   6   0.0021   0.0013   0.0012   0.0003   0.0007   0.0011   0.00    1.5
2020/04/05 03:11:00.000   2447582.9094   2941189.0104   5085908.2144   2   6   0.0021   0.0013   0.0012   0.0003   0.0007   0.0011   0.00    1.4
2020/04/05 03:11:30.000   2447582.9065   2941189.0107   5085908.2132   2   6   0.0021   0.0013   0.0012   0.0003   0.0007   0.0011   0.00    1.5
2020/04/05 03:12:00.000   2447582.9035   2941189.0112   5085908.2121   2   6   0.0021   0.0013   0.0012   0.0003   0.0007   0.0011   0.00    1.4
2020/04/05 03:12:30.000   2447582.9007   2941189.0116   5085908.2109   2   6   0.0021   0.0013   0.0012   0.0003   0.0007   0.0011   0.00    1.2
2020/04/05 03:13:00.000   2447582.8979   2941189.0119   5085908.2099   2   6   0.0021   0.0013   0.0012   0.0003   0.0007   0.0011   0.00    1.4
2020/04/05 03:13:30.000   2447582.8950   2941189.0123   5085908.2088   2   6   0.0021   0.0013   0.0012   0.0003   0.0007   0.0011   0.00    1.4
2020/04/05 03:14:00.000   2447582.8923   2941189.0127   5085908.2078   2   6   0.0021   0.0013   0.0012   0.0003   0.0007   0.0011   0.00    1.2
2020/04/05 03:14:30.000   2447582.8897   2941189.0131   5085908.2068   2   6   0.0020   0.0012   0.0012   0.0003   0.0007   0.0011   0.00    1.4
2020/04/05 03:15:00.000   2447582.8870   2941189.0134   5085908.2059   2   6   0.0020   0.0012   0.0012   0.0003   0.0007   0.0011   0.00    1.9
2020/04/05 03:15:30.000   2447582.8844   2941189.0137   5085908.2050   2   6   0.0020   0.0012   0.0012   0.0003   0.0007   0.0011   0.00    1.4
2020/04/05 03:16:00.000   2447582.8818   2941189.0141   5085908.2040   2   6   0.0020   0.0012   0.0012   0.0003   0.0007   0.0011   0.00    1.2
2020/04/05 03:16:30.000   2447582.8791   2941189.0144   5085908.2031   2   6   0.0020   0.0012   0.0012   0.0004   0.0007   0.0011   0.00    1.4
2020/04/05 03:17:00.000   2447582.8764   2941189.0148   5085908.2022   2   6   0.0020   0.0012   0.0012   0.0004   0.0007   0.0011   0.00    1.7
2020/04/05 03:17:30.000   2447582.8739   2941189.0151   5085908.2013   2   6   0.0020   0.0012   0.0012   0.0004   0.0007   0.0011   0.00    1.4
2020/04/05 03:17:59.999   2447582.8715   2941189.0154   5085908.2005   2   6   0.0020   0.0012   0.0012   0.0004   0.0007   0.0011   0.00    1.4
2020/04/05 03:18:30.000   2447582.8689   2941189.0158   5085908.1995   2   6   0.0020   0.0012   0.0012   0.0004   0.0007   0.0011   0.00    1.4
2020/04/05 03:19:00.000   2447582.8664   2941189.0161   5085908.1987   2   6   0.0020   0.0012   0.0012   0.0004   0.0007   0.0011   0.00    1.5
2020/04/05 03:19:30.000   2447582.8650   2941189.0162   5085908.1976   2   5   0.0020   0.0012   0.0012   0.0004   0.0007   0.0011   0.00    1.9
2020/04/05 03:20:00.000   2447582.8636   2941189.0163   5085908.1967   2   5   0.0020   0.0012   0.0012   0.0004   0.0007   0.0011   0.00    1.9
2020/04/05 03:20:30.000   2447582.8623   2941189.0163   5085908.1957   2   5   0.0020   0.0012   0.0012   0.0004   0.0007   0.0011   0.00    1.9
2020/04/05 03:21:00.000   2447582.8611   2941189.0163   5085908.1948   2   5   0.0020   0.0012   0.0012   0.0004   0.0007   0.0011   0.00    1.9
2020/04/05 03:21:30.000   2447582.8598   2941189.0165   5085908.1938   2   5   0.0020   0.0012   0.0012   0.0004   0.0007   0.0011   0.00    1.8
