% program   : RTKPOST ver.demo5 b34g
% inp file  : C:\Users\89231\Documents\Учеба\Диссертация\RTKLIB\Файлы\05.04.2020\kotl0960.20o
% inp file  : C:\Users\89231\Documents\Учеба\Диссертация\RTKLIB\Файлы\05.04.2020\mobj0960.20o
% inp file  : C:\Users\89231\Documents\Учеба\Диссертация\RTKLIB\Файлы\05.04.2020\kotl0960.20n
% inp file  : C:\Users\89231\Documents\Учеба\Диссертация\RTKLIB\Файлы\05.04.2020\igs21000.sp3
% inp file  : C:\Users\89231\Documents\Учеба\Диссертация\RTKLIB\Файлы\05.04.2020\igs21000.clk_30s
% obs start : 2020/04/05 00:00:00.0 GPST (week2100      0.0s)
% obs end   : 2020/04/05 23:59:30.0 GPST (week2100  86370.0s)
% pos mode  : Static
% freqs     : L1+L2/E5b
% solution  : Forward
% elev mask : 15.0 deg
% dynamics  : on
% tidecorr  : off
% ionos opt : Broadcast
% tropo opt : Saastamoinen
% ephemeris : Precise
% navi sys  : GPS
% amb res   : Fix and Hold
% val thres : 3.0
% antenna1  :                       ( 0.0000  0.0000  0.0000)
% antenna2  :                       ( 0.0000  0.0000  0.0000)
% ref pos   :  2936423.5374   2178373.8931   5208856.7664
%
% (x/y/z-ecef=WGS84,Q=1:fix,2:float,3:sbas,4:dgps,5:single,6:ppp,ns=# of satellites)
%  GPST                      x-ecef(m)      y-ecef(m)      z-ecef(m)   Q  ns   sdx(m)   sdy(m)   sdz(m)  sdxy(m)  sdyz(m)  sdzx(m) age(s)  ratio
2020/04/05 00:00:00.000   2111994.5402   2235912.1581   5568912.5255   2   8   1.6973   1.3607   2.9540   1.0228   0.8878   1.5944   0.00    0.0
2020/04/05 00:00:30.000   2111994.1385   2235912.2824   5568911.5875   2   8   0.9583   0.7979   1.0815   0.5083   0.4608   0.6503   0.00    0.0
2020/04/05 00:01:00.000   2111994.1285   2235911.9836   5568911.8282   2   8   0.6356   0.5203   0.5938   0.2704   0.2869   0.3756   0.00    0.0
2020/04/05 00:01:30.000   2111994.0774   2235911.8644   5568911.8286   2   8   0.4579   0.3681   0.3873   0.1534   0.1975   0.2507   0.00    0.0
2020/04/05 00:02:00.000   2111994.1013   2235911.6108   5568911.9096   2   8   0.3483   0.2761   0.2778   0.0910   0.1455   0.1820   0.00    1.0
2020/04/05 00:02:30.000   2111993.8170   2235911.5411   5568911.9638   2   8   0.2756   0.2161   0.2117   0.0547   0.1126   0.1397   0.00    1.1
2020/04/05 00:03:00.000   2111993.7699   2235911.5687   5568912.1402   2   8   0.2247   0.1747   0.1682   0.0316   0.0903   0.1116   0.00    1.1
2020/04/05 00:03:30.000   2111993.7047   2235911.5169   5568912.0665   2   8   0.1876   0.1448   0.1378   0.0143   0.0744   0.0918   0.00    1.5
2020/04/05 00:04:00.000   2111993.7190   2235911.5362   5568912.0107   2   8   0.1596   0.1225   0.1156  -0.0109   0.0627   0.0772   0.00    1.5
2020/04/05 00:04:30.000   2111993.7399   2235911.5389   5568911.9952   2   8   0.1379   0.1053   0.0988  -0.0155   0.0537   0.0662   0.00    1.0
2020/04/05 00:05:00.000   2111993.7781   2235911.5489   5568911.9808   2   8   0.1207   0.0917   0.0857  -0.0167   0.0467   0.0575   0.00    1.2
2020/04/05 00:05:30.000   2111993.8154   2235911.5491   5568911.9822   2   8   0.1068   0.0809   0.0752  -0.0167   0.0411   0.0506   0.00    1.2
2020/04/05 00:06:00.000   2111993.8807   2235911.5118   5568911.9525   2   8   0.0954   0.0720   0.0668  -0.0162   0.0365   0.0451   0.00    1.2
2020/04/05 00:06:30.000   2111993.8825   2235911.4936   5568911.9430   2   8   0.0860   0.0646   0.0598  -0.0155   0.0327   0.0404   0.00    1.0
2020/04/05 00:07:00.000   2111993.8840   2235911.4890   5568911.9333   2   8   0.0780   0.0584   0.0540  -0.0148   0.0295   0.0366   0.00    1.0
2020/04/05 00:07:30.000   2111993.8946   2235911.4680   5568911.9198   2   8   0.0712   0.0531   0.0490  -0.0141   0.0268   0.0333   0.00    1.0
2020/04/05 00:08:00.000   2111993.9178   2235911.4513   5568911.9121   2   8   0.0653   0.0486   0.0448  -0.0134   0.0245   0.0305   0.00    1.3
2020/04/05 00:08:30.000   2111993.9509   2235911.4493   5568911.9105   2   8   0.0603   0.0447   0.0412  -0.0127   0.0225   0.0280   0.00    1.1
2020/04/05 00:09:00.000   2111993.9519   2235911.4489   5568911.9001   2   8   0.0558   0.0413   0.0380  -0.0121   0.0208   0.0259   0.00    1.0
2020/04/05 00:09:30.000   2111993.9781   2235911.4530   5568911.8919   2   8   0.0520   0.0383   0.0352  -0.0115   0.0193   0.0241   0.00    1.1
2020/04/05 00:10:00.000   2111994.0209   2235911.4596   5568911.8917   2   8   0.0485   0.0356   0.0328  -0.0110   0.0179   0.0225   0.00    1.4
2020/04/05 00:10:30.000   2111994.0271   2235911.4751   5568911.8998   2   8   0.0454   0.0333   0.0306  -0.0105   0.0168   0.0210   0.00    1.0
2020/04/05 00:11:00.000   2111994.0453   2235911.4998   5568911.9075   2   8   0.0427   0.0312   0.0286  -0.0100   0.0157   0.0197   0.00    1.1
2020/04/05 00:11:30.000   2111994.0640   2235911.5196   5568911.9129   2   8   0.0402   0.0293   0.0269  -0.0096   0.0147   0.0185   0.00    1.0
2020/04/05 00:12:00.000   2111994.0677   2235911.5385   5568911.9141   2   8   0.0380   0.0276   0.0253  -0.0092   0.0139   0.0175   0.00    1.4
2020/04/05 00:12:30.000   2111994.0826   2235911.5562   5568911.9167   2   8   0.0360   0.0261   0.0239  -0.0089   0.0131   0.0165   0.00    1.1
2020/04/05 00:13:00.000   2111994.0890   2235911.5734   5568911.9213   2   8   0.0342   0.0247   0.0226  -0.0085   0.0124   0.0157   0.00    1.0
2020/04/05 00:13:30.000   2111994.0906   2235911.5810   5568911.9239   2   8   0.0325   0.0234   0.0214  -0.0082   0.0117   0.0149   0.00    1.1
2020/04/05 00:14:00.000   2111994.0882   2235911.5900   5568911.9288   2   8   0.0310   0.0222   0.0204  -0.0079   0.0111   0.0142   0.00    1.0
2020/04/05 00:14:30.000   2111994.0755   2235911.6014   5568911.9332   2   8   0.0295   0.0211   0.0194  -0.0077   0.0106   0.0135   0.00    1.2
2020/04/05 00:15:00.000   2111994.0719   2235911.6120   5568911.9397   2   8   0.0283   0.0202   0.0185  -0.0074   0.0101   0.0129   0.00    1.2
2020/04/05 00:15:30.000   2111994.0774   2235911.6200   5568911.9423   2   8   0.0271   0.0193   0.0176  -0.0072   0.0096   0.0124   0.00    1.1
2020/04/05 00:16:00.000   2111994.0734   2235911.6282   5568911.9436   2   8   0.0259   0.0184   0.0169  -0.0070   0.0092   0.0118   0.00    1.5
2020/04/05 00:16:30.000   2111994.0643   2235911.6372   5568911.9428   2   8   0.0249   0.0176   0.0162  -0.0068   0.0088   0.0114   0.00    1.0
2020/04/05 00:17:00.000   2111994.0561   2235911.6496   5568911.9418   2   8   0.0240   0.0169   0.0155  -0.0066   0.0084   0.0109   0.00    1.1
2020/04/05 00:17:30.000   2111994.0487   2235911.6631   5568911.9399   2   8   0.0231   0.0162   0.0149  -0.0064   0.0081   0.0105   0.00    1.1
2020/04/05 00:18:00.000   2111994.0286   2235911.6785   5568911.9364   2   8   0.0222   0.0156   0.0143  -0.0062   0.0078   0.0101   0.00    1.0
2020/04/05 00:18:30.000   2111994.0158   2235911.6916   5568911.9309   2   8   0.0215   0.0150   0.0138  -0.0061   0.0075   0.0098   0.00    1.2
2020/04/05 00:19:00.000   2111994.0026   2235911.7056   5568911.9257   2   8   0.0207   0.0145   0.0132  -0.0059   0.0072   0.0094   0.00    1.2
2020/04/05 00:19:30.000   2111993.9896   2235911.7152   5568911.9162   2   8   0.0201   0.0140   0.0128  -0.0058   0.0069   0.0091   0.00    1.2
2020/04/05 00:20:00.000   2111993.9726   2235911.7184   5568911.9025   2   8   0.0194   0.0135   0.0123  -0.0056   0.0067   0.0088   0.00    1.2
2020/04/05 00:20:30.000   2111993.9534   2235911.7199   5568911.8875   2   7   0.0189   0.0131   0.0119  -0.0056   0.0065   0.0085   0.00    1.0
2020/04/05 00:21:00.000   2111993.9434   2235911.7199   5568911.8748   2   7   0.0184   0.0127   0.0115  -0.0056   0.0063   0.0082   0.00    1.3
2020/04/05 00:21:30.000   2111993.9339   2235911.7185   5568911.8597   2   7   0.0179   0.0123   0.0112  -0.0056   0.0061   0.0079   0.00    1.1
2020/04/05 00:22:00.000   2111993.9258   2235911.7216   5568911.8493   2   7   0.0174   0.0119   0.0108  -0.0055   0.0059   0.0076   0.00    1.6
2020/04/05 00:22:30.000   2111993.9119   2235911.7218   5568911.8389   2   7   0.0170   0.0116   0.0105  -0.0055   0.0057   0.0074   0.00    1.6
2020/04/05 00:23:00.000   2111993.8972   2235911.7219   5568911.8259   2   7   0.0166   0.0112   0.0102  -0.0054   0.0056   0.0072   0.00    1.2
2020/04/05 00:23:30.000   2111993.8832   2235911.7209   5568911.8137   2   7   0.0162   0.0109   0.0099  -0.0054   0.0054   0.0070   0.00    1.1
2020/04/05 00:24:00.000   2111993.8650   2235911.7179   5568911.8001   2   7   0.0158   0.0106   0.0096  -0.0053   0.0053   0.0068   0.00    1.1
2020/04/05 00:24:30.000   2111993.8527   2235911.7153   5568911.7894   2   7   0.0154   0.0103   0.0093  -0.0053   0.0051   0.0066   0.00    1.4
2020/04/05 00:25:00.000   2111993.8398   2235911.7115   5568911.7786   2   7   0.0151   0.0101   0.0091  -0.0052   0.0050   0.0064   0.00    1.1
2020/04/05 00:25:30.000   2111993.8270   2235911.7069   5568911.7686   2   7   0.0147   0.0098   0.0088  -0.0052   0.0049   0.0062   0.00    1.2
2020/04/05 00:26:00.000   2111993.8154   2235911.7063   5568911.7592   2   7   0.0144   0.0096   0.0086  -0.0051   0.0047   0.0061   0.00    1.3
2020/04/05 00:26:30.000   2111993.8041   2235911.7060   5568911.7502   2   7   0.0141   0.0093   0.0084  -0.0050   0.0046   0.0059   0.00    1.0
2020/04/05 00:27:00.000   2111993.7909   2235911.7044   5568911.7406   2   7   0.0138   0.0091   0.0082  -0.0050   0.0045   0.0058   0.00    1.1
2020/04/05 00:27:30.000   2111993.7798   2235911.7028   5568911.7307   2   7   0.0135   0.0089   0.0080  -0.0049   0.0044   0.0056   0.00    1.0
2020/04/05 00:28:00.000   2111993.7684   2235911.7028   5568911.7225   2   7   0.0133   0.0087   0.0078  -0.0049   0.0043   0.0055   0.00    1.1
2020/04/05 00:28:30.000   2111993.7557   2235911.7021   5568911.7131   2   7   0.0130   0.0085   0.0076  -0.0048   0.0042   0.0054   0.00    1.0
2020/04/05 00:29:00.000   2111993.7432   2235911.7017   5568911.7040   2   7   0.0128   0.0083   0.0074  -0.0047   0.0041   0.0053   0.00    1.4
2020/04/05 00:29:30.000   2111993.7294   2235911.7019   5568911.6949   2   7   0.0125   0.0081   0.0073  -0.0047   0.0040   0.0052   0.00    1.2
2020/04/05 00:30:00.000   2111993.7151   2235911.7030   5568911.6885   2   7   0.0123   0.0080   0.0071  -0.0046   0.0039   0.0050   0.00    1.0
2020/04/05 00:30:30.000   2111993.6986   2235911.7057   5568911.6826   2   7   0.0121   0.0078   0.0070  -0.0046   0.0038   0.0049   0.00    1.4
2020/04/05 00:31:00.000   2111993.6819   2235911.7100   5568911.6780   2   7   0.0118   0.0076   0.0068  -0.0045   0.0037   0.0048   0.00    1.2
2020/04/05 00:31:30.000   2111993.6652   2235911.7133   5568911.6720   2   7   0.0116   0.0075   0.0067  -0.0045   0.0036   0.0048   0.00    1.0
2020/04/05 00:32:00.000   2111993.6516   2235911.7174   5568911.6669   2   8   0.0114   0.0073   0.0065  -0.0044   0.0036   0.0047   0.00    1.0
2020/04/05 00:32:30.000   2111993.6383   2235911.7222   5568911.6637   2   8   0.0112   0.0072   0.0064  -0.0044   0.0035   0.0046   0.00    1.4
2020/04/05 00:33:00.000   2111993.6261   2235911.7279   5568911.6612   2   8   0.0111   0.0071   0.0063  -0.0043   0.0034   0.0045   0.00    1.0
2020/04/05 00:33:30.000   2111993.6131   2235911.7346   5568911.6587   2   8   0.0109   0.0069   0.0061  -0.0043   0.0033   0.0044   0.00    1.1
2020/04/05 00:34:00.000   2111993.5994   2235911.7420   5568911.6563   2   8   0.0107   0.0068   0.0060  -0.0042   0.0033   0.0044   0.00    1.1
2020/04/05 00:34:30.000   2111993.5877   2235911.7489   5568911.6540   2   8   0.0105   0.0067   0.0059  -0.0042   0.0032   0.0043   0.00    1.0
2020/04/05 00:35:00.000   2111993.5775   2235911.7559   5568911.6531   2   8   0.0104   0.0066   0.0058  -0.0041   0.0031   0.0042   0.00    1.1
2020/04/05 00:35:30.000   2111993.5644   2235911.7618   5568911.6507   2   8   0.0102   0.0064   0.0057  -0.0041   0.0031   0.0041   0.00    1.1
2020/04/05 00:36:00.000   2111993.5484   2235911.7677   5568911.6480   2   8   0.0101   0.0063   0.0056  -0.0041   0.0030   0.0041   0.00    1.1
2020/04/05 00:36:30.000   2111993.5334   2235911.7728   5568911.6441   2   8   0.0099   0.0062   0.0055  -0.0040   0.0030   0.0040   0.00    1.1
2020/04/05 00:37:00.000   2111993.5164   2235911.7774   5568911.6391   2   8   0.0098   0.0061   0.0054  -0.0040   0.0029   0.0040   0.00    1.4
2020/04/05 00:37:30.000   2111993.4998   2235911.7819   5568911.6337   2   8   0.0096   0.0060   0.0053  -0.0039   0.0028   0.0039   0.00    1.2
2020/04/05 00:38:00.000   2111993.4817   2235911.7865   5568911.6276   2   8   0.0095   0.0059   0.0052  -0.0039   0.0028   0.0039   0.00    1.2
2020/04/05 00:38:30.000   2111993.4639   2235911.7908   5568911.6217   2   8   0.0094   0.0058   0.0051  -0.0039   0.0027   0.0038   0.00    1.2
2020/04/05 00:39:00.000   2111993.4460   2235911.7945   5568911.6161   2   8   0.0093   0.0058   0.0050  -0.0038   0.0027   0.0037   0.00    1.1
2020/04/05 00:39:30.000   2111993.4280   2235911.7993   5568911.6109   2   8   0.0091   0.0057   0.0050  -0.0038   0.0026   0.0037   0.00    1.2
2020/04/05 00:40:00.000   2111993.4116   2235911.8038   5568911.6061   2   8   0.0090   0.0056   0.0049  -0.0038   0.0026   0.0036   0.00    1.0
2020/04/05 00:40:30.000   2111993.3943   2235911.8084   5568911.6012   2   8   0.0089   0.0055   0.0048  -0.0037   0.0025   0.0036   0.00    1.1
2020/04/05 00:41:00.000   2111993.3786   2235911.8123   5568911.5968   2   8   0.0088   0.0054   0.0047  -0.0037   0.0025   0.0036   0.00    1.0
2020/04/05 00:41:30.000   2111993.3632   2235911.8162   5568911.5927   2   8   0.0087   0.0053   0.0047  -0.0037   0.0025   0.0035   0.00    1.0
2020/04/05 00:42:00.000   2111993.3481   2235911.8199   5568911.5888   2   8   0.0086   0.0053   0.0046  -0.0036   0.0024   0.0035   0.00    1.2
2020/04/05 00:42:30.000   2111993.3338   2235911.8235   5568911.5854   2   8   0.0085   0.0052   0.0045  -0.0036   0.0024   0.0034   0.00    1.0
2020/04/05 00:43:00.000   2111993.3183   2235911.8271   5568911.5814   2   8   0.0084   0.0051   0.0045  -0.0036   0.0023   0.0034   0.00    1.1
2020/04/05 00:43:30.000   2111993.3059   2235911.8311   5568911.5786   2   8   0.0083   0.0051   0.0044  -0.0035   0.0023   0.0033   0.00    1.1
2020/04/05 00:44:00.000   2111993.2922   2235911.8351   5568911.5752   2   8   0.0082   0.0050   0.0043  -0.0035   0.0023   0.0033   0.00    1.1
2020/04/05 00:44:30.000   2111993.2952   2235911.8325   5568911.5717   2   7   0.0081   0.0049   0.0043  -0.0035   0.0022   0.0033   0.00    1.4
2020/04/05 00:45:00.000   2111993.2978   2235911.8301   5568911.5683   2   7   0.0081   0.0049   0.0042  -0.0036   0.0022   0.0032   0.00    1.2
2020/04/05 00:45:30.000   2111993.3005   2235911.8279   5568911.5654   2   8   0.0080   0.0049   0.0042  -0.0036   0.0022   0.0032   0.00    1.0
2020/04/05 00:46:00.000   2111993.3022   2235911.8254   5568911.5615   2   8   0.0080   0.0048   0.0041  -0.0036   0.0021   0.0031   0.00    1.3
2020/04/05 00:46:30.000   2111993.3038   2235911.8232   5568911.5581   2   8   0.0080   0.0048   0.0041  -0.0036   0.0021   0.0031   0.00    1.0
2020/04/05 00:47:00.000   2111993.3049   2235911.8207   5568911.5555   2   8   0.0079   0.0047   0.0040  -0.0036   0.0021   0.0031   0.00    1.0
2020/04/05 00:47:30.000   2111993.3066   2235911.8184   5568911.5526   2   8   0.0079   0.0047   0.0040  -0.0036   0.0020   0.0030   0.00    1.0
2020/04/05 00:48:00.000   2111993.3070   2235911.8160   5568911.5495   2   8   0.0079   0.0046   0.0039  -0.0036   0.0020   0.0030   0.00    1.0
2020/04/05 00:48:30.000   2111993.3038   2235911.8182   5568911.5507   2   7   0.0078   0.0046   0.0039  -0.0037   0.0020   0.0030   0.00    1.0
2020/04/05 00:49:00.000   2111993.3004   2235911.8204   5568911.5519   2   7   0.0078   0.0046   0.0038  -0.0037   0.0020   0.0029   0.00    1.4
2020/04/05 00:49:30.000   2111993.2960   2235911.8221   5568911.5530   2   7   0.0077   0.0045   0.0038  -0.0037   0.0020   0.0029   0.00    1.0
2020/04/05 00:50:00.000   2111993.2922   2235911.8243   5568911.5542   2   7   0.0077   0.0045   0.0037  -0.0037   0.0019   0.0028   0.00    1.0
2020/04/05 00:50:30.000   2111993.2885   2235911.8264   5568911.5554   2   7   0.0077   0.0045   0.0037  -0.0037   0.0019   0.0028   0.00    1.0
2020/04/05 00:51:00.000   2111993.2839   2235911.8286   5568911.5568   2   7   0.0076   0.0044   0.0037  -0.0037   0.0019   0.0028   0.00    1.1
2020/04/05 00:51:30.000   2111993.2794   2235911.8311   5568911.5582   2   7   0.0076   0.0044   0.0036  -0.0037   0.0019   0.0027   0.00    1.1
2020/04/05 00:52:00.000   2111993.2745   2235911.8334   5568911.5591   2   7   0.0076   0.0044   0.0036  -0.0037   0.0019   0.0027   0.00    1.1
2020/04/05 00:52:30.000   2111993.2720   2235911.8366   5568911.5620   2   6   0.0075   0.0044   0.0036  -0.0037   0.0019   0.0027   0.00    1.1
2020/04/05 00:53:00.000   2111993.2691   2235911.8399   5568911.5650   2   6   0.0075   0.0043   0.0035  -0.0037   0.0019   0.0027   0.00    1.1
2020/04/05 00:53:30.000   2111993.2663   2235911.8435   5568911.5683   2   6   0.0075   0.0043   0.0035  -0.0037   0.0018   0.0027   0.00    1.7
2020/04/05 00:54:00.000   2111993.2634   2235911.8473   5568911.5717   2   6   0.0074   0.0043   0.0035  -0.0037   0.0018   0.0026   0.00    1.8
2020/04/05 00:54:30.000   2111993.2602   2235911.8511   5568911.5756   2   6   0.0074   0.0042   0.0035  -0.0037   0.0018   0.0026   0.00    1.8
2020/04/05 00:55:00.000   2111993.2571   2235911.8551   5568911.5795   2   6   0.0074   0.0042   0.0034  -0.0037   0.0018   0.0026   0.00    1.8
2020/04/05 00:55:30.000   2111993.2544   2235911.8588   5568911.5834   2   6   0.0073   0.0042   0.0034  -0.0037   0.0018   0.0026   0.00    1.9
2020/04/05 00:56:00.000   2111993.2513   2235911.8625   5568911.5874   2   6   0.0073   0.0042   0.0034  -0.0037   0.0018   0.0026   0.00    1.9
2020/04/05 00:56:30.000   2111993.2485   2235911.8662   5568911.5914   2   6   0.0073   0.0041   0.0034  -0.0037   0.0018   0.0026   0.00    1.9
2020/04/05 00:57:00.000   2111993.2448   2235911.8699   5568911.5953   2   6   0.0072   0.0041   0.0033  -0.0037   0.0018   0.0025   0.00    2.0
2020/04/05 00:57:30.000   2111993.2413   2235911.8742   5568911.5996   2   6   0.0072   0.0041   0.0033  -0.0037   0.0018   0.0025   0.00    2.0
2020/04/05 00:58:00.000   2111993.2378   2235911.8786   5568911.6041   2   6   0.0071   0.0041   0.0033  -0.0037   0.0017   0.0025   0.00    2.0
2020/04/05 00:58:30.000   2111993.2345   2235911.8827   5568911.6083   2   6   0.0071   0.0040   0.0033  -0.0037   0.0017   0.0025   0.00    1.3
2020/04/05 00:59:00.000   2111993.2309   2235911.8868   5568911.6129   2   6   0.0071   0.0040   0.0032  -0.0037   0.0017   0.0025   0.00    1.8
2020/04/05 00:59:30.000   2111993.2267   2235911.8915   5568911.6180   2   6   0.0070   0.0040   0.0032  -0.0036   0.0017   0.0025   0.00    1.4
2020/04/05 01:00:00.000   2111993.2225   2235911.8959   5568911.6227   2   6   0.0070   0.0040   0.0032  -0.0036   0.0017   0.0024   0.00    1.1
2020/04/05 01:00:30.000   2111993.2188   2235911.8999   5568911.6274   2   6   0.0069   0.0039   0.0032  -0.0036   0.0017   0.0024   0.00    1.4
2020/04/05 01:01:00.000   2111993.2150   2235911.9043   5568911.6325   2   6   0.0069   0.0039   0.0031  -0.0036   0.0017   0.0024   0.00    1.0
2020/04/05 01:01:30.000   2111993.2104   2235911.9091   5568911.6378   2   6   0.0068   0.0039   0.0031  -0.0036   0.0017   0.0024   0.00    1.3
2020/04/05 01:02:00.000   2111993.2063   2235911.9142   5568911.6434   2   6   0.0068   0.0039   0.0031  -0.0036   0.0016   0.0024   0.00    1.8
2020/04/05 01:02:30.000   2111993.2024   2235911.9195   5568911.6489   2   6   0.0067   0.0039   0.0031  -0.0036   0.0016   0.0024   0.00    1.2
2020/04/05 01:03:00.000   2111993.1986   2235911.9245   5568911.6544   2   7   0.0067   0.0038   0.0030  -0.0035   0.0016   0.0023   0.00    1.0
2020/04/05 01:03:30.000   2111993.1945   2235911.9293   5568911.6595   2   7   0.0066   0.0038   0.0030  -0.0035   0.0016   0.0023   0.00    1.0
2020/04/05 01:04:00.000   2111993.1909   2235911.9339   5568911.6646   2   7   0.0066   0.0038   0.0030  -0.0035   0.0016   0.0023   0.00    1.1
2020/04/05 01:04:30.000   2111993.1884   2235911.9382   5568911.6699   2   7   0.0065   0.0038   0.0030  -0.0035   0.0016   0.0023   0.00    1.1
2020/04/05 01:05:00.000   2111993.1857   2235911.9423   5568911.6748   2   7   0.0065   0.0037   0.0030  -0.0035   0.0016   0.0023   0.00    1.1
2020/04/05 01:05:30.000   2111993.1832   2235911.9466   5568911.6800   2   7   0.0064   0.0037   0.0029  -0.0035   0.0016   0.0023   0.00    1.0
2020/04/05 01:06:00.000   2111993.1808   2235911.9508   5568911.6851   2   7   0.0064   0.0037   0.0029  -0.0034   0.0016   0.0022   0.00    1.1
2020/04/05 01:06:30.000   2111993.1790   2235911.9546   5568911.6904   2   7   0.0063   0.0037   0.0029  -0.0034   0.0015   0.0022   0.00    1.1
2020/04/05 01:07:00.000   2111993.1775   2235911.9584   5568911.6959   2   7   0.0063   0.0036   0.0029  -0.0034   0.0015   0.0022   0.00    1.2
2020/04/05 01:07:30.000   2111993.1765   2235911.9619   5568911.7015   2   7   0.0062   0.0036   0.0028  -0.0034   0.0015   0.0022   0.00    1.1
2020/04/05 01:08:00.000   2111993.1760   2235911.9655   5568911.7071   2   7   0.0062   0.0036   0.0028  -0.0033   0.0015   0.0022   0.00    1.1
2020/04/05 01:08:30.000   2111993.1761   2235911.9686   5568911.7128   2   7   0.0061   0.0036   0.0028  -0.0033   0.0015   0.0021   0.00    1.0
2020/04/05 01:09:00.000   2111993.1767   2235911.9717   5568911.7186   2   7   0.0061   0.0036   0.0028  -0.0033   0.0015   0.0021   0.00    1.0
2020/04/05 01:09:30.000   2111993.1777   2235911.9746   5568911.7244   2   7   0.0060   0.0035   0.0028  -0.0033   0.0015   0.0021   0.00    1.0
2020/04/05 01:10:00.000   2111993.1787   2235911.9775   5568911.7304   2   7   0.0060   0.0035   0.0027  -0.0033   0.0015   0.0021   0.00    1.1
2020/04/05 01:10:30.000   2111993.1798   2235911.9801   5568911.7363   2   7   0.0059   0.0035   0.0027  -0.0032   0.0015   0.0021   0.00    1.0
2020/04/05 01:11:00.000   2111993.1804   2235911.9829   5568911.7422   2   7   0.0058   0.0035   0.0027  -0.0032   0.0014   0.0021   0.00    1.2
2020/04/05 01:11:30.000   2111993.1810   2235911.9858   5568911.7482   2   7   0.0058   0.0035   0.0027  -0.0032   0.0014   0.0020   0.00    1.1
2020/04/05 01:12:00.000   2111993.1823   2235911.9885   5568911.7542   2   7   0.0057   0.0034   0.0027  -0.0032   0.0014   0.0020   0.00    1.1
2020/04/05 01:12:30.000   2111993.1841   2235911.9908   5568911.7603   2   7   0.0057   0.0034   0.0026  -0.0031   0.0014   0.0020   0.00    1.0
2020/04/05 01:13:00.000   2111993.1853   2235911.9932   5568911.7662   2   7   0.0056   0.0034   0.0026  -0.0031   0.0014   0.0020   0.00    1.2
2020/04/05 01:13:30.000   2111993.1871   2235911.9955   5568911.7720   2   7   0.0056   0.0034   0.0026  -0.0031   0.0014   0.0020   0.00    1.1
2020/04/05 01:14:00.000   2111993.1883   2235911.9979   5568911.7777   2   7   0.0055   0.0033   0.0026  -0.0031   0.0014   0.0020   0.00    1.1
2020/04/05 01:14:30.000   2111993.1907   2235911.9998   5568911.7838   2   7   0.0055   0.0033   0.0026  -0.0030   0.0014   0.0019   0.00    1.0
2020/04/05 01:15:00.000   2111993.1926   2235912.0020   5568911.7896   2   7   0.0054   0.0033   0.0026  -0.0030   0.0014   0.0019   0.00    1.1
2020/04/05 01:15:30.000   2111993.1947   2235912.0042   5568911.7956   2   7   0.0054   0.0033   0.0025  -0.0030   0.0013   0.0019   0.00    1.1
2020/04/05 01:16:00.000   2111993.1966   2235912.0061   5568911.8015   2   7   0.0053   0.0033   0.0025  -0.0030   0.0013   0.0019   0.00    1.0
2020/04/05 01:16:30.000   2111993.1991   2235912.0078   5568911.8071   2   7   0.0053   0.0032   0.0025  -0.0029   0.0013   0.0019   0.00    1.1
2020/04/05 01:17:00.000   2111993.2010   2235912.0093   5568911.8124   2   7   0.0052   0.0032   0.0025  -0.0029   0.0013   0.0019   0.00    1.0
2020/04/05 01:17:30.000   2111993.2032   2235912.0106   5568911.8177   2   7   0.0052   0.0032   0.0025  -0.0029   0.0013   0.0018   0.00    1.1
2020/04/05 01:18:00.000   2111993.2061   2235912.0116   5568911.8230   2   7   0.0051   0.0032   0.0024  -0.0029   0.0013   0.0018   0.00    1.1
2020/04/05 01:18:30.000   2111993.2089   2235912.0124   5568911.8281   2   7   0.0051   0.0032   0.0024  -0.0028   0.0013   0.0018   0.00    1.3
2020/04/05 01:19:00.000   2111993.2124   2235912.0131   5568911.8332   2   7   0.0050   0.0031   0.0024  -0.0028   0.0013   0.0018   0.00    1.0
2020/04/05 01:19:30.000   2111993.2156   2235912.0138   5568911.8382   2   7   0.0050   0.0031   0.0024  -0.0028   0.0013   0.0018   0.00    1.2
2020/04/05 01:20:00.000   2111993.2195   2235912.0142   5568911.8431   2   7   0.0049   0.0031   0.0024  -0.0028   0.0013   0.0018   0.00    1.0
2020/04/05 01:20:30.000   2111993.2231   2235912.0146   5568911.8478   2   7   0.0049   0.0031   0.0024  -0.0028   0.0012   0.0018   0.00    1.2
2020/04/05 01:21:00.000   2111993.2274   2235912.0146   5568911.8526   2   7   0.0048   0.0031   0.0023  -0.0027   0.0012   0.0017   0.00    1.3
2020/04/05 01:21:30.000   2111993.2314   2235912.0145   5568911.8574   2   7   0.0048   0.0030   0.0023  -0.0027   0.0012   0.0017   0.00    1.3
2020/04/05 01:22:00.000   2111993.2354   2235912.0140   5568911.8618   2   7   0.0047   0.0030   0.0023  -0.0027   0.0012   0.0017   0.00    1.2
2020/04/05 01:22:30.000   2111993.2398   2235912.0136   5568911.8662   2   7   0.0047   0.0030   0.0023  -0.0027   0.0012   0.0017   0.00    1.2
2020/04/05 01:23:00.000   2111993.2451   2235912.0129   5568911.8706   2   7   0.0046   0.0030   0.0023  -0.0026   0.0012   0.0017   0.00    1.1
2020/04/05 01:23:30.000   2111993.2502   2235912.0121   5568911.8747   2   7   0.0046   0.0030   0.0023  -0.0026   0.0012   0.0017   0.00    1.1
2020/04/05 01:24:00.000   2111993.2558   2235912.0111   5568911.8788   2   7   0.0045   0.0030   0.0023  -0.0026   0.0012   0.0017   0.00    1.3
2020/04/05 01:24:30.000   2111993.2611   2235912.0102   5568911.8828   2   7   0.0045   0.0029   0.0022  -0.0026   0.0012   0.0016   0.00    1.1
2020/04/05 01:25:00.000   2111993.2666   2235912.0091   5568911.8865   2   7   0.0044   0.0029   0.0022  -0.0025   0.0012   0.0016   0.00    1.4
2020/04/05 01:25:30.000   2111993.2730   2235912.0076   5568911.8903   2   7   0.0044   0.0029   0.0022  -0.0025   0.0011   0.0016   0.00    1.1
2020/04/05 01:26:00.000   2111993.2793   2235912.0062   5568911.8938   2   7   0.0044   0.0029   0.0022  -0.0025   0.0011   0.0016   0.00    1.3
2020/04/05 01:26:30.000   2111993.2859   2235912.0045   5568911.8973   2   7   0.0043   0.0029   0.0022  -0.0025   0.0011   0.0016   0.00    1.2
2020/04/05 01:27:00.000   2111993.2931   2235912.0025   5568911.9005   2   7   0.0043   0.0029   0.0022  -0.0024   0.0011   0.0016   0.00    1.1
2020/04/05 01:27:30.000   2111993.3005   2235911.9999   5568911.9034   2   7   0.0042   0.0028   0.0021  -0.0024   0.0011   0.0016   0.00    1.2
2020/04/05 01:28:00.000   2111993.3078   2235911.9973   5568911.9061   2   7   0.0042   0.0028   0.0021  -0.0024   0.0011   0.0015   0.00    1.0
2020/04/05 01:28:30.000   2111993.3147   2235911.9946   5568911.9088   2   7   0.0041   0.0028   0.0021  -0.0024   0.0011   0.0015   0.00    1.1
2020/04/05 01:29:00.000   2111993.3217   2235911.9918   5568911.9113   2   7   0.0041   0.0028   0.0021  -0.0024   0.0011   0.0015   0.00    1.1
2020/04/05 01:29:30.000   2111993.3287   2235911.9889   5568911.9137   2   7   0.0041   0.0028   0.0021  -0.0023   0.0011   0.0015   0.00    1.1
2020/04/05 01:30:00.000   2111993.3353   2235911.9860   5568911.9160   2   7   0.0040   0.0028   0.0021  -0.0023   0.0011   0.0015   0.00    1.1
2020/04/05 01:30:30.000   2111993.3417   2235911.9829   5568911.9180   2   7   0.0040   0.0027   0.0021  -0.0023   0.0011   0.0015   0.00    1.2
2020/04/05 01:31:00.000   2111993.3484   2235911.9798   5568911.9201   2   7   0.0039   0.0027   0.0021  -0.0023   0.0011   0.0015   0.00    1.0
2020/04/05 01:31:30.000   2111993.3547   2235911.9768   5568911.9221   2   7   0.0039   0.0027   0.0020  -0.0023   0.0010   0.0015   0.00    1.0
2020/04/05 01:32:00.000   2111993.3604   2235911.9739   5568911.9240   2   7   0.0039   0.0027   0.0020  -0.0022   0.0010   0.0015   0.00    1.0
2020/04/05 01:32:30.000   2111993.3656   2235911.9711   5568911.9259   2   7   0.0038   0.0027   0.0020  -0.0022   0.0010   0.0014   0.00    1.4
2020/04/05 01:33:00.000   2111993.3707   2235911.9685   5568911.9277   2   7   0.0038   0.0027   0.0020  -0.0022   0.0010   0.0014   0.00    1.2
2020/04/05 01:33:30.000   2111993.3758   2235911.9657   5568911.9294   2   7   0.0038   0.0026   0.0020  -0.0022   0.0010   0.0014   0.00    1.0
2020/04/05 01:34:00.000   2111993.3807   2235911.9628   5568911.9310   2   7   0.0037   0.0026   0.0020  -0.0022   0.0010   0.0014   0.00    1.0
2020/04/05 01:34:30.000   2111993.3855   2235911.9598   5568911.9324   2   7   0.0037   0.0026   0.0020  -0.0021   0.0010   0.0014   0.00    1.2
2020/04/05 01:35:00.000   2111993.3904   2235911.9569   5568911.9340   2   7   0.0037   0.0026   0.0020  -0.0021   0.0010   0.0014   0.00    1.0
2020/04/05 01:35:30.000   2111993.3952   2235911.9536   5568911.9352   2   7   0.0036   0.0026   0.0019  -0.0021   0.0010   0.0014   0.00    1.0
2020/04/05 01:36:00.000   2111993.4003   2235911.9505   5568911.9366   2   7   0.0036   0.0026   0.0019  -0.0021   0.0010   0.0014   0.00    1.2
2020/04/05 01:36:30.000   2111993.4051   2235911.9473   5568911.9379   2   7   0.0036   0.0026   0.0019  -0.0021   0.0010   0.0014   0.00    1.0
2020/04/05 01:37:00.000   2111993.4101   2235911.9438   5568911.9392   2   7   0.0035   0.0025   0.0019  -0.0020   0.0010   0.0014   0.00    1.4
2020/04/05 01:37:30.000   2111993.4149   2235911.9404   5568911.9404   2   7   0.0035   0.0025   0.0019  -0.0020   0.0009   0.0013   0.00    1.0
2020/04/05 01:38:00.000   2111993.4199   2235911.9368   5568911.9415   2   8   0.0035   0.0025   0.0019  -0.0020   0.0009   0.0013   0.00    1.0
2020/04/05 01:38:30.000   2111993.4251   2235911.9331   5568911.9428   2   8   0.0034   0.0025   0.0019  -0.0020   0.0009   0.0013   0.00    1.0
2020/04/05 01:39:00.000   2111993.4305   2235911.9294   5568911.9440   2   8   0.0034   0.0025   0.0019  -0.0020   0.0009   0.0013   0.00    1.0
2020/04/05 01:39:30.000   2111993.4357   2235911.9257   5568911.9452   2   8   0.0034   0.0025   0.0019  -0.0020   0.0009   0.0013   0.00    1.0
2020/04/05 01:40:00.000   2111993.4408   2235911.9218   5568911.9463   2   8   0.0033   0.0025   0.0018  -0.0019   0.0009   0.0013   0.00    1.0
2020/04/05 01:40:30.000   2111993.4462   2235911.9178   5568911.9475   2   8   0.0033   0.0025   0.0018  -0.0019   0.0009   0.0013   0.00    1.0
2020/04/05 01:41:00.000   2111993.4514   2235911.9139   5568911.9486   2   8   0.0033   0.0024   0.0018  -0.0019   0.0009   0.0013   0.00    1.1
2020/04/05 01:41:30.000   2111993.4565   2235911.9097   5568911.9496   2   8   0.0033   0.0024   0.0018  -0.0019   0.0009   0.0013   0.00    1.1
2020/04/05 01:42:00.000   2111993.4616   2235911.9056   5568911.9505   2   8   0.0032   0.0024   0.0018  -0.0019   0.0009   0.0013   0.00    1.0
2020/04/05 01:42:30.000   2111993.4669   2235911.9012   5568911.9512   2   8   0.0032   0.0024   0.0018  -0.0019   0.0009   0.0013   0.00    1.0
2020/04/05 01:43:00.000   2111993.4723   2235911.8968   5568911.9520   2   8   0.0032   0.0024   0.0018  -0.0018   0.0009   0.0013   0.00    1.0
2020/04/05 01:43:30.000   2111993.4779   2235911.8924   5568911.9525   2   8   0.0032   0.0024   0.0018  -0.0018   0.0009   0.0012   0.00    1.0
2020/04/05 01:44:00.000   2111993.4834   2235911.8881   5568911.9529   2   8   0.0031   0.0024   0.0018  -0.0018   0.0009   0.0012   0.00    1.0
2020/04/05 01:44:30.000   2111993.4889   2235911.8840   5568911.9532   2   8   0.0031   0.0024   0.0018  -0.0018   0.0008   0.0012   0.00    1.0
2020/04/05 01:45:00.000   2111993.4944   2235911.8798   5568911.9534   2   8   0.0031   0.0023   0.0017  -0.0018   0.0008   0.0012   0.00    1.0
2020/04/05 01:45:30.000   2111993.4999   2235911.8756   5568911.9534   2   8   0.0030   0.0023   0.0017  -0.0018   0.0008   0.0012   0.00    1.1
2020/04/05 01:46:00.000   2111993.5056   2235911.8710   5568911.9534   2   8   0.0030   0.0023   0.0017  -0.0017   0.0008   0.0012   0.00    1.2
2020/04/05 01:46:30.000   2111993.5113   2235911.8667   5568911.9535   2   8   0.0030   0.0023   0.0017  -0.0017   0.0008   0.0012   0.00    1.0
2020/04/05 01:47:00.000   2111993.5169   2235911.8623   5568911.9534   2   8   0.0030   0.0023   0.0017  -0.0017   0.0008   0.0012   0.00    1.0
2020/04/05 01:47:30.000   2111993.5227   2235911.8580   5568911.9535   2   8   0.0030   0.0023   0.0017  -0.0017   0.0008   0.0012   0.00    1.0
2020/04/05 01:48:00.000   2111993.5283   2235911.8537   5568911.9535   2   8   0.0029   0.0023   0.0017  -0.0017   0.0008   0.0012   0.00    1.2
2020/04/05 01:48:30.000   2111993.5339   2235911.8494   5568911.9533   2   8   0.0029   0.0023   0.0017  -0.0017   0.0008   0.0012   0.00    1.1
2020/04/05 01:49:00.000   2111993.5397   2235911.8450   5568911.9532   2   8   0.0029   0.0023   0.0017  -0.0017   0.0008   0.0012   0.00    1.1
2020/04/05 01:49:30.000   2111993.5456   2235911.8405   5568911.9532   2   8   0.0029   0.0022   0.0017  -0.0016   0.0008   0.0012   0.00    1.1
2020/04/05 01:50:00.000   2111993.5513   2235911.8361   5568911.9531   2   8   0.0028   0.0022   0.0017  -0.0016   0.0008   0.0012   0.00    1.5
2020/04/05 01:50:30.000   2111993.5567   2235911.8318   5568911.9531   2   8   0.0028   0.0022   0.0017  -0.0016   0.0008   0.0012   0.00    1.1
2020/04/05 01:51:00.000   2111993.5619   2235911.8276   5568911.9531   2   9   0.0028   0.0022   0.0016  -0.0016   0.0008   0.0011   0.00    1.0
2020/04/05 01:51:30.000   2111993.5672   2235911.8235   5568911.9531   2   9   0.0028   0.0022   0.0016  -0.0016   0.0008   0.0011   0.00    1.0
2020/04/05 01:52:00.000   2111993.5721   2235911.8197   5568911.9533   2   9   0.0028   0.0022   0.0016  -0.0016   0.0007   0.0011   0.00    1.0
2020/04/05 01:52:30.000   2111993.5770   2235911.8161   5568911.9534   2   9   0.0027   0.0022   0.0016  -0.0016   0.0007   0.0011   0.00    1.0
2020/04/05 01:53:00.000   2111993.5817   2235911.8126   5568911.9535   2   9   0.0027   0.0022   0.0016  -0.0015   0.0007   0.0011   0.00    1.0
2020/04/05 01:53:30.000   2111993.5863   2235911.8090   5568911.9535   2   9   0.0027   0.0022   0.0016  -0.0015   0.0007   0.0011   0.00    1.1
2020/04/05 01:54:00.000   2111993.5907   2235911.8056   5568911.9535   2   9   0.0027   0.0022   0.0016  -0.0015   0.0007   0.0011   0.00    1.0
2020/04/05 01:54:30.000   2111993.5952   2235911.8021   5568911.9535   2   9   0.0027   0.0021   0.0016  -0.0015   0.0007   0.0011   0.00    1.0
2020/04/05 01:55:00.000   2111993.5993   2235911.7992   5568911.9535   2   9   0.0026   0.0021   0.0016  -0.0015   0.0007   0.0011   0.00    1.0
2020/04/05 01:55:30.000   2111993.6037   2235911.7963   5568911.9534   2   9   0.0026   0.0021   0.0016  -0.0015   0.0007   0.0011   0.00    1.1
2020/04/05 01:56:00.000   2111993.6079   2235911.7935   5568911.9534   2   9   0.0026   0.0021   0.0016  -0.0015   0.0007   0.0011   0.00    1.1
2020/04/05 01:56:30.000   2111993.6116   2235911.7908   5568911.9532   2   9   0.0026   0.0021   0.0016  -0.0015   0.0007   0.0011   0.00    1.1
2020/04/05 01:57:00.000   2111993.6154   2235911.7881   5568911.9532   2   9   0.0026   0.0021   0.0016  -0.0014   0.0007   0.0011   0.00    1.1
2020/04/05 01:57:30.000   2111993.6193   2235911.7857   5568911.9531   2   9   0.0025   0.0021   0.0015  -0.0014   0.0007   0.0011   0.00    1.0
2020/04/05 01:58:00.000   2111993.6230   2235911.7834   5568911.9532   2   9   0.0025   0.0021   0.0015  -0.0014   0.0007   0.0011   0.00    1.0
2020/04/05 01:58:30.000   2111993.6266   2235911.7811   5568911.9531   2   9   0.0025   0.0021   0.0015  -0.0014   0.0007   0.0011   0.00    1.0
2020/04/05 01:59:00.000   2111993.6300   2235911.7789   5568911.9531   2   9   0.0025   0.0021   0.0015  -0.0014   0.0007   0.0011   0.00    1.1
2020/04/05 01:59:30.000   2111993.6333   2235911.7769   5568911.9530   2   9   0.0025   0.0021   0.0015  -0.0014   0.0007   0.0011   0.00    1.0
2020/04/05 02:00:00.000   2111993.6364   2235911.7750   5568911.9528   2   9   0.0025   0.0020   0.0015  -0.0014   0.0007   0.0011   0.00    1.1
2020/04/05 02:00:30.000   2111993.6393   2235911.7734   5568911.9526   2   9   0.0024   0.0020   0.0015  -0.0014   0.0007   0.0010   0.00    1.3
2020/04/05 02:01:00.000   2111993.6421   2235911.7718   5568911.9523   2   9   0.0024   0.0020   0.0015  -0.0013   0.0007   0.0010   0.00    1.0
2020/04/05 02:01:30.000   2111993.6449   2235911.7703   5568911.9520   2   9   0.0024   0.0020   0.0015  -0.0013   0.0007   0.0010   0.00    1.2
2020/04/05 02:02:00.000   2111993.6477   2235911.7686   5568911.9516   2   9   0.0024   0.0020   0.0015  -0.0013   0.0006   0.0010   0.00    1.1
2020/04/05 02:02:30.000   2111993.6503   2235911.7672   5568911.9512   2   9   0.0024   0.0020   0.0015  -0.0013   0.0006   0.0010   0.00    1.0
2020/04/05 02:03:00.000   2111993.6531   2235911.7657   5568911.9509   2   9   0.0024   0.0020   0.0015  -0.0013   0.0006   0.0010   0.00    1.0
2020/04/05 02:03:30.000   2111993.6558   2235911.7643   5568911.9504   2   9   0.0023   0.0020   0.0015  -0.0013   0.0006   0.0010   0.00    1.0
2020/04/05 02:04:00.000   2111993.6585   2235911.7630   5568911.9499   2   9   0.0023   0.0020   0.0015  -0.0013   0.0006   0.0010   0.00    1.1
2020/04/05 02:04:30.000   2111993.6611   2235911.7617   5568911.9495   2   9   0.0023   0.0020   0.0015  -0.0013   0.0006   0.0010   0.00    1.1
2020/04/05 02:05:00.000   2111993.6622   2235911.7591   5568911.9481   2   8   0.0023   0.0020   0.0015  -0.0013   0.0006   0.0010   0.00    1.0
2020/04/05 02:05:30.000   2111993.6634   2235911.7564   5568911.9465   2   8   0.0023   0.0020   0.0015  -0.0012   0.0006   0.0010   0.00    1.0
2020/04/05 02:06:00.000   2111993.6646   2235911.7538   5568911.9449   2   8   0.0023   0.0019   0.0014  -0.0012   0.0006   0.0010   0.00    1.0
2020/04/05 02:06:30.000   2111993.6662   2235911.7523   5568911.9454   2   7   0.0023   0.0019   0.0014  -0.0012   0.0006   0.0010   0.00    1.1
2020/04/05 02:07:00.000   2111993.6676   2235911.7510   5568911.9458   2   7   0.0023   0.0019   0.0014  -0.0012   0.0006   0.0010   0.00    1.1
2020/04/05 02:07:30.000   2111993.6688   2235911.7498   5568911.9462   2   7   0.0022   0.0019   0.0014  -0.0012   0.0006   0.0010   0.00    1.0
2020/04/05 02:08:00.000   2111993.6697   2235911.7487   5568911.9465   2   7   0.0022   0.0019   0.0014  -0.0012   0.0006   0.0010   0.00    1.0
2020/04/05 02:08:30.000   2111993.6707   2235911.7478   5568911.9468   2   7   0.0022   0.0019   0.0014  -0.0012   0.0006   0.0010   0.00    1.0
2020/04/05 02:09:00.000   2111993.6715   2235911.7470   5568911.9471   2   7   0.0022   0.0019   0.0014  -0.0012   0.0006   0.0010   0.00    1.1
2020/04/05 02:09:30.000   2111993.6723   2235911.7462   5568911.9473   2   7   0.0022   0.0019   0.0014  -0.0011   0.0006   0.0010   0.00    1.0
2020/04/05 02:10:00.000   2111993.6731   2235911.7455   5568911.9475   2   7   0.0022   0.0019   0.0014  -0.0011   0.0006   0.0010   0.00    1.1
2020/04/05 02:10:30.000   2111993.6740   2235911.7448   5568911.9476   2   7   0.0022   0.0019   0.0014  -0.0011   0.0006   0.0010   0.00    1.1
2020/04/05 02:11:00.000   2111993.6747   2235911.7443   5568911.9477   2   7   0.0022   0.0019   0.0014  -0.0011   0.0006   0.0010   0.00    1.0
2020/04/05 02:11:30.000   2111993.6756   2235911.7437   5568911.9476   2   7   0.0021   0.0019   0.0014  -0.0011   0.0006   0.0010   0.00    1.0
2020/04/05 02:12:00.000   2111993.6763   2235911.7431   5568911.9475   2   7   0.0021   0.0019   0.0014  -0.0011   0.0006   0.0010   0.00    1.1
2020/04/05 02:12:30.000   2111993.6772   2235911.7427   5568911.9474   2   7   0.0021   0.0019   0.0014  -0.0011   0.0006   0.0010   0.00    1.0
2020/04/05 02:13:00.000   2111993.6781   2235911.7424   5568911.9472   2   7   0.0021   0.0019   0.0014  -0.0011   0.0006   0.0010   0.00    1.0
2020/04/05 02:13:30.000   2111993.6788   2235911.7420   5568911.9469   2   7   0.0021   0.0019   0.0014  -0.0010   0.0006   0.0010   0.00    1.1
2020/04/05 02:14:00.000   2111993.6796   2235911.7417   5568911.9466   2   7   0.0021   0.0019   0.0014  -0.0010   0.0006   0.0010   0.00    1.1
2020/04/05 02:14:30.000   2111993.6802   2235911.7415   5568911.9463   2   7   0.0021   0.0018   0.0014  -0.0010   0.0006   0.0010   0.00    1.1
2020/04/05 02:15:00.000   2111993.6809   2235911.7413   5568911.9460   2   7   0.0021   0.0018   0.0014  -0.0010   0.0006   0.0010   0.00    1.0
2020/04/05 02:15:30.000   2111993.6815   2235911.7412   5568911.9457   2   7   0.0021   0.0018   0.0014  -0.0010   0.0006   0.0010   0.00    1.1
2020/04/05 02:16:00.000   2111993.6821   2235911.7413   5568911.9452   2   7   0.0020   0.0018   0.0014  -0.0010   0.0006   0.0010   0.00    1.0
2020/04/05 02:16:30.000   2111993.6826   2235911.7415   5568911.9447   2   7   0.0020   0.0018   0.0014  -0.0010   0.0006   0.0010   0.00    1.0
2020/04/05 02:17:00.000   2111993.6830   2235911.7416   5568911.9443   2   7   0.0020   0.0018   0.0014  -0.0010   0.0006   0.0010   0.00    1.0
2020/04/05 02:17:30.000   2111993.6834   2235911.7419   5568911.9437   2   7   0.0020   0.0018   0.0014  -0.0010   0.0006   0.0010   0.00    1.2
2020/04/05 02:18:00.000   2111993.6837   2235911.7423   5568911.9431   2   7   0.0020   0.0018   0.0014  -0.0009   0.0006   0.0010   0.00    1.3
2020/04/05 02:18:30.000   2111993.6839   2235911.7427   5568911.9425   2   7   0.0020   0.0018   0.0014  -0.0009   0.0006   0.0010   0.00    1.2
2020/04/05 02:19:00.000   2111993.6840   2235911.7433   5568911.9418   2   7   0.0020   0.0018   0.0014  -0.0009   0.0006   0.0010   0.00    1.0
2020/04/05 02:19:30.000   2111993.6842   2235911.7440   5568911.9411   2   7   0.0020   0.0018   0.0014  -0.0009   0.0006   0.0010   0.00    1.0
2020/04/05 02:20:00.000   2111993.6843   2235911.7446   5568911.9405   2   7   0.0020   0.0018   0.0014  -0.0009   0.0006   0.0010   0.00    1.3
2020/04/05 02:20:30.000   2111993.6845   2235911.7452   5568911.9397   2   7   0.0020   0.0018   0.0014  -0.0009   0.0006   0.0010   0.00    1.1
2020/04/05 02:21:00.000   2111993.6847   2235911.7459   5568911.9389   2   7   0.0020   0.0018   0.0014  -0.0009   0.0006   0.0010   0.00    1.0
2020/04/05 02:21:30.000   2111993.6849   2235911.7466   5568911.9382   2   7   0.0019   0.0018   0.0014  -0.0009   0.0006   0.0010   0.00    1.0
2020/04/05 02:22:00.000   2111993.6852   2235911.7472   5568911.9374   2   7   0.0019   0.0018   0.0013  -0.0009   0.0006   0.0010   0.00    1.5
2020/04/05 02:22:30.000   2111993.6854   2235911.7479   5568911.9366   2   7   0.0019   0.0018   0.0013  -0.0008   0.0006   0.0010   0.00    1.2
2020/04/05 02:23:00.000   2111993.6857   2235911.7487   5568911.9359   2   7   0.0019   0.0018   0.0013  -0.0008   0.0006   0.0010   0.00    1.3
2020/04/05 02:23:30.000   2111993.6859   2235911.7494   5568911.9351   2   7   0.0019   0.0017   0.0013  -0.0008   0.0006   0.0009   0.00    1.6
2020/04/05 02:24:00.000   2111993.6863   2235911.7501   5568911.9343   2   7   0.0019   0.0017   0.0013  -0.0008   0.0006   0.0009   0.00    1.3
2020/04/05 02:24:30.000   2111993.6867   2235911.7507   5568911.9335   2   7   0.0019   0.0017   0.0013  -0.0008   0.0006   0.0009   0.00    1.1
2020/04/05 02:25:00.000   2111993.6872   2235911.7512   5568911.9326   2   7   0.0019   0.0017   0.0013  -0.0008   0.0006   0.0009   0.00    1.4
2020/04/05 02:25:30.000   2111993.6877   2235911.7519   5568911.9318   2   7   0.0019   0.0017   0.0013  -0.0008   0.0006   0.0009   0.00    1.7
2020/04/05 02:26:00.000   2111993.6883   2235911.7525   5568911.9308   2   7   0.0019   0.0017   0.0013  -0.0008   0.0006   0.0009   0.00    1.4
2020/04/05 02:26:30.000   2111993.6888   2235911.7531   5568911.9299   2   7   0.0019   0.0017   0.0013  -0.0008   0.0006   0.0009   0.00    1.5
2020/04/05 02:27:00.000   2111993.6896   2235911.7538   5568911.9290   2   7   0.0019   0.0017   0.0013  -0.0008   0.0006   0.0009   0.00    1.7
2020/04/05 02:27:30.000   2111993.6904   2235911.7545   5568911.9281   2   7   0.0019   0.0017   0.0013  -0.0007   0.0006   0.0009   0.00    2.2
2020/04/05 02:28:00.000   2111993.6913   2235911.7552   5568911.9271   2   7   0.0018   0.0017   0.0013  -0.0007   0.0006   0.0009   0.00    1.6
2020/04/05 02:28:30.000   2111993.6922   2235911.7561   5568911.9262   2   7   0.0018   0.0017   0.0013  -0.0007   0.0006   0.0009   0.00    1.3
2020/04/05 02:29:00.000   2111993.6932   2235911.7568   5568911.9252   2   7   0.0018   0.0017   0.0013  -0.0007   0.0006   0.0009   0.00    2.3
2020/04/05 02:29:30.000   2111993.6917   2235911.7735   5568911.9450   1   7   0.0008   0.0006   0.0011   0.0003   0.0005   0.0004   0.00    5.8
2020/04/05 02:30:00.000   2111993.6930   2235911.7732   5568911.9425   1   8   0.0008   0.0006   0.0011   0.0003   0.0005   0.0004   0.00    6.4
2020/04/05 02:30:30.000   2111993.6944   2235911.7728   5568911.9399   1   8   0.0008   0.0006   0.0010   0.0003   0.0005   0.0004   0.00    7.1
2020/04/05 02:31:00.000   2111993.6957   2235911.7724   5568911.9373   1   8   0.0008   0.0006   0.0010   0.0004   0.0005   0.0004   0.00    8.0
2020/04/05 02:31:30.000   2111993.6970   2235911.7720   5568911.9348   1   8   0.0008   0.0006   0.0010   0.0004   0.0005   0.0004   0.00    9.1
2020/04/05 02:32:00.000   2111993.6984   2235911.7716   5568911.9323   1   8   0.0008   0.0006   0.0010   0.0004   0.0005   0.0004   0.00   10.3
2020/04/05 02:32:30.000   2111993.6998   2235911.7712   5568911.9297   1   8   0.0008   0.0006   0.0010   0.0004   0.0005   0.0004   0.00   11.8
2020/04/05 02:33:00.000   2111993.7012   2235911.7707   5568911.9270   1   8   0.0008   0.0006   0.0010   0.0004   0.0004   0.0004   0.00   13.6
2020/04/05 02:33:30.000   2111993.7028   2235911.7702   5568911.9243   1   8   0.0008   0.0006   0.0010   0.0004   0.0004   0.0004   0.00   15.6
2020/04/05 02:34:00.000   2111993.7044   2235911.7696   5568911.9216   1   8   0.0008   0.0006   0.0010   0.0004   0.0004   0.0004   0.00   17.9
2020/04/05 02:34:30.000   2111993.7026   2235911.7703   5568911.9143   1   8   0.0008   0.0006   0.0010   0.0004   0.0005   0.0003   0.00    5.5
2020/04/05 02:35:00.000   2111993.7047   2235911.7696   5568911.9120   1   8   0.0008   0.0006   0.0010   0.0004   0.0005   0.0004   0.00    5.8
2020/04/05 02:35:30.000   2111993.7068   2235911.7689   5568911.9098   1   8   0.0008   0.0006   0.0010   0.0004   0.0005   0.0004   0.00    6.1
2020/04/05 02:36:00.000   2111993.7089   2235911.7683   5568911.9077   1   8   0.0008   0.0006   0.0010   0.0004   0.0005   0.0004   0.00    6.4
2020/04/05 02:36:30.000   2111993.7110   2235911.7676   5568911.9056   1   8   0.0008   0.0006   0.0010   0.0004   0.0005   0.0004   0.00    6.6
2020/04/05 02:37:00.000   2111993.7131   2235911.7669   5568911.9033   1   8   0.0008   0.0006   0.0010   0.0004   0.0005   0.0004   0.00    6.7
2020/04/05 02:37:30.000   2111993.7153   2235911.7662   5568911.9011   1   8   0.0008   0.0006   0.0010   0.0004   0.0005   0.0004   0.00    6.8
2020/04/05 02:38:00.000   2111993.7175   2235911.7655   5568911.8989   1   8   0.0008   0.0006   0.0010   0.0004   0.0005   0.0004   0.00    6.8
2020/04/05 02:38:30.000   2111993.7196   2235911.7649   5568911.8967   1   8   0.0008   0.0006   0.0010   0.0004   0.0005   0.0004   0.00    6.6
2020/04/05 02:39:00.000   2111993.7217   2235911.7641   5568911.8945   1   8   0.0008   0.0006   0.0010   0.0004   0.0005   0.0004   0.00    6.2
2020/04/05 02:39:30.000   2111993.7239   2235911.7634   5568911.8923   1   8   0.0008   0.0006   0.0010   0.0004   0.0005   0.0004   0.00    5.8
2020/04/05 02:40:00.000   2111993.7260   2235911.7626   5568911.8901   1   8   0.0008   0.0006   0.0010   0.0004   0.0005   0.0004   0.00    5.4
2020/04/05 02:40:30.000   2111993.7281   2235911.7617   5568911.8879   1   8   0.0008   0.0006   0.0010   0.0004   0.0005   0.0004   0.00    5.0
2020/04/05 02:41:00.000   2111993.7302   2235911.7609   5568911.8857   1   8   0.0008   0.0006   0.0010   0.0004   0.0005   0.0004   0.00    4.6
2020/04/05 02:41:30.000   2111993.7324   2235911.7601   5568911.8835   1   8   0.0008   0.0006   0.0010   0.0004   0.0005   0.0004   0.00    4.3
2020/04/05 02:42:00.000   2111993.7346   2235911.7593   5568911.8813   1   8   0.0008   0.0006   0.0010   0.0004   0.0005   0.0004   0.00    3.9
2020/04/05 02:42:30.000   2111993.7367   2235911.7584   5568911.8791   1   8   0.0008   0.0006   0.0010   0.0004   0.0005   0.0004   0.00    3.6
2020/04/05 02:43:00.000   2111993.7388   2235911.7576   5568911.8768   1   8   0.0008   0.0006   0.0010   0.0004   0.0005   0.0004   0.00    3.4
2020/04/05 02:43:30.000   2111993.7408   2235911.7567   5568911.8745   1   8   0.0008   0.0006   0.0010   0.0004   0.0005   0.0004   0.00    3.1
2020/04/05 02:44:00.000   2111993.7449   2235911.7876   5568911.8946   2   8   0.0016   0.0015   0.0012  -0.0004   0.0006   0.0009   0.00    2.9
2020/04/05 02:44:30.000   2111993.7435   2235911.7558   5568911.8683   1   8   0.0008   0.0006   0.0010   0.0004   0.0004   0.0005   0.00    4.1
2020/04/05 02:45:00.000   2111993.7455   2235911.7550   5568911.8659   1   8   0.0008   0.0006   0.0010   0.0004   0.0004   0.0005   0.00    3.6
2020/04/05 02:45:30.000   2111993.7476   2235911.7542   5568911.8636   1   8   0.0008   0.0006   0.0010   0.0004   0.0004   0.0005   0.00    3.2
2020/04/05 02:46:00.000   2111993.7545   2235911.7914   5568911.8909   2   8   0.0016   0.0015   0.0012  -0.0003   0.0006   0.0009   0.00    2.8
2020/04/05 02:46:30.000   2111993.7569   2235911.7923   5568911.8900   2   8   0.0016   0.0015   0.0012  -0.0003   0.0006   0.0009   0.00    2.5
2020/04/05 02:47:00.000   2111993.7593   2235911.7932   5568911.8891   2   8   0.0016   0.0015   0.0012  -0.0003   0.0006   0.0009   0.00    1.2
2020/04/05 02:47:30.000   2111993.7618   2235911.7941   5568911.8883   2   8   0.0016   0.0014   0.0012  -0.0003   0.0006   0.0009   0.00    1.1
2020/04/05 02:48:00.000   2111993.7643   2235911.7951   5568911.8873   2   8   0.0016   0.0014   0.0012  -0.0003   0.0006   0.0009   0.00    1.1
2020/04/05 02:48:30.000   2111993.7668   2235911.7960   5568911.8864   2   8   0.0016   0.0014   0.0012  -0.0003   0.0006   0.0009   0.00    1.0
2020/04/05 02:49:00.000   2111993.7695   2235911.7969   5568911.8856   2   8   0.0016   0.0014   0.0012  -0.0003   0.0006   0.0009   0.00    1.2
2020/04/05 02:49:30.000   2111993.7721   2235911.7979   5568911.8848   2   8   0.0016   0.0014   0.0012  -0.0002   0.0006   0.0009   0.00    1.2
2020/04/05 02:50:00.000   2111993.7748   2235911.7987   5568911.8839   2   8   0.0016   0.0014   0.0012  -0.0002   0.0006   0.0009   0.00    1.5
2020/04/05 02:50:30.000   2111993.7774   2235911.7995   5568911.8831   2   8   0.0016   0.0014   0.0012  -0.0002   0.0006   0.0009   0.00    1.4
2020/04/05 02:51:00.000   2111993.7800   2235911.8003   5568911.8822   2   8   0.0016   0.0014   0.0012  -0.0002   0.0006   0.0009   0.00    1.3
2020/04/05 02:51:30.000   2111993.7827   2235911.8011   5568911.8813   2   8   0.0016   0.0014   0.0012  -0.0002   0.0006   0.0009   0.00    1.3
2020/04/05 02:52:00.000   2111993.7854   2235911.8019   5568911.8804   2   8   0.0016   0.0014   0.0012  -0.0002   0.0006   0.0009   0.00    1.2
2020/04/05 02:52:30.000   2111993.7881   2235911.8027   5568911.8796   2   8   0.0016   0.0014   0.0012  -0.0002   0.0006   0.0009   0.00    1.4
2020/04/05 02:53:00.000   2111993.7908   2235911.8033   5568911.8788   2   8   0.0016   0.0014   0.0012  -0.0002   0.0006   0.0009   0.00    1.3
2020/04/05 02:53:30.000   2111993.7935   2235911.8041   5568911.8780   2   8   0.0016   0.0014   0.0012  -0.0001   0.0006   0.0009   0.00    1.3
2020/04/05 02:54:00.000   2111993.7962   2235911.8048   5568911.8771   2   8   0.0016   0.0014   0.0012  -0.0001   0.0006   0.0009   0.00    1.3
2020/04/05 02:54:30.000   2111993.7989   2235911.8055   5568911.8762   2   8   0.0015   0.0014   0.0012  -0.0001   0.0006   0.0009   0.00    1.5
2020/04/05 02:55:00.000   2111993.8016   2235911.8063   5568911.8753   2   8   0.0015   0.0014   0.0012  -0.0001   0.0006   0.0009   0.00    1.7
2020/04/05 02:55:30.000   2111993.8042   2235911.8071   5568911.8743   2   8   0.0015   0.0014   0.0012   0.0000   0.0006   0.0009   0.00    1.3
2020/04/05 02:56:00.000   2111993.8068   2235911.8079   5568911.8734   2   8   0.0015   0.0014   0.0012   0.0001   0.0006   0.0009   0.00    1.8
2020/04/05 02:56:30.000   2111993.8094   2235911.8085   5568911.8725   2   8   0.0015   0.0014   0.0012   0.0001   0.0006   0.0009   0.00    1.2
2020/04/05 02:57:00.000   2111993.8118   2235911.8093   5568911.8716   2   8   0.0015   0.0014   0.0012   0.0001   0.0006   0.0009   0.00    1.2
2020/04/05 02:57:30.000   2111993.8144   2235911.8102   5568911.8707   2   8   0.0015   0.0014   0.0012   0.0001   0.0006   0.0009   0.00    1.0
2020/04/05 02:58:00.000   2111993.8169   2235911.8110   5568911.8699   2   8   0.0015   0.0014   0.0012   0.0001   0.0006   0.0009   0.00    1.1
2020/04/05 02:58:30.000   2111993.8195   2235911.8121   5568911.8698   2   7   0.0015   0.0014   0.0012   0.0002   0.0006   0.0009   0.00    1.5
2020/04/05 02:59:00.000   2111993.8223   2235911.8131   5568911.8697   2   7   0.0015   0.0014   0.0012   0.0002   0.0006   0.0009   0.00    2.1
2020/04/05 02:59:30.000   2111993.8251   2235911.8142   5568911.8696   2   7   0.0015   0.0014   0.0012   0.0002   0.0006   0.0009   0.00    1.2
2020/04/05 03:00:00.000   2111993.8279   2235911.8152   5568911.8696   2   7   0.0015   0.0013   0.0012   0.0002   0.0006   0.0009   0.00    1.2
2020/04/05 03:00:30.000   2111993.8309   2235911.8161   5568911.8695   2   7   0.0015   0.0013   0.0012   0.0002   0.0006   0.0009   0.00    1.0
2020/04/05 03:01:00.000   2111993.8337   2235911.8171   5568911.8694   2   7   0.0015   0.0013   0.0012   0.0002   0.0006   0.0009   0.00    1.1
2020/04/05 03:01:30.000   2111993.8366   2235911.8180   5568911.8693   2   7   0.0015   0.0013   0.0012   0.0002   0.0006   0.0009   0.00    1.1
2020/04/05 03:02:00.000   2111993.8394   2235911.8189   5568911.8692   2   7   0.0015   0.0013   0.0012   0.0002   0.0006   0.0009   0.00    1.1
2020/04/05 03:02:30.000   2111993.8422   2235911.8198   5568911.8691   2   7   0.0015   0.0013   0.0012   0.0002   0.0006   0.0008   0.00    1.2
2020/04/05 03:03:00.000   2111993.8450   2235911.8206   5568911.8691   2   7   0.0015   0.0013   0.0012   0.0002   0.0006   0.0008   0.00    1.7
2020/04/05 03:03:30.000   2111993.8479   2235911.8215   5568911.8690   2   7   0.0015   0.0013   0.0012   0.0003   0.0006   0.0008   0.00    1.1
2020/04/05 03:04:00.000   2111993.8508   2235911.8224   5568911.8690   2   7   0.0015   0.0013   0.0012   0.0003   0.0006   0.0008   0.00    1.2
2020/04/05 03:04:30.000   2111993.8536   2235911.8233   5568911.8690   2   7   0.0015   0.0013   0.0012   0.0003   0.0006   0.0008   0.00    1.2
2020/04/05 03:05:00.000   2111993.8563   2235911.8242   5568911.8689   2   7   0.0015   0.0013   0.0012   0.0003   0.0006   0.0008   0.00    1.2
2020/04/05 03:05:30.000   2111993.8590   2235911.8251   5568911.8688   2   7   0.0015   0.0013   0.0012   0.0003   0.0006   0.0008   0.00    1.0
2020/04/05 03:06:00.000   2111993.8616   2235911.8260   5568911.8687   2   7   0.0015   0.0013   0.0012   0.0003   0.0006   0.0008   0.00    1.0
2020/04/05 03:06:30.000   2111993.8642   2235911.8271   5568911.8686   2   7   0.0015   0.0013   0.0012   0.0003   0.0006   0.0008   0.00    1.2
2020/04/05 03:07:00.000   2111993.8666   2235911.8281   5568911.8685   2   7   0.0015   0.0013   0.0012   0.0003   0.0006   0.0008   0.00    1.0
2020/04/05 03:07:30.000   2111993.8690   2235911.8292   5568911.8684   2   7   0.0015   0.0013   0.0012   0.0003   0.0006   0.0008   0.00    1.5
2020/04/05 03:08:00.000   2111993.8712   2235911.8303   5568911.8682   2   7   0.0015   0.0013   0.0012   0.0003   0.0006   0.0008   0.00    1.1
2020/04/05 03:08:30.000   2111993.8734   2235911.8314   5568911.8680   2   7   0.0015   0.0013   0.0012   0.0003   0.0006   0.0008   0.00    1.0
2020/04/05 03:09:00.000   2111993.8754   2235911.8325   5568911.8677   2   7   0.0015   0.0013   0.0012   0.0003   0.0006   0.0008   0.00    1.3
2020/04/05 03:09:30.000   2111993.8774   2235911.8336   5568911.8674   2   7   0.0015   0.0013   0.0012   0.0003   0.0006   0.0008   0.00    1.1
2020/04/05 03:10:00.000   2111993.8793   2235911.8348   5568911.8671   2   7   0.0015   0.0013   0.0012   0.0003   0.0006   0.0008   0.00    1.0
2020/04/05 03:10:30.000   2111993.8813   2235911.8359   5568911.8668   2   7   0.0014   0.0013   0.0011   0.0003   0.0006   0.0008   0.00    1.1
2020/04/05 03:11:00.000   2111993.8832   2235911.8371   5568911.8666   2   7   0.0014   0.0013   0.0011   0.0003   0.0006   0.0008   0.00    1.0
2020/04/05 03:11:30.000   2111993.8850   2235911.8383   5568911.8663   2   7   0.0014   0.0013   0.0011   0.0003   0.0006   0.0008   0.00    1.6
2020/04/05 03:12:00.000   2111993.8869   2235911.8395   5568911.8661   2   7   0.0014   0.0013   0.0011   0.0003   0.0006   0.0008   0.00    1.4
2020/04/05 03:12:30.000   2111993.8888   2235911.8406   5568911.8658   2   7   0.0014   0.0013   0.0011   0.0003   0.0006   0.0008   0.00    1.5
2020/04/05 03:13:00.000   2111993.8906   2235911.8418   5568911.8656   2   7   0.0014   0.0013   0.0011   0.0003   0.0006   0.0008   0.00    1.1
2020/04/05 03:13:30.000   2111993.8923   2235911.8429   5568911.8653   2   7   0.0014   0.0013   0.0011   0.0003   0.0006   0.0008   0.00    1.4
2020/04/05 03:14:00.000   2111993.8939   2235911.8441   5568911.8650   2   7   0.0014   0.0013   0.0011   0.0003   0.0006   0.0008   0.00    1.2
2020/04/05 03:14:30.000   2111993.8955   2235911.8452   5568911.8646   2   7   0.0014   0.0013   0.0011   0.0003   0.0006   0.0008   0.00    1.2
2020/04/05 03:15:00.000   2111993.8970   2235911.8464   5568911.8643   2   7   0.0014   0.0012   0.0011   0.0004   0.0006   0.0008   0.00    2.1
2020/04/05 03:15:30.000   2111993.8986   2235911.8477   5568911.8639   2   7   0.0014   0.0012   0.0011   0.0004   0.0006   0.0008   0.00    2.0
2020/04/05 03:16:00.000   2111993.9001   2235911.8491   5568911.8636   2   7   0.0014   0.0012   0.0011   0.0004   0.0006   0.0008   0.00    2.0
2020/04/05 03:16:30.000   2111993.9015   2235911.8505   5568911.8632   2   7   0.0014   0.0012   0.0011   0.0004   0.0006   0.0008   0.00    1.5
2020/04/05 03:17:00.000   2111993.9028   2235911.8518   5568911.8627   2   7   0.0014   0.0012   0.0011   0.0004   0.0006   0.0008   0.00    1.4
2020/04/05 03:17:30.000   2111993.9041   2235911.8530   5568911.8623   2   7   0.0014   0.0012   0.0011   0.0004   0.0006   0.0008   0.00    1.1
2020/04/05 03:18:00.000   2111993.9054   2235911.8544   5568911.8620   2   7   0.0014   0.0012   0.0011   0.0004   0.0006   0.0008   0.00    1.0
2020/04/05 03:18:30.000   2111993.9067   2235911.8556   5568911.8617   2   7   0.0014   0.0012   0.0011   0.0004   0.0006   0.0008   0.00    1.0
2020/04/05 03:19:00.000   2111993.9080   2235911.8569   5568911.8613   2   7   0.0014   0.0012   0.0011   0.0004   0.0006   0.0008   0.00    1.7
2020/04/05 03:19:30.000   2111993.9092   2235911.8582   5568911.8610   2   7   0.0014   0.0012   0.0011   0.0004   0.0006   0.0008   0.00    1.7
2020/04/05 03:20:00.000   2111993.9105   2235911.8595   5568911.8607   2   7   0.0014   0.0012   0.0011   0.0004   0.0006   0.0008   0.00    1.0
2020/04/05 03:20:30.000   2111993.9105   2235911.8614   5568911.8612   2   6   0.0014   0.0012   0.0011   0.0004   0.0006   0.0008   0.00    1.6
2020/04/05 03:21:00.000   2111993.9105   2235911.8633   5568911.8617   2   6   0.0014   0.0012   0.0011   0.0004   0.0006   0.0008   0.00    1.5
2020/04/05 03:21:30.000   2111993.9105   2235911.8651   5568911.8622   2   6   0.0014   0.0012   0.0011   0.0004   0.0006   0.0008   0.00    1.5
