% program   : RTKPOST ver.demo5 b34g
% inp file  : C:\Users\89231\Documents\Учеба\Диссертация\RTKLIB\Файлы\05.04.2020\mobj0960.20o
% inp file  : C:\Users\89231\Documents\Учеба\Диссертация\RTKLIB\Файлы\05.04.2020\samr0960.20o
% inp file  : C:\Users\89231\Documents\Учеба\Диссертация\RTKLIB\Файлы\05.04.2020\kotl0960.20n
% inp file  : C:\Users\89231\Documents\Учеба\Диссертация\RTKLIB\Файлы\05.04.2020\igs21000.sp3
% inp file  : C:\Users\89231\Documents\Учеба\Диссертация\RTKLIB\Файлы\05.04.2020\igs21000.clk_30s
% obs start : 2020/04/05 00:00:00.0 GPST (week2100      0.0s)
% obs end   : 2020/04/05 23:59:30.0 GPST (week2100  86370.0s)
% pos mode  : Static
% freqs     : L1+L2/E5b
% solution  : Forward
% elev mask : 15.0 deg
% dynamics  : on
% tidecorr  : off
% ionos opt : Broadcast
% tropo opt : Saastamoinen
% ephemeris : Precise
% navi sys  : GPS
% amb res   : Fix and Hold
% val thres : 3.0
% antenna1  :                       ( 0.0000  0.0000  0.0000)
% antenna2  :                       ( 0.0000  0.0000  0.0000)
% ref pos   :  2447583.1969   2941190.6110   5085909.6413
%
% (x/y/z-ecef=WGS84,Q=1:fix,2:float,3:sbas,4:dgps,5:single,6:ppp,ns=# of satellites)
%  GPST                      x-ecef(m)      y-ecef(m)      z-ecef(m)   Q  ns   sdx(m)   sdy(m)   sdz(m)  sdxy(m)  sdyz(m)  sdzx(m) age(s)  ratio
2020/04/05 00:00:00.000   2936423.8482   2178373.9458   5208856.1364   2   7   1.8526   1.7029   2.8026   1.3200   1.0292   1.6740   0.00    0.0
2020/04/05 00:00:30.000   2936424.2745   2178374.0209   5208857.4951   2   6   1.0695   0.9858   1.0307   0.6496   0.5549   0.6855   0.00    0.0
2020/04/05 00:01:00.000   2936424.1688   2178373.9284   5208856.6939   2   6   0.7513   0.6015   0.5634   0.2987   0.3228   0.3859   0.00    0.0
2020/04/05 00:01:30.000   2936424.2854   2178374.0615   5208857.0362   2   6   0.5829   0.4110   0.3661   0.1036   0.2121   0.2553   0.00    0.0
2020/04/05 00:02:00.000   2936424.5727   2178374.1784   5208857.2276   2   6   0.4743   0.3040   0.2620  -0.0950   0.1517   0.1856   0.00    0.0
2020/04/05 00:02:30.000   2936424.5188   2178374.2297   5208857.0920   2   6   0.3967   0.2371   0.1993  -0.1142   0.1149   0.1434   0.00    1.1
2020/04/05 00:03:00.000   2936424.5289   2178374.1219   5208856.9408   2   6   0.3380   0.1918   0.1582  -0.1122   0.0908   0.1154   0.00    1.0
2020/04/05 00:03:30.000   2936424.6436   2178374.1199   5208856.9008   2   6   0.2923   0.1595   0.1296  -0.1048   0.0739   0.0957   0.00    1.1
2020/04/05 00:04:00.000   2936424.6049   2178374.1012   5208856.8711   2   6   0.2557   0.1354   0.1086  -0.0962   0.0616   0.0812   0.00    1.1
2020/04/05 00:04:30.000   2936424.6907   2178374.1055   5208856.8640   2   6   0.2261   0.1168   0.0928  -0.0879   0.0524   0.0701   0.00    1.2
2020/04/05 00:05:00.000   2936424.6095   2178374.1048   5208856.8764   2   6   0.2017   0.1022   0.0805  -0.0802   0.0452   0.0614   0.00    1.7
2020/04/05 00:05:30.000   2936424.5583   2178374.1196   5208856.8879   2   6   0.1813   0.0904   0.0707  -0.0734   0.0395   0.0544   0.00    1.2
2020/04/05 00:06:00.000   2936424.4969   2178374.1334   5208856.9082   2   6   0.1641   0.0807   0.0627  -0.0674   0.0349   0.0487   0.00    1.6
2020/04/05 00:06:30.000   2936424.4674   2178374.1264   5208856.8911   2   6   0.1495   0.0726   0.0562  -0.0621   0.0311   0.0440   0.00    1.1
2020/04/05 00:07:00.000   2936424.4940   2178374.1235   5208856.9068   2   6   0.1370   0.0658   0.0507  -0.0574   0.0279   0.0400   0.00    1.6
2020/04/05 00:07:30.000   2936424.5020   2178374.1418   5208856.9244   2   6   0.1262   0.0601   0.0461  -0.0533   0.0253   0.0366   0.00    1.6
2020/04/05 00:08:00.000   2936424.4779   2178374.1286   5208856.9002   2   6   0.1167   0.0551   0.0421  -0.0496   0.0230   0.0337   0.00    1.5
2020/04/05 00:08:30.000   2936424.4577   2178374.1290   5208856.9164   2   6   0.1084   0.0508   0.0387  -0.0464   0.0210   0.0312   0.00    1.5
2020/04/05 00:09:00.000   2936424.4393   2178374.1141   5208856.9073   2   6   0.1011   0.0470   0.0357  -0.0435   0.0193   0.0290   0.00    1.4
2020/04/05 00:09:30.000   2936424.4335   2178374.1087   5208856.9124   2   6   0.0946   0.0437   0.0331  -0.0409   0.0178   0.0271   0.00    1.4
2020/04/05 00:10:00.000   2936424.3775   2178374.0964   5208856.9027   2   6   0.0888   0.0408   0.0308  -0.0385   0.0165   0.0254   0.00    1.3
2020/04/05 00:10:30.000   2936424.3653   2178374.0756   5208856.8981   2   6   0.0836   0.0382   0.0288  -0.0364   0.0153   0.0238   0.00    1.2
2020/04/05 00:11:00.000   2936424.3057   2178374.0561   5208856.8899   2   6   0.0789   0.0358   0.0269  -0.0345   0.0143   0.0225   0.00    1.0
2020/04/05 00:11:30.000   2936424.2683   2178374.0357   5208856.8904   2   6   0.0747   0.0337   0.0253  -0.0328   0.0134   0.0213   0.00    1.1
2020/04/05 00:12:00.000   2936424.2338   2178374.0205   5208856.8870   2   6   0.0709   0.0318   0.0238  -0.0312   0.0125   0.0202   0.00    1.1
2020/04/05 00:12:30.000   2936424.1984   2178374.0156   5208856.8889   2   6   0.0674   0.0301   0.0225  -0.0297   0.0118   0.0192   0.00    1.1
2020/04/05 00:13:00.000   2936424.1639   2178374.0080   5208856.8836   2   6   0.0642   0.0286   0.0213  -0.0284   0.0111   0.0182   0.00    1.1
2020/04/05 00:13:30.000   2936424.1421   2178374.0132   5208856.8849   2   6   0.0613   0.0271   0.0202  -0.0272   0.0104   0.0174   0.00    1.2
2020/04/05 00:14:00.000   2936424.1098   2178374.0101   5208856.8819   2   6   0.0586   0.0258   0.0192  -0.0261   0.0099   0.0167   0.00    1.0
2020/04/05 00:14:30.000   2936424.0746   2178374.0175   5208856.8817   2   6   0.0562   0.0246   0.0183  -0.0251   0.0093   0.0160   0.00    1.1
2020/04/05 00:15:00.000   2936424.0360   2178374.0191   5208856.8772   2   6   0.0539   0.0235   0.0174  -0.0241   0.0089   0.0153   0.00    1.0
2020/04/05 00:15:30.000   2936423.9898   2178374.0273   5208856.8759   2   6   0.0518   0.0225   0.0166  -0.0232   0.0084   0.0147   0.00    1.4
2020/04/05 00:16:00.000   2936423.9490   2178374.0301   5208856.8660   2   6   0.0498   0.0216   0.0159  -0.0224   0.0080   0.0142   0.00    1.0
2020/04/05 00:16:30.000   2936423.9141   2178374.0315   5208856.8626   2   6   0.0480   0.0207   0.0152  -0.0216   0.0076   0.0137   0.00    1.4
2020/04/05 00:17:00.000   2936423.8927   2178374.0302   5208856.8649   2   6   0.0463   0.0199   0.0146  -0.0209   0.0072   0.0132   0.00    1.0
2020/04/05 00:17:30.000   2936423.8633   2178374.0244   5208856.8589   2   6   0.0447   0.0192   0.0140  -0.0202   0.0069   0.0128   0.00    1.1
2020/04/05 00:18:00.000   2936423.8315   2178374.0199   5208856.8580   2   6   0.0432   0.0185   0.0135  -0.0196   0.0066   0.0124   0.00    1.0
2020/04/05 00:18:30.000   2936423.7980   2178374.0178   5208856.8540   2   6   0.0419   0.0178   0.0130  -0.0190   0.0063   0.0120   0.00    1.1
2020/04/05 00:19:00.000   2936423.7787   2178374.0096   5208856.8531   2   6   0.0406   0.0172   0.0125  -0.0185   0.0060   0.0116   0.00    1.1
2020/04/05 00:19:30.000   2936423.7647   2178374.0013   5208856.8534   2   6   0.0393   0.0166   0.0121  -0.0180   0.0058   0.0113   0.00    1.0
2020/04/05 00:20:00.000   2936423.7553   2178373.9924   5208856.8531   2   6   0.0382   0.0161   0.0117  -0.0175   0.0055   0.0110   0.00    1.0
2020/04/05 00:20:30.000   2936423.7479   2178373.9843   5208856.8529   2   6   0.0371   0.0156   0.0113  -0.0170   0.0053   0.0107   0.00    1.0
2020/04/05 00:21:00.000   2936423.7412   2178373.9768   5208856.8514   2   6   0.0361   0.0151   0.0109  -0.0166   0.0051   0.0104   0.00    1.5
2020/04/05 00:21:30.000   2936423.7344   2178373.9685   5208856.8499   2   6   0.0351   0.0146   0.0106  -0.0162   0.0049   0.0102   0.00    1.1
2020/04/05 00:22:00.000   2936423.7205   2178373.9614   5208856.8447   2   6   0.0342   0.0142   0.0102  -0.0158   0.0047   0.0099   0.00    2.2
2020/04/05 00:22:30.000   2936423.7216   2178373.9525   5208856.8423   2   6   0.0334   0.0138   0.0099  -0.0154   0.0045   0.0097   0.00    2.2
2020/04/05 00:23:00.000   2936423.7215   2178373.9420   5208856.8385   2   6   0.0326   0.0134   0.0096  -0.0151   0.0043   0.0095   0.00    2.3
2020/04/05 00:23:30.000   2936423.7153   2178373.9332   5208856.8356   2   6   0.0318   0.0131   0.0094  -0.0148   0.0041   0.0093   0.00    2.3
2020/04/05 00:24:00.000   2936423.7219   2178373.9234   5208856.8371   2   6   0.0311   0.0127   0.0091  -0.0144   0.0040   0.0091   0.00    2.4
2020/04/05 00:24:30.000   2936423.7202   2178373.9158   5208856.8356   2   6   0.0304   0.0124   0.0089  -0.0142   0.0038   0.0089   0.00    2.4
2020/04/05 00:25:00.000   2936423.7174   2178373.9098   5208856.8350   2   6   0.0297   0.0121   0.0086  -0.0139   0.0036   0.0087   0.00    2.5
2020/04/05 00:25:30.000   2936423.7143   2178373.9030   5208856.8314   2   6   0.0291   0.0118   0.0084  -0.0136   0.0035   0.0085   0.00    2.5
2020/04/05 00:26:00.000   2936423.7122   2178373.8935   5208856.8278   2   6   0.0285   0.0115   0.0082  -0.0133   0.0034   0.0084   0.00    2.6
2020/04/05 00:26:30.000   2936423.7107   2178373.8859   5208856.8266   2   6   0.0279   0.0113   0.0080  -0.0131   0.0032   0.0082   0.00    2.6
2020/04/05 00:27:00.000   2936423.7080   2178373.8787   5208856.8231   2   6   0.0273   0.0110   0.0078  -0.0129   0.0031   0.0081   0.00    1.3
2020/04/05 00:27:30.000   2936423.7084   2178373.8706   5208856.8188   2   6   0.0268   0.0108   0.0076  -0.0126   0.0030   0.0080   0.00    2.7
2020/04/05 00:28:00.000   2936423.7102   2178373.8628   5208856.8145   2   6   0.0263   0.0105   0.0074  -0.0124   0.0029   0.0078   0.00    2.7
2020/04/05 00:28:30.000   2936423.7231   2178373.8535   5208856.8106   2   6   0.0259   0.0103   0.0072  -0.0122   0.0027   0.0077   0.00    2.6
2020/04/05 00:29:00.000   2936423.7413   2178373.8436   5208856.8083   2   6   0.0254   0.0101   0.0071  -0.0120   0.0026   0.0076   0.00    2.6
2020/04/05 00:29:30.000   2936423.7603   2178373.8351   5208856.8077   2   6   0.0250   0.0099   0.0069  -0.0119   0.0025   0.0075   0.00    2.7
2020/04/05 00:30:00.000   2936423.7811   2178373.8251   5208856.8047   2   6   0.0245   0.0097   0.0068  -0.0117   0.0024   0.0074   0.00    2.6
2020/04/05 00:30:30.000   2936423.7934   2178373.8175   5208856.8006   2   6   0.0241   0.0095   0.0066  -0.0115   0.0023   0.0073   0.00    2.5
2020/04/05 00:31:00.000   2936423.7991   2178373.8105   5208856.7970   2   6   0.0238   0.0093   0.0065  -0.0113   0.0022   0.0072   0.00    2.5
2020/04/05 00:31:30.000   2936423.8044   2178373.8051   5208856.7950   2   6   0.0234   0.0092   0.0064  -0.0112   0.0021   0.0071   0.00    2.4
2020/04/05 00:32:00.000   2936423.8032   2178373.8032   5208856.7951   2   6   0.0230   0.0090   0.0063  -0.0110   0.0020   0.0070   0.00    2.5
2020/04/05 00:32:30.000   2936423.8012   2178373.7999   5208856.7934   2   6   0.0227   0.0089   0.0061  -0.0109   0.0019   0.0069   0.00    1.2
2020/04/05 00:33:00.000   2936423.8015   2178373.7957   5208856.7916   2   6   0.0224   0.0087   0.0060  -0.0108   0.0018   0.0068   0.00    2.4
2020/04/05 00:33:30.000   2936423.8046   2178373.7909   5208856.7900   2   6   0.0221   0.0086   0.0059  -0.0106   0.0017   0.0068   0.00    2.4
2020/04/05 00:34:00.000   2936423.8077   2178373.7859   5208856.7874   2   6   0.0217   0.0084   0.0058  -0.0105   0.0016   0.0067   0.00    2.4
2020/04/05 00:34:30.000   2936423.8147   2178373.7801   5208856.7875   2   6   0.0215   0.0083   0.0057  -0.0104   0.0015   0.0066   0.00    2.4
2020/04/05 00:35:00.000   2936423.8167   2178373.7751   5208856.7855   2   6   0.0212   0.0082   0.0056  -0.0102   0.0014   0.0066   0.00    2.4
2020/04/05 00:35:30.000   2936423.8206   2178373.7707   5208856.7853   2   6   0.0209   0.0080   0.0055  -0.0101   0.0013   0.0065   0.00    2.4
2020/04/05 00:36:00.000   2936423.8338   2178373.7659   5208856.7854   2   6   0.0207   0.0079   0.0054  -0.0100   0.0011   0.0064   0.00    2.3
2020/04/05 00:36:30.000   2936423.8523   2178373.7591   5208856.7864   2   6   0.0204   0.0078   0.0053  -0.0099   0.0010   0.0064   0.00    2.3
2020/04/05 00:37:00.000   2936423.8751   2178373.7508   5208856.7874   2   6   0.0202   0.0077   0.0052  -0.0098   0.0009   0.0063   0.00    2.3
2020/04/05 00:37:30.000   2936423.8991   2178373.7428   5208856.7887   2   6   0.0199   0.0076   0.0052  -0.0097   0.0008   0.0063   0.00    2.3
2020/04/05 00:38:00.000   2936423.9291   2178373.7313   5208856.7892   2   6   0.0197   0.0075   0.0051  -0.0096   0.0006   0.0062   0.00    1.1
2020/04/05 00:38:30.000   2936423.9625   2178373.7186   5208856.7892   2   6   0.0195   0.0074   0.0050  -0.0095   0.0004   0.0062   0.00    2.3
2020/04/05 00:39:00.000   2936423.9948   2178373.7068   5208856.7890   2   6   0.0193   0.0073   0.0049  -0.0094  -0.0002   0.0061   0.00    2.2
2020/04/05 00:39:30.000   2936424.0305   2178373.6937   5208856.7890   2   6   0.0191   0.0072   0.0049  -0.0094  -0.0005   0.0061   0.00    2.2
2020/04/05 00:40:00.000   2936424.0669   2178373.6810   5208856.7903   2   6   0.0189   0.0071   0.0048  -0.0093  -0.0007   0.0060   0.00    2.1
2020/04/05 00:40:30.000   2936424.1001   2178373.6707   5208856.7919   2   6   0.0187   0.0070   0.0047  -0.0092  -0.0008   0.0060   0.00    2.1
2020/04/05 00:41:00.000   2936424.1327   2178373.6606   5208856.7924   2   6   0.0185   0.0069   0.0047  -0.0091  -0.0009   0.0060   0.00    2.0
2020/04/05 00:41:30.000   2936424.1620   2178373.6519   5208856.7937   2   6   0.0183   0.0069   0.0046  -0.0090  -0.0010   0.0059   0.00    2.0
2020/04/05 00:42:00.000   2936424.1875   2178373.6446   5208856.7960   2   6   0.0182   0.0068   0.0045  -0.0090  -0.0011   0.0059   0.00    2.0
2020/04/05 00:42:30.000   2936424.2150   2178373.6378   5208856.7982   2   6   0.0180   0.0067   0.0045  -0.0089  -0.0011   0.0059   0.00    1.9
2020/04/05 00:43:00.000   2936424.2410   2178373.6320   5208856.8012   2   6   0.0178   0.0066   0.0044  -0.0088  -0.0012   0.0058   0.00    1.9
2020/04/05 00:43:30.000   2936424.2633   2178373.6266   5208856.8037   2   6   0.0177   0.0066   0.0044  -0.0088  -0.0012   0.0058   0.00    1.2
2020/04/05 00:44:00.000   2936424.2878   2178373.6208   5208856.8068   2   6   0.0175   0.0065   0.0043  -0.0087  -0.0013   0.0058   0.00    1.9
2020/04/05 00:44:30.000   2936424.3114   2178373.6155   5208856.8098   2   6   0.0174   0.0064   0.0043  -0.0087  -0.0013   0.0057   0.00    1.9
2020/04/05 00:45:00.000   2936424.3374   2178373.6079   5208856.8122   2   6   0.0173   0.0064   0.0042  -0.0086  -0.0014   0.0057   0.00    1.8
2020/04/05 00:45:30.000   2936424.3672   2178373.5994   5208856.8145   2   6   0.0171   0.0063   0.0042  -0.0085  -0.0014   0.0057   0.00    1.8
2020/04/05 00:46:00.000   2936424.3936   2178373.5919   5208856.8173   2   6   0.0170   0.0063   0.0041  -0.0085  -0.0015   0.0057   0.00    1.7
2020/04/05 00:46:30.000   2936424.4209   2178373.5846   5208856.8206   2   6   0.0169   0.0062   0.0041  -0.0084  -0.0015   0.0057   0.00    1.6
2020/04/05 00:47:00.000   2936424.4350   2178373.5792   5208856.8208   2   6   0.0168   0.0061   0.0041  -0.0084  -0.0016   0.0057   0.00    1.0
2020/04/05 00:47:30.000   2936424.4475   2178373.5746   5208856.8217   2   6   0.0167   0.0061   0.0040  -0.0084  -0.0016   0.0057   0.00    1.0
2020/04/05 00:48:00.000   2936424.4624   2178373.5695   5208856.8226   2   6   0.0166   0.0060   0.0040  -0.0083  -0.0017   0.0057   0.00    1.0
2020/04/05 00:48:30.000   2936424.4755   2178373.5654   5208856.8240   2   6   0.0166   0.0060   0.0040  -0.0083  -0.0017   0.0057   0.00    1.0
2020/04/05 00:49:00.000   2936424.4881   2178373.5609   5208856.8249   2   6   0.0165   0.0059   0.0040  -0.0083  -0.0018   0.0057   0.00    1.0
2020/04/05 00:49:30.000   2936424.5009   2178373.5572   5208856.8263   2   6   0.0165   0.0059   0.0039  -0.0082  -0.0018   0.0057   0.00    1.1
2020/04/05 00:50:00.000   2936424.5136   2178373.5533   5208856.8274   2   6   0.0164   0.0059   0.0039  -0.0082  -0.0018   0.0058   0.00    1.0
2020/04/05 00:50:30.000   2936424.5279   2178373.5489   5208856.8285   2   6   0.0163   0.0058   0.0039  -0.0082  -0.0019   0.0058   0.00    1.0
2020/04/05 00:51:00.000   2936424.5408   2178373.5455   5208856.8298   2   6   0.0163   0.0058   0.0039  -0.0081  -0.0019   0.0058   0.00    1.0
2020/04/05 00:51:30.000   2936424.5567   2178373.5410   5208856.8307   2   6   0.0162   0.0057   0.0038  -0.0081  -0.0019   0.0058   0.00    1.1
2020/04/05 00:52:00.000   2936424.5700   2178373.5377   5208856.8317   2   6   0.0162   0.0057   0.0038  -0.0081  -0.0020   0.0058   0.00    1.0
2020/04/05 00:52:30.000   2936424.5840   2178373.5340   5208856.8320   2   5   0.0161   0.0057   0.0038  -0.0081  -0.0020   0.0058   0.00    2.2
2020/04/05 00:53:00.000   2936424.5972   2178373.5311   5208856.8323   2   5   0.0160   0.0056   0.0038  -0.0080  -0.0020   0.0058   0.00    2.2
2020/04/05 00:53:30.000   2936424.6106   2178373.5286   5208856.8336   2   5   0.0160   0.0056   0.0038  -0.0080  -0.0021   0.0058   0.00    2.2
2020/04/05 00:54:00.000   2936424.6233   2178373.5256   5208856.8339   2   5   0.0159   0.0055   0.0037  -0.0080  -0.0021   0.0058   0.00    2.2
2020/04/05 00:54:30.000   2936424.6352   2178373.5234   5208856.8339   2   5   0.0159   0.0055   0.0037  -0.0080  -0.0021   0.0058   0.00    2.2
2020/04/05 00:55:00.000   2936424.6476   2178373.5206   5208856.8336   2   5   0.0158   0.0055   0.0037  -0.0079  -0.0021   0.0059   0.00    2.1
2020/04/05 00:55:30.000   2936424.6635   2178373.5170   5208856.8337   2   5   0.0158   0.0054   0.0037  -0.0079  -0.0022   0.0059   0.00    2.1
2020/04/05 00:56:00.000   2936424.6803   2178373.5130   5208856.8332   2   5   0.0157   0.0054   0.0037  -0.0079  -0.0022   0.0059   0.00    2.1
2020/04/05 00:56:30.000   2936424.6952   2178373.5097   5208856.8328   2   5   0.0157   0.0054   0.0037  -0.0079  -0.0022   0.0059   0.00    2.1
2020/04/05 00:57:00.000   2936424.7091   2178373.5073   5208856.8329   2   5   0.0156   0.0054   0.0037  -0.0078  -0.0022   0.0059   0.00    2.1
2020/04/05 00:57:30.000   2936424.7210   2178373.5055   5208856.8329   2   5   0.0156   0.0053   0.0036  -0.0078  -0.0023   0.0059   0.00    1.0
2020/04/05 00:58:00.000   2936424.7344   2178373.5031   5208856.8328   2   5   0.0155   0.0053   0.0036  -0.0078  -0.0023   0.0059   0.00    1.0
2020/04/05 00:58:30.000   2936424.7497   2178373.5002   5208856.8325   2   5   0.0155   0.0053   0.0036  -0.0078  -0.0023   0.0059   0.00    1.0
2020/04/05 00:59:00.000   2936424.7655   2178373.4976   5208856.8324   2   5   0.0154   0.0052   0.0036  -0.0078  -0.0023   0.0059   0.00    1.0
2020/04/05 00:59:30.000   2936424.7837   2178373.4938   5208856.8317   2   5   0.0154   0.0052   0.0036  -0.0078  -0.0023   0.0059   0.00    1.0
2020/04/05 01:00:00.000   2936424.8017   2178373.4903   5208856.8316   2   5   0.0154   0.0052   0.0036  -0.0077  -0.0024   0.0059   0.00    1.0
2020/04/05 01:00:30.000   2936424.8192   2178373.4869   5208856.8311   2   5   0.0153   0.0052   0.0036  -0.0077  -0.0024   0.0059   0.00    1.0
2020/04/05 01:01:00.000   2936424.8344   2178373.4844   5208856.8307   2   5   0.0153   0.0052   0.0036  -0.0077  -0.0024   0.0059   0.00    1.0
2020/04/05 01:01:30.000   2936424.8495   2178373.4820   5208856.8307   2   5   0.0152   0.0051   0.0035  -0.0077  -0.0024   0.0060   0.00    1.0
2020/04/05 01:02:00.000   2936424.8633   2178373.4795   5208856.8304   2   5   0.0152   0.0051   0.0035  -0.0077  -0.0024   0.0060   0.00    1.0
2020/04/05 01:02:30.000   2936424.8770   2178373.4770   5208856.8302   2   5   0.0151   0.0051   0.0035  -0.0076  -0.0025   0.0060   0.00    1.0
2020/04/05 01:03:00.000   2936424.8910   2178373.4742   5208856.8299   2   5   0.0151   0.0051   0.0035  -0.0076  -0.0025   0.0060   0.00    1.0
2020/04/05 01:03:30.000   2936424.9051   2178373.4717   5208856.8297   2   6   0.0150   0.0050   0.0035  -0.0076  -0.0025   0.0060   0.00    1.0
2020/04/05 01:04:00.000   2936424.9182   2178373.4693   5208856.8294   2   6   0.0150   0.0050   0.0035  -0.0076  -0.0025   0.0060   0.00    1.0
2020/04/05 01:04:30.000   2936424.9326   2178373.4661   5208856.8287   2   6   0.0150   0.0050   0.0035  -0.0076  -0.0025   0.0060   0.00    1.0
2020/04/05 01:05:00.000   2936424.9427   2178373.4654   5208856.8288   2   5   0.0149   0.0050   0.0035  -0.0076  -0.0025   0.0060   0.00    1.1
2020/04/05 01:05:30.000   2936424.9515   2178373.4647   5208856.8289   2   5   0.0149   0.0050   0.0035  -0.0076  -0.0025   0.0060   0.00    1.1
2020/04/05 01:06:00.000   2936424.9605   2178373.4637   5208856.8289   2   5   0.0149   0.0050   0.0035  -0.0076  -0.0026   0.0060   0.00    1.1
2020/04/05 01:06:30.000   2936424.9703   2178373.4629   5208856.8290   2   5   0.0149   0.0050   0.0035  -0.0076  -0.0026   0.0060   0.00    1.1
2020/04/05 01:07:00.000   2936424.9802   2178373.4615   5208856.8289   2   5   0.0148   0.0050   0.0035  -0.0076  -0.0026   0.0060   0.00    1.1
2020/04/05 01:07:30.000   2936424.9904   2178373.4600   5208856.8288   2   5   0.0148   0.0049   0.0035  -0.0076  -0.0026   0.0060   0.00    1.2
2020/04/05 01:08:00.000   2936425.0007   2178373.4583   5208856.8285   2   5   0.0148   0.0049   0.0034  -0.0076  -0.0026   0.0060   0.00    1.2
2020/04/05 01:08:30.000   2936425.0116   2178373.4567   5208856.8282   2   5   0.0147   0.0049   0.0034  -0.0075  -0.0026   0.0060   0.00    1.2
2020/04/05 01:09:00.000   2936425.0223   2178373.4546   5208856.8278   2   5   0.0147   0.0049   0.0034  -0.0075  -0.0026   0.0060   0.00    1.3
2020/04/05 01:09:30.000   2936425.0328   2178373.4528   5208856.8273   2   5   0.0147   0.0049   0.0034  -0.0075  -0.0026   0.0060   0.00    1.3
2020/04/05 01:10:00.000   2936425.0443   2178373.4506   5208856.8267   2   5   0.0146   0.0049   0.0034  -0.0075  -0.0026   0.0060   0.00    1.3
2020/04/05 01:10:30.000   2936425.0552   2178373.4487   5208856.8261   2   5   0.0146   0.0049   0.0034  -0.0075  -0.0027   0.0060   0.00    1.3
2020/04/05 01:11:00.000   2936425.0664   2178373.4465   5208856.8253   2   5   0.0145   0.0049   0.0034  -0.0075  -0.0027   0.0060   0.00    1.3
2020/04/05 01:11:30.000   2936425.0776   2178373.4440   5208856.8242   2   5   0.0145   0.0048   0.0034  -0.0075  -0.0027   0.0060   0.00    1.3
2020/04/05 01:12:00.000   2936425.0879   2178373.4419   5208856.8232   2   5   0.0144   0.0048   0.0034  -0.0075  -0.0027   0.0060   0.00    1.3
2020/04/05 01:12:30.000   2936425.0977   2178373.4400   5208856.8223   2   5   0.0144   0.0048   0.0034  -0.0074  -0.0027   0.0060   0.00    1.3
2020/04/05 01:13:00.000   2936425.1063   2178373.4382   5208856.8213   2   5   0.0144   0.0048   0.0034  -0.0074  -0.0027   0.0060   0.00    1.3
2020/04/05 01:13:30.000   2936425.1157   2178373.4365   5208856.8202   2   6   0.0143   0.0048   0.0034  -0.0074  -0.0027   0.0060   0.00    1.0
2020/04/05 01:14:00.000   2936425.1227   2178373.4353   5208856.8189   2   6   0.0143   0.0048   0.0034  -0.0074  -0.0027   0.0060   0.00    1.1
2020/04/05 01:14:30.000   2936425.1285   2178373.4343   5208856.8175   2   6   0.0142   0.0048   0.0034  -0.0074  -0.0027   0.0060   0.00    1.0
2020/04/05 01:15:00.000   2936425.1344   2178373.4332   5208856.8159   2   6   0.0141   0.0047   0.0034  -0.0073  -0.0027   0.0060   0.00    1.1
2020/04/05 01:15:30.000   2936425.1391   2178373.4323   5208856.8141   2   6   0.0141   0.0047   0.0034  -0.0073  -0.0027   0.0060   0.00    1.0
2020/04/05 01:16:00.000   2936425.1441   2178373.4316   5208856.8123   2   7   0.0140   0.0047   0.0034  -0.0073  -0.0027   0.0060   0.00    1.0
2020/04/05 01:16:30.000   2936425.1469   2178373.4314   5208856.8104   2   7   0.0140   0.0047   0.0034  -0.0073  -0.0027   0.0059   0.00    1.0
2020/04/05 01:17:00.000   2936425.1496   2178373.4316   5208856.8085   2   7   0.0139   0.0047   0.0034  -0.0072  -0.0027   0.0059   0.00    1.0
2020/04/05 01:17:30.000   2936425.1498   2178373.4322   5208856.8061   2   7   0.0138   0.0046   0.0033  -0.0072  -0.0027   0.0059   0.00    1.1
2020/04/05 01:18:00.000   2936425.1484   2178373.4332   5208856.8033   2   7   0.0137   0.0046   0.0033  -0.0072  -0.0027   0.0059   0.00    1.0
2020/04/05 01:18:30.000   2936425.1459   2178373.4348   5208856.8007   2   7   0.0137   0.0046   0.0033  -0.0071  -0.0027   0.0059   0.00    1.2
2020/04/05 01:19:00.000   2936425.1428   2178373.4364   5208856.7980   2   7   0.0136   0.0046   0.0033  -0.0071  -0.0027   0.0059   0.00    1.2
2020/04/05 01:19:30.000   2936425.1372   2178373.4390   5208856.7950   2   7   0.0135   0.0045   0.0033  -0.0070  -0.0027   0.0058   0.00    1.1
2020/04/05 01:20:00.000   2936425.1304   2178373.4417   5208856.7914   2   7   0.0134   0.0045   0.0033  -0.0070  -0.0027   0.0058   0.00    1.2
2020/04/05 01:20:30.000   2936425.1235   2178373.4447   5208856.7880   2   7   0.0133   0.0045   0.0033  -0.0069  -0.0027   0.0058   0.00    1.2
2020/04/05 01:21:00.000   2936425.1147   2178373.4480   5208856.7841   2   7   0.0132   0.0045   0.0033  -0.0069  -0.0027   0.0058   0.00    1.1
2020/04/05 01:21:30.000   2936425.1069   2178373.4513   5208856.7805   2   7   0.0131   0.0044   0.0033  -0.0068  -0.0026   0.0057   0.00    1.0
2020/04/05 01:22:00.000   2936425.0980   2178373.4550   5208856.7767   2   7   0.0129   0.0044   0.0032  -0.0068  -0.0026   0.0057   0.00    1.3
2020/04/05 01:22:30.000   2936425.0848   2178373.4597   5208856.7721   2   7   0.0128   0.0044   0.0032  -0.0067  -0.0026   0.0056   0.00    1.0
2020/04/05 01:23:00.000   2936425.0699   2178373.4650   5208856.7673   2   7   0.0127   0.0043   0.0032  -0.0066  -0.0026   0.0056   0.00    1.1
2020/04/05 01:23:30.000   2936425.0518   2178373.4712   5208856.7620   2   7   0.0126   0.0043   0.0032  -0.0066  -0.0026   0.0056   0.00    1.0
2020/04/05 01:24:00.000   2936425.0349   2178373.4770   5208856.7569   2   7   0.0124   0.0043   0.0032  -0.0065  -0.0025   0.0055   0.00    1.1
2020/04/05 01:24:30.000   2936425.0161   2178373.4835   5208856.7515   2   7   0.0123   0.0042   0.0032  -0.0064  -0.0025   0.0055   0.00    1.1
2020/04/05 01:25:00.000   2936424.9956   2178373.4903   5208856.7457   2   7   0.0121   0.0042   0.0032  -0.0063  -0.0025   0.0054   0.00    1.4
2020/04/05 01:25:30.000   2936424.9725   2178373.4981   5208856.7395   2   7   0.0120   0.0041   0.0031  -0.0063  -0.0025   0.0054   0.00    1.2
2020/04/05 01:26:00.000   2936424.9501   2178373.5054   5208856.7334   2   7   0.0118   0.0041   0.0031  -0.0062  -0.0024   0.0053   0.00    1.1
2020/04/05 01:26:30.000   2936424.9238   2178373.5141   5208856.7266   2   7   0.0117   0.0041   0.0031  -0.0061  -0.0024   0.0053   0.00    1.4
2020/04/05 01:27:00.000   2936424.8964   2178373.5233   5208856.7196   2   7   0.0115   0.0040   0.0031  -0.0060  -0.0024   0.0052   0.00    1.0
2020/04/05 01:27:30.000   2936424.8660   2178373.5337   5208856.7121   2   7   0.0114   0.0040   0.0030  -0.0059  -0.0024   0.0052   0.00    1.9
2020/04/05 01:28:00.000   2936424.8370   2178373.5439   5208856.7050   2   7   0.0112   0.0039   0.0030  -0.0059  -0.0023   0.0051   0.00    1.5
2020/04/05 01:28:30.000   2936424.8055   2178373.5549   5208856.6973   2   7   0.0111   0.0039   0.0030  -0.0058  -0.0023   0.0050   0.00    1.9
2020/04/05 01:29:00.000   2936424.7721   2178373.5667   5208856.6891   2   7   0.0109   0.0039   0.0030  -0.0057  -0.0023   0.0050   0.00    2.3
2020/04/05 01:29:30.000   2936424.7384   2178373.5788   5208856.6811   2   7   0.0107   0.0038   0.0030  -0.0056  -0.0022   0.0049   0.00    1.8
2020/04/05 01:30:00.000   2936424.7061   2178373.5905   5208856.6733   2   7   0.0106   0.0038   0.0029  -0.0055  -0.0022   0.0049   0.00    1.2
2020/04/05 01:30:30.000   2936424.6730   2178373.6027   5208856.6656   2   7   0.0104   0.0037   0.0029  -0.0054  -0.0022   0.0048   0.00    1.7
2020/04/05 01:31:00.000   2936424.6398   2178373.6150   5208856.6578   2   7   0.0102   0.0037   0.0029  -0.0053  -0.0021   0.0047   0.00    1.8
2020/04/05 01:31:30.000   2936424.6081   2178373.6270   5208856.6505   2   7   0.0101   0.0036   0.0029  -0.0053  -0.0021   0.0047   0.00    1.5
2020/04/05 01:32:00.000   2936424.5773   2178373.6387   5208856.6432   2   7   0.0099   0.0036   0.0028  -0.0052  -0.0021   0.0046   0.00    1.9
2020/04/05 01:32:30.000   2936424.5488   2178373.6500   5208856.6366   2   7   0.0098   0.0036   0.0028  -0.0051  -0.0020   0.0045   0.00    1.2
2020/04/05 01:33:00.000   2936424.5199   2178373.6612   5208856.6296   2   7   0.0096   0.0035   0.0028  -0.0050  -0.0020   0.0045   0.00    1.6
2020/04/05 01:33:30.000   2936424.4914   2178373.6725   5208856.6229   2   7   0.0094   0.0035   0.0028  -0.0049  -0.0020   0.0044   0.00    1.2
2020/04/05 01:34:00.000   2936424.4624   2178373.6842   5208856.6161   2   7   0.0093   0.0034   0.0027  -0.0048  -0.0019   0.0044   0.00    1.2
2020/04/05 01:34:30.000   2936424.4345   2178373.6955   5208856.6096   2   7   0.0091   0.0034   0.0027  -0.0048  -0.0019   0.0043   0.00    1.3
2020/04/05 01:35:00.000   2936424.4085   2178373.7062   5208856.6034   2   7   0.0090   0.0034   0.0027  -0.0047  -0.0018   0.0042   0.00    1.1
2020/04/05 01:35:30.000   2936424.3819   2178373.7173   5208856.5972   2   7   0.0088   0.0033   0.0027  -0.0046  -0.0018   0.0042   0.00    1.1
2020/04/05 01:36:00.000   2936424.3549   2178373.7283   5208856.5906   2   7   0.0087   0.0033   0.0026  -0.0045  -0.0018   0.0041   0.00    1.6
2020/04/05 01:36:30.000   2936424.3306   2178373.7389   5208856.5848   2   7   0.0085   0.0033   0.0026  -0.0044  -0.0017   0.0040   0.00    1.1
2020/04/05 01:37:00.000   2936424.3065   2178373.7494   5208856.5788   2   7   0.0084   0.0032   0.0026  -0.0044  -0.0017   0.0040   0.00    1.0
2020/04/05 01:37:30.000   2936424.2827   2178373.7599   5208856.5729   2   7   0.0083   0.0032   0.0026  -0.0043  -0.0017   0.0039   0.00    1.0
2020/04/05 01:38:00.000   2936424.2615   2178373.7698   5208856.5676   2   7   0.0081   0.0031   0.0026  -0.0042  -0.0016   0.0039   0.00    1.2
2020/04/05 01:38:30.000   2936424.2408   2178373.7795   5208856.5622   2   7   0.0080   0.0031   0.0025  -0.0041  -0.0016   0.0038   0.00    1.1
2020/04/05 01:39:00.000   2936424.2194   2178373.7894   5208856.5568   2   7   0.0078   0.0031   0.0025  -0.0041  -0.0016   0.0038   0.00    1.1
2020/04/05 01:39:30.000   2936424.1995   2178373.7989   5208856.5514   2   7   0.0077   0.0030   0.0025  -0.0040  -0.0015   0.0037   0.00    1.0
2020/04/05 01:40:00.000   2936424.1807   2178373.8082   5208856.5462   2   7   0.0076   0.0030   0.0025  -0.0039  -0.0015   0.0037   0.00    2.2
2020/04/05 01:40:30.000   2936424.1617   2178373.8176   5208856.5408   2   7   0.0075   0.0030   0.0024  -0.0038  -0.0015   0.0036   0.00    2.0
2020/04/05 01:41:00.000   2936424.1446   2178373.8262   5208856.5358   2   7   0.0073   0.0030   0.0024  -0.0038  -0.0014   0.0035   0.00    2.2
2020/04/05 01:41:30.000   2936424.2588   2178373.7179   5208856.5337   1   7   0.0009   0.0008   0.0015   0.0006   0.0008   0.0008   0.00    4.4
2020/04/05 01:42:00.000   2936424.2617   2178373.7201   5208856.5337   1   7   0.0009   0.0008   0.0015   0.0006   0.0008   0.0008   0.00    4.2
2020/04/05 01:42:30.000   2936424.2646   2178373.7224   5208856.5338   1   7   0.0009   0.0008   0.0015   0.0006   0.0008   0.0008   0.00    4.0
2020/04/05 01:43:00.000   2936424.2677   2178373.7246   5208856.5340   1   7   0.0009   0.0008   0.0014   0.0006   0.0008   0.0008   0.00    3.6
2020/04/05 01:43:30.000   2936424.2708   2178373.7268   5208856.5343   1   7   0.0009   0.0008   0.0014   0.0006   0.0008   0.0008   0.00    3.3
2020/04/05 01:44:00.000   2936424.0486   2178373.8782   5208856.5080   2   7   0.0067   0.0028   0.0023  -0.0034  -0.0013   0.0033   0.00    3.0
2020/04/05 01:44:30.000   2936424.0345   2178373.8862   5208856.5042   2   7   0.0065   0.0028   0.0023  -0.0033  -0.0012   0.0032   0.00    2.7
2020/04/05 01:45:00.000   2936424.0208   2178373.8942   5208856.5004   2   7   0.0064   0.0027   0.0023  -0.0033  -0.0012   0.0032   0.00    1.4
2020/04/05 01:45:30.000   2936424.0073   2178373.9023   5208856.4970   2   7   0.0063   0.0027   0.0022  -0.0032  -0.0012   0.0031   0.00    1.6
2020/04/05 01:46:00.000   2936423.9937   2178373.9106   5208856.4935   2   7   0.0062   0.0027   0.0022  -0.0032  -0.0012   0.0031   0.00    1.3
2020/04/05 01:46:30.000   2936423.9803   2178373.9187   5208856.4900   2   7   0.0062   0.0027   0.0022  -0.0031  -0.0011   0.0030   0.00    1.3
2020/04/05 01:47:00.000   2936423.9666   2178373.9268   5208856.4866   2   7   0.0061   0.0026   0.0022  -0.0031  -0.0011   0.0030   0.00    1.1
2020/04/05 01:47:30.000   2936423.9533   2178373.9348   5208856.4833   2   7   0.0060   0.0026   0.0022  -0.0030  -0.0011   0.0030   0.00    1.0
2020/04/05 01:48:00.000   2936423.9404   2178373.9429   5208856.4802   2   7   0.0059   0.0026   0.0022  -0.0030  -0.0011   0.0029   0.00    1.1
2020/04/05 01:48:30.000   2936423.9286   2178373.9506   5208856.4774   2   7   0.0058   0.0026   0.0021  -0.0029  -0.0010   0.0029   0.00    1.2
2020/04/05 01:49:00.000   2936423.9160   2178373.9586   5208856.4746   2   7   0.0057   0.0026   0.0021  -0.0029  -0.0010   0.0028   0.00    1.2
2020/04/05 01:49:30.000   2936423.9028   2178373.9667   5208856.4716   2   7   0.0056   0.0025   0.0021  -0.0028  -0.0010   0.0028   0.00    1.1
2020/04/05 01:50:00.000   2936423.8910   2178373.9744   5208856.4690   2   7   0.0055   0.0025   0.0021  -0.0028  -0.0010   0.0028   0.00    1.0
2020/04/05 01:50:30.000   2936423.8798   2178373.9820   5208856.4663   2   7   0.0055   0.0025   0.0021  -0.0027  -0.0009   0.0027   0.00    1.2
2020/04/05 01:51:00.000   2936423.8695   2178373.9893   5208856.4637   2   7   0.0054   0.0025   0.0021  -0.0027  -0.0009   0.0027   0.00    1.1
2020/04/05 01:51:30.000   2936423.8582   2178373.9967   5208856.4610   2   7   0.0053   0.0025   0.0021  -0.0026  -0.0009   0.0027   0.00    1.2
2020/04/05 01:52:00.000   2936423.8479   2178374.0038   5208856.4583   2   8   0.0052   0.0024   0.0020  -0.0026  -0.0009   0.0026   0.00    1.0
2020/04/05 01:52:30.000   2936423.8376   2178374.0107   5208856.4556   2   8   0.0052   0.0024   0.0020  -0.0026  -0.0009   0.0026   0.00    1.1
2020/04/05 01:53:00.000   2936423.8291   2178374.0172   5208856.4534   2   8   0.0051   0.0024   0.0020  -0.0025  -0.0008   0.0026   0.00    1.0
2020/04/05 01:53:30.000   2936423.8201   2178374.0238   5208856.4511   2   8   0.0050   0.0024   0.0020  -0.0025  -0.0008   0.0025   0.00    1.0
2020/04/05 01:54:00.000   2936423.8123   2178374.0302   5208856.4491   2   8   0.0050   0.0024   0.0020  -0.0024  -0.0008   0.0025   0.00    1.0
2020/04/05 01:54:30.000   2936423.8040   2178374.0366   5208856.4469   2   8   0.0049   0.0024   0.0020  -0.0024  -0.0008   0.0025   0.00    1.0
2020/04/05 01:55:00.000   2936423.7966   2178374.0425   5208856.4449   2   8   0.0048   0.0023   0.0020  -0.0024  -0.0008   0.0025   0.00    1.0
2020/04/05 01:55:30.000   2936423.7886   2178374.0485   5208856.4427   2   8   0.0048   0.0023   0.0019  -0.0023  -0.0007   0.0024   0.00    1.0
2020/04/05 01:56:00.000   2936423.7812   2178374.0542   5208856.4407   2   8   0.0047   0.0023   0.0019  -0.0023  -0.0007   0.0024   0.00    1.0
2020/04/05 01:56:30.000   2936423.7749   2178374.0598   5208856.4390   2   8   0.0046   0.0023   0.0019  -0.0023  -0.0007   0.0024   0.00    1.2
2020/04/05 01:57:00.000   2936423.7677   2178374.0656   5208856.4372   2   8   0.0046   0.0023   0.0019  -0.0022  -0.0007   0.0023   0.00    1.1
2020/04/05 01:57:30.000   2936423.7611   2178374.0711   5208856.4353   2   8   0.0045   0.0023   0.0019  -0.0022  -0.0007   0.0023   0.00    1.0
2020/04/05 01:58:00.000   2936423.7544   2178374.0766   5208856.4336   2   8   0.0045   0.0022   0.0019  -0.0022  -0.0006   0.0023   0.00    1.0
2020/04/05 01:58:30.000   2936423.7484   2178374.0818   5208856.4319   2   8   0.0044   0.0022   0.0019  -0.0021  -0.0006   0.0023   0.00    1.1
2020/04/05 01:59:00.000   2936423.7420   2178374.0872   5208856.4302   2   8   0.0044   0.0022   0.0019  -0.0021  -0.0006   0.0022   0.00    1.1
2020/04/05 01:59:30.000   2936423.7363   2178374.0922   5208856.4287   2   8   0.0043   0.0022   0.0019  -0.0021  -0.0006   0.0022   0.00    1.0
2020/04/05 02:00:00.000   2936423.7311   2178374.0970   5208856.4274   2   8   0.0043   0.0022   0.0018  -0.0020  -0.0006   0.0022   0.00    1.1
2020/04/05 02:00:30.000   2936423.7263   2178374.1017   5208856.4262   2   8   0.0042   0.0022   0.0018  -0.0020  -0.0006   0.0022   0.00    1.1
2020/04/05 02:01:00.000   2936423.7214   2178374.1065   5208856.4253   2   8   0.0042   0.0022   0.0018  -0.0020  -0.0005   0.0022   0.00    1.5
2020/04/05 02:01:30.000   2936423.7164   2178374.1112   5208856.4242   2   8   0.0041   0.0022   0.0018  -0.0020  -0.0005   0.0021   0.00    1.1
2020/04/05 02:02:00.000   2936423.7110   2178374.1161   5208856.4231   2   8   0.0041   0.0021   0.0018  -0.0019  -0.0005   0.0021   0.00    1.1
2020/04/05 02:02:30.000   2936423.7064   2178374.1206   5208856.4223   2   8   0.0040   0.0021   0.0018  -0.0019  -0.0005   0.0021   0.00    1.1
2020/04/05 02:03:00.000   2936423.7021   2178374.1251   5208856.4215   2   8   0.0040   0.0021   0.0018  -0.0019  -0.0005   0.0021   0.00    1.3
2020/04/05 02:03:30.000   2936423.6980   2178374.1294   5208856.4209   2   8   0.0039   0.0021   0.0018  -0.0018  -0.0005   0.0021   0.00    1.0
2020/04/05 02:04:00.000   2936423.6942   2178374.1336   5208856.4204   2   8   0.0039   0.0021   0.0018  -0.0018  -0.0004   0.0020   0.00    1.1
2020/04/05 02:04:30.000   2936423.6905   2178374.1378   5208856.4200   2   8   0.0039   0.0021   0.0018  -0.0018  -0.0004   0.0020   0.00    1.1
2020/04/05 02:05:00.000   2936423.6858   2178374.1411   5208856.4189   2   7   0.0038   0.0021   0.0017  -0.0018  -0.0004   0.0020   0.00    1.1
2020/04/05 02:05:30.000   2936423.6807   2178374.1445   5208856.4179   2   7   0.0038   0.0021   0.0017  -0.0017  -0.0004   0.0020   0.00    1.0
2020/04/05 02:06:00.000   2936423.6753   2178374.1479   5208856.4170   2   7   0.0037   0.0021   0.0017  -0.0017  -0.0004   0.0020   0.00    1.1
2020/04/05 02:06:30.000   2936423.6700   2178374.1507   5208856.4151   2   6   0.0037   0.0021   0.0017  -0.0017  -0.0003   0.0020   0.00    1.6
2020/04/05 02:07:00.000   2936423.6653   2178374.1532   5208856.4135   2   6   0.0037   0.0020   0.0017  -0.0017  -0.0003   0.0019   0.00    1.2
2020/04/05 02:07:30.000   2936423.6603   2178374.1559   5208856.4119   2   6   0.0036   0.0020   0.0017  -0.0016  -0.0003   0.0019   0.00    1.4
2020/04/05 02:08:00.000   2936423.6560   2178374.1583   5208856.4105   2   6   0.0036   0.0020   0.0017  -0.0016  -0.0002   0.0019   0.00    1.2
2020/04/05 02:08:30.000   2936423.6516   2178374.1606   5208856.4091   2   6   0.0036   0.0020   0.0017  -0.0016  -0.0002   0.0019   0.00    1.2
2020/04/05 02:09:00.000   2936423.6476   2178374.1628   5208856.4078   2   6   0.0035   0.0020   0.0017  -0.0016  -0.0001   0.0019   0.00    1.2
2020/04/05 02:09:30.000   2936423.6437   2178374.1650   5208856.4067   2   6   0.0035   0.0020   0.0017  -0.0015  -0.0001   0.0019   0.00    1.1
2020/04/05 02:10:00.000   2936423.6400   2178374.1670   5208856.4056   2   6   0.0035   0.0020   0.0017  -0.0015   0.0001   0.0019   0.00    1.2
2020/04/05 02:10:30.000   2936423.6364   2178374.1689   5208856.4048   2   6   0.0035   0.0020   0.0017  -0.0015   0.0002   0.0018   0.00    1.1
2020/04/05 02:11:00.000   2936423.6330   2178374.1707   5208856.4040   2   6   0.0034   0.0020   0.0017  -0.0015   0.0002   0.0018   0.00    1.2
2020/04/05 02:11:30.000   2936423.6291   2178374.1727   5208856.4033   2   6   0.0034   0.0020   0.0017  -0.0014   0.0002   0.0018   0.00    1.1
2020/04/05 02:12:00.000   2936423.6257   2178374.1745   5208856.4028   2   6   0.0034   0.0020   0.0017  -0.0014   0.0003   0.0018   0.00    1.2
2020/04/05 02:12:30.000   2936423.6218   2178374.1763   5208856.4022   2   6   0.0033   0.0020   0.0017  -0.0014   0.0003   0.0018   0.00    1.8
2020/04/05 02:13:00.000   2936423.6181   2178374.1780   5208856.4017   2   6   0.0033   0.0020   0.0017  -0.0014   0.0003   0.0018   0.00    1.2
2020/04/05 02:13:30.000   2936423.6147   2178374.1797   5208856.4014   2   6   0.0033   0.0019   0.0016  -0.0014   0.0003   0.0018   0.00    1.1
2020/04/05 02:14:00.000   2936423.6115   2178374.1814   5208856.4012   2   6   0.0033   0.0019   0.0016  -0.0013   0.0003   0.0018   0.00    1.2
2020/04/05 02:14:30.000   2936423.6081   2178374.1831   5208856.4011   2   6   0.0032   0.0019   0.0016  -0.0013   0.0004   0.0018   0.00    1.3
2020/04/05 02:15:00.000   2936423.6049   2178374.1846   5208856.4010   2   6   0.0032   0.0019   0.0016  -0.0013   0.0004   0.0017   0.00    1.2
2020/04/05 02:15:30.000   2936423.6018   2178374.1861   5208856.4011   2   6   0.0032   0.0019   0.0016  -0.0013   0.0004   0.0017   0.00    1.0
2020/04/05 02:16:00.000   2936423.5990   2178374.1874   5208856.4013   2   6   0.0032   0.0019   0.0016  -0.0012   0.0004   0.0017   0.00    1.2
2020/04/05 02:16:30.000   2936423.5961   2178374.1886   5208856.4015   2   6   0.0031   0.0019   0.0016  -0.0012   0.0004   0.0017   0.00    1.1
2020/04/05 02:17:00.000   2936423.5935   2178374.1897   5208856.4018   2   6   0.0031   0.0019   0.0016  -0.0012   0.0004   0.0017   0.00    1.1
2020/04/05 02:17:30.000   2936423.5906   2178374.1908   5208856.4023   2   6   0.0031   0.0019   0.0016  -0.0012   0.0004   0.0017   0.00    1.0
2020/04/05 02:18:00.000   2936423.5883   2178374.1916   5208856.4028   2   6   0.0031   0.0019   0.0016  -0.0012   0.0004   0.0017   0.00    1.1
2020/04/05 02:18:30.000   2936423.5861   2178374.1925   5208856.4035   2   6   0.0030   0.0019   0.0016  -0.0011   0.0005   0.0017   0.00    1.1
2020/04/05 02:19:00.000   2936423.5839   2178374.1933   5208856.4041   2   6   0.0030   0.0019   0.0016  -0.0011   0.0005   0.0017   0.00    1.6
2020/04/05 02:19:30.000   2936423.5823   2178374.1939   5208856.4050   2   6   0.0030   0.0019   0.0016  -0.0011   0.0005   0.0017   0.00    1.1
2020/04/05 02:20:00.000   2936423.5807   2178374.1944   5208856.4059   2   6   0.0030   0.0019   0.0016  -0.0011   0.0005   0.0016   0.00    1.1
2020/04/05 02:20:30.000   2936423.5790   2178374.1950   5208856.4068   2   6   0.0030   0.0019   0.0016  -0.0011   0.0005   0.0016   0.00    1.0
2020/04/05 02:21:00.000   2936423.5774   2178374.1955   5208856.4078   2   6   0.0029   0.0018   0.0016  -0.0011   0.0005   0.0016   0.00    1.2
2020/04/05 02:21:30.000   2936423.5756   2178374.1960   5208856.4088   2   6   0.0029   0.0018   0.0016  -0.0010   0.0005   0.0016   0.00    1.0
2020/04/05 02:22:00.000   2936423.5741   2178374.1964   5208856.4099   2   6   0.0029   0.0018   0.0016  -0.0010   0.0005   0.0016   0.00    1.0
2020/04/05 02:22:30.000   2936423.5728   2178374.1967   5208856.4109   2   6   0.0029   0.0018   0.0016  -0.0010   0.0005   0.0016   0.00    1.0
2020/04/05 02:23:00.000   2936423.5717   2178374.1969   5208856.4120   2   6   0.0029   0.0018   0.0016  -0.0010   0.0005   0.0016   0.00    1.2
2020/04/05 02:23:30.000   2936423.5705   2178374.1970   5208856.4131   2   6   0.0028   0.0018   0.0016  -0.0010   0.0005   0.0016   0.00    1.0
2020/04/05 02:24:00.000   2936423.5693   2178374.1971   5208856.4141   2   6   0.0028   0.0018   0.0015  -0.0009   0.0005   0.0016   0.00    1.2
2020/04/05 02:24:30.000   2936423.5684   2178374.1973   5208856.4153   2   6   0.0028   0.0018   0.0015  -0.0009   0.0005   0.0016   0.00    1.0
2020/04/05 02:25:00.000   2936423.5667   2178374.1977   5208856.4165   2   6   0.0028   0.0018   0.0015  -0.0009   0.0006   0.0016   0.00    1.0
2020/04/05 02:25:30.000   2936423.5654   2178374.1981   5208856.4178   2   6   0.0028   0.0018   0.0015  -0.0009   0.0006   0.0016   0.00    1.0
2020/04/05 02:26:00.000   2936423.5637   2178374.1985   5208856.4191   2   6   0.0028   0.0018   0.0015  -0.0009   0.0006   0.0016   0.00    1.1
2020/04/05 02:26:30.000   2936423.5622   2178374.1989   5208856.4203   2   6   0.0027   0.0018   0.0015  -0.0009   0.0006   0.0015   0.00    1.0
2020/04/05 02:27:00.000   2936423.5607   2178374.1993   5208856.4215   2   6   0.0027   0.0018   0.0015  -0.0008   0.0006   0.0015   0.00    1.0
2020/04/05 02:27:30.000   2936423.5593   2178374.1996   5208856.4228   2   6   0.0027   0.0018   0.0015  -0.0008   0.0006   0.0015   0.00    1.1
2020/04/05 02:28:00.000   2936423.5575   2178374.1998   5208856.4239   2   6   0.0027   0.0018   0.0015  -0.0008   0.0006   0.0015   0.00    1.1
2020/04/05 02:28:30.000   2936423.5561   2178374.2000   5208856.4250   2   6   0.0027   0.0018   0.0015  -0.0008   0.0006   0.0015   0.00    1.1
2020/04/05 02:29:00.000   2936423.5544   2178374.2003   5208856.4260   2   6   0.0027   0.0018   0.0015  -0.0008   0.0006   0.0015   0.00    1.2
2020/04/05 02:29:30.000   2936423.5530   2178374.2004   5208856.4271   2   6   0.0027   0.0018   0.0015  -0.0008   0.0006   0.0015   0.00    1.1
2020/04/05 02:30:00.000   2936423.5517   2178374.2004   5208856.4283   2   6   0.0026   0.0017   0.0015  -0.0007   0.0006   0.0015   0.00    1.2
2020/04/05 02:30:30.000   2936423.5500   2178374.2004   5208856.4294   2   6   0.0026   0.0017   0.0015  -0.0007   0.0006   0.0015   0.00    1.1
2020/04/05 02:31:00.000   2936423.5481   2178374.2005   5208856.4304   2   6   0.0026   0.0017   0.0015  -0.0007   0.0006   0.0015   0.00    1.1
2020/04/05 02:31:30.000   2936423.5464   2178374.2005   5208856.4314   2   7   0.0026   0.0017   0.0015  -0.0007   0.0006   0.0015   0.00    1.0
2020/04/05 02:32:00.000   2936423.5448   2178374.2003   5208856.4325   2   7   0.0026   0.0017   0.0015  -0.0007   0.0006   0.0015   0.00    1.0
2020/04/05 02:32:30.000   2936423.5432   2178374.2002   5208856.4336   2   7   0.0026   0.0017   0.0015  -0.0007   0.0006   0.0015   0.00    1.0
2020/04/05 02:33:00.000   2936423.5414   2178374.2001   5208856.4347   2   7   0.0026   0.0017   0.0015  -0.0006   0.0006   0.0015   0.00    1.0
2020/04/05 02:33:30.000   2936423.5397   2178374.1999   5208856.4358   2   7   0.0025   0.0017   0.0015  -0.0006   0.0006   0.0015   0.00    1.0
2020/04/05 02:34:00.000   2936423.5378   2178374.1997   5208856.4369   2   7   0.0025   0.0017   0.0015  -0.0006   0.0006   0.0015   0.00    1.0
2020/04/05 02:34:30.000   2936423.5359   2178374.1996   5208856.4379   2   7   0.0025   0.0017   0.0015  -0.0006   0.0006   0.0015   0.00    1.0
2020/04/05 02:35:00.000   2936423.5341   2178374.1992   5208856.4391   2   7   0.0025   0.0017   0.0015  -0.0006   0.0006   0.0014   0.00    1.0
2020/04/05 02:35:30.000   2936423.5325   2178374.1990   5208856.4402   2   7   0.0025   0.0017   0.0015  -0.0006   0.0006   0.0014   0.00    1.0
2020/04/05 02:36:00.000   2936423.5310   2178374.1986   5208856.4413   2   7   0.0025   0.0017   0.0015  -0.0005   0.0006   0.0014   0.00    1.0
2020/04/05 02:36:30.000   2936423.5296   2178374.1982   5208856.4424   2   7   0.0025   0.0017   0.0015  -0.0005   0.0006   0.0014   0.00    1.0
2020/04/05 02:37:00.000   2936423.5280   2178374.1977   5208856.4435   2   7   0.0025   0.0017   0.0014  -0.0005   0.0006   0.0014   0.00    1.0
2020/04/05 02:37:30.000   2936423.5264   2178374.1973   5208856.4446   2   7   0.0025   0.0017   0.0014  -0.0005   0.0006   0.0014   0.00    1.1
2020/04/05 02:38:00.000   2936423.5248   2178374.1968   5208856.4457   2   7   0.0024   0.0017   0.0014  -0.0005   0.0006   0.0014   0.00    1.0
2020/04/05 02:38:30.000   2936423.5228   2178374.1964   5208856.4467   2   7   0.0024   0.0017   0.0014  -0.0005   0.0006   0.0014   0.00    1.1
2020/04/05 02:39:00.000   2936423.5209   2178374.1961   5208856.4477   2   7   0.0024   0.0017   0.0014  -0.0004   0.0006   0.0014   0.00    1.0
2020/04/05 02:39:30.000   2936423.5189   2178374.1957   5208856.4486   2   7   0.0024   0.0017   0.0014  -0.0004   0.0006   0.0014   0.00    1.0
2020/04/05 02:40:00.000   2936423.5168   2178374.1951   5208856.4494   2   7   0.0024   0.0016   0.0014  -0.0004   0.0006   0.0014   0.00    1.0
2020/04/05 02:40:30.000   2936423.5144   2178374.1946   5208856.4500   2   7   0.0024   0.0016   0.0014  -0.0004   0.0006   0.0014   0.00    1.0
2020/04/05 02:41:00.000   2936423.5118   2178374.1942   5208856.4506   2   7   0.0024   0.0016   0.0014  -0.0004   0.0006   0.0014   0.00    1.0
2020/04/05 02:41:30.000   2936423.5091   2178374.1938   5208856.4511   2   7   0.0024   0.0016   0.0014  -0.0003   0.0006   0.0014   0.00    1.3
2020/04/05 02:42:00.000   2936423.5063   2178374.1933   5208856.4516   2   7   0.0024   0.0016   0.0014  -0.0003   0.0006   0.0014   0.00    1.0
2020/04/05 02:42:30.000   2936423.5033   2178374.1928   5208856.4519   2   7   0.0024   0.0016   0.0014  -0.0003   0.0007   0.0014   0.00    1.1
2020/04/05 02:43:00.000   2936423.5003   2178374.1923   5208856.4523   2   7   0.0023   0.0016   0.0014  -0.0003   0.0007   0.0014   0.00    1.2
2020/04/05 02:43:30.000   2936423.4975   2178374.1918   5208856.4525   2   7   0.0023   0.0016   0.0014  -0.0003   0.0007   0.0014   0.00    1.0
2020/04/05 02:44:00.000   2936423.4945   2178374.1912   5208856.4528   2   7   0.0023   0.0016   0.0014  -0.0002   0.0007   0.0014   0.00    1.0
2020/04/05 02:44:30.000   2936423.4916   2178374.1906   5208856.4531   2   7   0.0023   0.0016   0.0014  -0.0002   0.0007   0.0014   0.00    1.2
2020/04/05 02:45:00.000   2936423.4883   2178374.1901   5208856.4533   2   7   0.0023   0.0016   0.0014  -0.0002   0.0007   0.0014   0.00    1.2
2020/04/05 02:45:30.000   2936423.4853   2178374.1894   5208856.4536   2   7   0.0023   0.0016   0.0014  -0.0001   0.0007   0.0014   0.00    1.2
2020/04/05 02:46:00.000   2936423.4823   2178374.1887   5208856.4538   2   7   0.0023   0.0016   0.0014  -0.0001   0.0007   0.0013   0.00    1.1
2020/04/05 02:46:30.000   2936423.4794   2178374.1878   5208856.4540   2   7   0.0023   0.0016   0.0014   0.0001   0.0007   0.0013   0.00    1.0
2020/04/05 02:47:00.000   2936423.4763   2178374.1870   5208856.4542   2   7   0.0023   0.0016   0.0014   0.0001   0.0007   0.0013   0.00    1.2
2020/04/05 02:47:30.000   2936423.4735   2178374.1860   5208856.4544   2   7   0.0023   0.0016   0.0014   0.0002   0.0007   0.0013   0.00    1.0
2020/04/05 02:48:00.000   2936423.4708   2178374.1850   5208856.4547   2   7   0.0023   0.0016   0.0014   0.0002   0.0007   0.0013   0.00    1.0
2020/04/05 02:48:30.000   2936423.4680   2178374.1839   5208856.4549   2   7   0.0023   0.0016   0.0014   0.0002   0.0007   0.0013   0.00    1.2
2020/04/05 02:49:00.000   2936423.4652   2178374.1828   5208856.4550   2   7   0.0022   0.0016   0.0014   0.0002   0.0007   0.0013   0.00    1.0
2020/04/05 02:49:30.000   2936423.4624   2178374.1817   5208856.4551   2   7   0.0022   0.0016   0.0014   0.0003   0.0007   0.0013   0.00    1.2
2020/04/05 02:50:00.000   2936423.4597   2178374.1806   5208856.4552   2   7   0.0022   0.0016   0.0014   0.0003   0.0007   0.0013   0.00    1.1
2020/04/05 02:50:30.000   2936423.4569   2178374.1796   5208856.4553   2   7   0.0022   0.0015   0.0014   0.0003   0.0007   0.0013   0.00    1.1
2020/04/05 02:51:00.000   2936423.4543   2178374.1784   5208856.4556   2   7   0.0022   0.0015   0.0014   0.0003   0.0007   0.0013   0.00    1.1
2020/04/05 02:51:30.000   2936423.4516   2178374.1772   5208856.4557   2   7   0.0022   0.0015   0.0014   0.0003   0.0007   0.0013   0.00    1.1
2020/04/05 02:52:00.000   2936423.4490   2178374.1759   5208856.4559   2   7   0.0022   0.0015   0.0014   0.0003   0.0007   0.0013   0.00    1.2
2020/04/05 02:52:30.000   2936423.4467   2178374.1746   5208856.4561   2   7   0.0022   0.0015   0.0014   0.0003   0.0007   0.0013   0.00    1.0
2020/04/05 02:53:00.000   2936423.4441   2178374.1734   5208856.4563   2   7   0.0022   0.0015   0.0013   0.0004   0.0007   0.0013   0.00    1.1
2020/04/05 02:53:30.000   2936423.4418   2178374.1720   5208856.4564   2   7   0.0022   0.0015   0.0013   0.0004   0.0007   0.0013   0.00    1.0
2020/04/05 02:54:00.000   2936423.4394   2178374.1707   5208856.4567   2   7   0.0022   0.0015   0.0013   0.0004   0.0007   0.0013   0.00    1.0
2020/04/05 02:54:30.000   2936423.4371   2178374.1693   5208856.4568   2   7   0.0022   0.0015   0.0013   0.0004   0.0007   0.0013   0.00    1.1
2020/04/05 02:55:00.000   2936423.4347   2178374.1678   5208856.4570   2   7   0.0022   0.0015   0.0013   0.0004   0.0007   0.0013   0.00    1.1
2020/04/05 02:55:30.000   2936423.4325   2178374.1664   5208856.4572   2   7   0.0022   0.0015   0.0013   0.0004   0.0007   0.0013   0.00    1.2
2020/04/05 02:56:00.000   2936423.4301   2178374.1650   5208856.4575   2   7   0.0022   0.0015   0.0013   0.0004   0.0007   0.0013   0.00    1.3
2020/04/05 02:56:30.000   2936423.4281   2178374.1635   5208856.4577   2   7   0.0021   0.0015   0.0013   0.0004   0.0007   0.0013   0.00    1.1
2020/04/05 02:57:00.000   2936423.4260   2178374.1620   5208856.4580   2   7   0.0021   0.0015   0.0013   0.0004   0.0007   0.0013   0.00    1.1
2020/04/05 02:57:30.000   2936423.4240   2178374.1606   5208856.4584   2   7   0.0021   0.0015   0.0013   0.0004   0.0007   0.0013   0.00    1.1
2020/04/05 02:58:00.000   2936423.4221   2178374.1589   5208856.4588   2   7   0.0021   0.0015   0.0013   0.0004   0.0007   0.0013   0.00    1.3
2020/04/05 02:58:30.000   2936423.4203   2178374.1574   5208856.4591   2   7   0.0021   0.0015   0.0013   0.0005   0.0007   0.0013   0.00    1.1
2020/04/05 02:59:00.000   2936423.4184   2178374.1559   5208856.4595   2   7   0.0021   0.0015   0.0013   0.0005   0.0007   0.0013   0.00    1.0
2020/04/05 02:59:30.000   2936423.4164   2178374.1544   5208856.4599   2   7   0.0021   0.0015   0.0013   0.0005   0.0007   0.0013   0.00    1.5
2020/04/05 03:00:00.000   2936423.4147   2178374.1529   5208856.4603   2   7   0.0021   0.0015   0.0013   0.0005   0.0007   0.0013   0.00    1.0
2020/04/05 03:00:30.000   2936423.4128   2178374.1515   5208856.4608   2   7   0.0021   0.0015   0.0013   0.0005   0.0007   0.0012   0.00    1.4
2020/04/05 03:01:00.000   2936423.4112   2178374.1500   5208856.4613   2   7   0.0021   0.0015   0.0013   0.0005   0.0007   0.0012   0.00    1.1
2020/04/05 03:01:30.000   2936423.4096   2178374.1486   5208856.4620   2   7   0.0021   0.0015   0.0013   0.0005   0.0007   0.0012   0.00    1.1
2020/04/05 03:02:00.000   2936423.4081   2178374.1472   5208856.4625   2   7   0.0021   0.0014   0.0013   0.0005   0.0007   0.0012   0.00    1.2
2020/04/05 03:02:30.000   2936423.4066   2178374.1459   5208856.4632   2   7   0.0021   0.0014   0.0013   0.0005   0.0007   0.0012   0.00    1.1
2020/04/05 03:03:00.000   2936423.4052   2178374.1445   5208856.4639   2   7   0.0021   0.0014   0.0013   0.0005   0.0007   0.0012   0.00    1.1
2020/04/05 03:03:30.000   2936423.4039   2178374.1431   5208856.4645   2   7   0.0021   0.0014   0.0013   0.0005   0.0007   0.0012   0.00    1.1
2020/04/05 03:04:00.000   2936423.4026   2178374.1418   5208856.4655   2   7   0.0021   0.0014   0.0013   0.0005   0.0007   0.0012   0.00    1.0
2020/04/05 03:04:30.000   2936423.4016   2178374.1405   5208856.4666   2   6   0.0021   0.0014   0.0013   0.0005   0.0007   0.0012   0.00    1.0
2020/04/05 03:05:00.000   2936423.4008   2178374.1393   5208856.4677   2   6   0.0021   0.0014   0.0013   0.0005   0.0007   0.0012   0.00    1.0
2020/04/05 03:05:30.000   2936423.4001   2178374.1380   5208856.4691   2   6   0.0021   0.0014   0.0013   0.0005   0.0007   0.0012   0.00    1.0
2020/04/05 03:06:00.000   2936423.3997   2178374.1366   5208856.4705   2   6   0.0020   0.0014   0.0013   0.0005   0.0007   0.0012   0.00    1.1
2020/04/05 03:06:30.000   2936423.3994   2178374.1350   5208856.4719   2   6   0.0020   0.0014   0.0013   0.0005   0.0007   0.0012   0.00    1.1
2020/04/05 03:07:00.000   2936423.3993   2178374.1334   5208856.4734   2   6   0.0020   0.0014   0.0013   0.0005   0.0007   0.0012   0.00    1.0
2020/04/05 03:07:30.000   2936423.3992   2178374.1320   5208856.4749   2   6   0.0020   0.0014   0.0013   0.0005   0.0007   0.0012   0.00    1.5
2020/04/05 03:08:00.000   2936423.3993   2178374.1305   5208856.4765   2   6   0.0020   0.0014   0.0013   0.0005   0.0007   0.0012   0.00    1.1
2020/04/05 03:08:30.000   2936423.3994   2178374.1290   5208856.4781   2   6   0.0020   0.0014   0.0013   0.0006   0.0007   0.0012   0.00    1.2
2020/04/05 03:09:00.000   2936423.3995   2178374.1276   5208856.4798   2   6   0.0020   0.0014   0.0013   0.0006   0.0007   0.0012   0.00    1.1
2020/04/05 03:09:30.000   2936423.3997   2178374.1259   5208856.4815   2   6   0.0020   0.0014   0.0013   0.0006   0.0007   0.0012   0.00    1.1
2020/04/05 03:10:00.000   2936423.3999   2178374.1244   5208856.4833   2   6   0.0020   0.0014   0.0013   0.0006   0.0007   0.0012   0.00    1.1
2020/04/05 03:10:30.000   2936423.4001   2178374.1229   5208856.4849   2   6   0.0020   0.0014   0.0013   0.0006   0.0007   0.0012   0.00    1.1
2020/04/05 03:11:00.000   2936423.4003   2178374.1213   5208856.4866   2   6   0.0020   0.0014   0.0013   0.0006   0.0007   0.0012   0.00    1.0
2020/04/05 03:11:30.000   2936423.4003   2178374.1197   5208856.4882   2   6   0.0020   0.0014   0.0013   0.0006   0.0007   0.0012   0.00    1.1
2020/04/05 03:12:00.000   2936423.4003   2178374.1181   5208856.4898   2   6   0.0020   0.0014   0.0013   0.0006   0.0007   0.0012   0.00    1.2
2020/04/05 03:12:30.000   2936423.4000   2178374.1166   5208856.4912   2   6   0.0020   0.0014   0.0013   0.0006   0.0007   0.0012   0.00    1.1
2020/04/05 03:13:00.000   2936423.4001   2178374.1150   5208856.4927   2   6   0.0020   0.0014   0.0013   0.0006   0.0007   0.0012   0.00    1.0
2020/04/05 03:13:30.000   2936423.4001   2178374.1135   5208856.4942   2   6   0.0020   0.0014   0.0013   0.0006   0.0007   0.0012   0.00    1.1
2020/04/05 03:14:00.000   2936423.4001   2178374.1120   5208856.4957   2   6   0.0020   0.0014   0.0013   0.0006   0.0007   0.0012   0.00    1.1
2020/04/05 03:14:30.000   2936423.4001   2178374.1105   5208856.4972   2   6   0.0020   0.0014   0.0013   0.0006   0.0007   0.0012   0.00    1.1
2020/04/05 03:15:00.000   2936423.4002   2178374.1089   5208856.4987   2   6   0.0020   0.0014   0.0013   0.0006   0.0007   0.0012   0.00    1.1
2020/04/05 03:15:30.000   2936423.4003   2178374.1074   5208856.5002   2   6   0.0020   0.0014   0.0012   0.0006   0.0007   0.0012   0.00    1.0
2020/04/05 03:16:00.000   2936423.4005   2178374.1057   5208856.5017   2   6   0.0020   0.0013   0.0012   0.0006   0.0007   0.0012   0.00    1.2
2020/04/05 03:16:30.000   2936423.4007   2178374.1041   5208856.5032   2   6   0.0020   0.0013   0.0012   0.0006   0.0007   0.0012   0.00    1.1
2020/04/05 03:17:00.000   2936423.4010   2178374.1024   5208856.5048   2   6   0.0020   0.0013   0.0012   0.0006   0.0007   0.0012   0.00    1.0
2020/04/05 03:17:30.000   2936423.4013   2178374.1009   5208856.5063   2   6   0.0020   0.0013   0.0012   0.0006   0.0007   0.0012   0.00    1.0
2020/04/05 03:18:00.000   2936423.4015   2178374.0993   5208856.5078   2   6   0.0020   0.0013   0.0012   0.0006   0.0007   0.0012   0.00    1.0
2020/04/05 03:18:30.000   2936423.4017   2178374.0979   5208856.5093   2   6   0.0020   0.0013   0.0012   0.0006   0.0007   0.0012   0.00    1.0
2020/04/05 03:19:00.000   2936423.4019   2178374.0963   5208856.5108   2   6   0.0020   0.0013   0.0012   0.0006   0.0007   0.0012   0.00    1.0
2020/04/05 03:19:30.000   2936423.4036   2178374.0945   5208856.5118   2   5   0.0019   0.0013   0.0012   0.0006   0.0007   0.0012   0.00    1.0
2020/04/05 03:20:00.000   2936423.4051   2178374.0926   5208856.5129   2   5   0.0019   0.0013   0.0012   0.0006   0.0007   0.0012   0.00    1.0
2020/04/05 03:20:30.000   2936423.4067   2178374.0908   5208856.5139   2   5   0.0019   0.0013   0.0012   0.0006   0.0007   0.0012   0.00    1.0
2020/04/05 03:21:00.000   2936423.4081   2178374.0890   5208856.5148   2   5   0.0019   0.0013   0.0012   0.0006   0.0007   0.0012   0.00    1.0
2020/04/05 03:21:30.000   2936423.4096   2178374.0873   5208856.5157   2   5   0.0019   0.0013   0.0012   0.0006   0.0007   0.0012   0.00    1.0
