% program   : RTKPOST ver.demo5 b34g
% inp file  : C:\Users\89231\Documents\Учеба\Диссертация\RTKLIB\Файлы\05.04.2020\ektg0960.20o
% inp file  : C:\Users\89231\Documents\Учеба\Диссертация\RTKLIB\Файлы\05.04.2020\samr0960.20o
% inp file  : C:\Users\89231\Documents\Учеба\Диссертация\RTKLIB\Файлы\05.04.2020\ektg0960.20*
% inp file  : C:\Users\89231\Documents\Учеба\Диссертация\RTKLIB\Файлы\05.04.2020\igs21000.sp3
% inp file  : C:\Users\89231\Documents\Учеба\Диссертация\RTKLIB\Файлы\05.04.2020\igs21000.clk_30s
% obs start : 2020/04/05 00:00:00.0 GPST (week2100      0.0s)
% obs end   : 2020/04/05 23:59:30.0 GPST (week2100  86370.0s)
% pos mode  : Static
% freqs     : L1+L2/E5b
% solution  : Forward
% elev mask : 15.0 deg
% dynamics  : on
% tidecorr  : off
% ionos opt : Broadcast
% tropo opt : Saastamoinen
% ephemeris : Precise
% navi sys  : GPS
% amb res   : Fix and Hold
% val thres : 3.0
% antenna1  :                       ( 0.0000  0.0000  0.0000)
% antenna2  :                       ( 0.0000  0.0000  0.0000)
% ref pos   :  2447583.1969   2941190.6110   5085909.6413
%
% (x/y/z-ecef=WGS84,Q=1:fix,2:float,3:sbas,4:dgps,5:single,6:ppp,ns=# of satellites)
%  GPST                      x-ecef(m)      y-ecef(m)      z-ecef(m)   Q  ns   sdx(m)   sdy(m)   sdz(m)  sdxy(m)  sdyz(m)  sdzx(m) age(s)  ratio
2020/04/05 00:00:00.000   1710697.0283   3046081.6364   5318706.2099   2   6   1.4597   2.6663   2.9144   1.5383   1.3893   1.2517   0.00    0.0
2020/04/05 00:00:30.000   1710697.5458   3046082.8367   5318705.5264   2   6   0.8286   1.0658   1.1555   0.5046   0.6145   0.5406   0.00    0.0
2020/04/05 00:01:00.000   1710697.6333   3046082.7497   5318704.8921   2   6   0.6093   0.6076   0.6430   0.1471   0.3471   0.3133   0.00    0.0
2020/04/05 00:01:30.000   1710697.4032   3046082.6624   5318704.5976   2   7   0.4872   0.4090   0.4212  -0.1362   0.2266   0.2136   0.00    0.0
2020/04/05 00:02:00.000   1710697.4783   3046082.5713   5318704.8717   2   7   0.4058   0.3029   0.3010  -0.1585   0.1620   0.1557   0.00    0.0
2020/04/05 00:02:30.000   1710697.4970   3046082.3991   5318704.8505   2   7   0.3452   0.2375   0.2278  -0.1527   0.1229   0.1189   0.00    1.1
2020/04/05 00:03:00.000   1710697.6657   3046082.1467   5318704.9085   2   7   0.2978   0.1935   0.1797  -0.1407   0.0973   0.0939   0.00    1.2
2020/04/05 00:03:30.000   1710697.7892   3046081.9248   5318704.8412   2   7   0.2599   0.1619   0.1463  -0.1277   0.0796   0.0760   0.00    1.5
2020/04/05 00:04:00.000   1710697.8614   3046081.8242   5318704.8410   2   7   0.2290   0.1382   0.1219  -0.1155   0.0668   0.0628   0.00    1.3
2020/04/05 00:04:30.000   1710697.9935   3046081.7960   5318704.8272   2   7   0.2036   0.1199   0.1036  -0.1045   0.0571   0.0528   0.00    1.0
2020/04/05 00:05:00.000   1710698.0183   3046081.7742   5318704.7962   2   7   0.1823   0.1054   0.0895  -0.0949   0.0496   0.0451   0.00    1.6
2020/04/05 00:05:30.000   1710698.0185   3046081.7764   5318704.8042   2   7   0.1644   0.0936   0.0783  -0.0864   0.0436   0.0389   0.00    1.1
2020/04/05 00:06:00.000   1710698.0341   3046081.7708   5318704.8145   2   7   0.1491   0.0838   0.0692  -0.0791   0.0388   0.0340   0.00    1.3
2020/04/05 00:06:30.000   1710698.0440   3046081.7493   5318704.8011   2   7   0.1361   0.0757   0.0618  -0.0726   0.0348   0.0300   0.00    1.0
2020/04/05 00:07:00.000   1710698.1289   3046081.7343   5318704.8289   2   7   0.1248   0.0688   0.0556  -0.0670   0.0315   0.0267   0.00    1.0
2020/04/05 00:07:30.000   1710698.1237   3046081.7259   5318704.8090   2   7   0.1150   0.0629   0.0504  -0.0620   0.0287   0.0239   0.00    1.1
2020/04/05 00:08:00.000   1710698.1303   3046081.6798   5318704.7793   2   7   0.1064   0.0578   0.0460  -0.0576   0.0263   0.0216   0.00    1.3
2020/04/05 00:08:30.000   1710698.1618   3046081.6274   5318704.7796   2   7   0.0989   0.0534   0.0422  -0.0537   0.0242   0.0196   0.00    1.2
2020/04/05 00:09:00.000   1710698.1411   3046081.5969   5318704.7496   2   7   0.0922   0.0495   0.0388  -0.0502   0.0223   0.0179   0.00    1.4
2020/04/05 00:09:30.000   1710698.1373   3046081.5930   5318704.7258   2   7   0.0863   0.0461   0.0359  -0.0471   0.0207   0.0164   0.00    1.1
2020/04/05 00:10:00.000   1710698.0918   3046081.5741   5318704.6834   2   7   0.0810   0.0430   0.0334  -0.0443   0.0193   0.0151   0.00    2.5
2020/04/05 00:10:30.000   1710698.0956   3046081.5478   5318704.6544   2   7   0.0762   0.0403   0.0311  -0.0418   0.0181   0.0140   0.00    2.1
2020/04/05 00:11:00.000   1710698.0695   3046081.5524   5318704.6431   2   6   0.0719   0.0380   0.0294  -0.0395   0.0173   0.0131   0.00    1.2
2020/04/05 00:11:30.000   1710698.0707   3046081.5489   5318704.6472   2   6   0.0681   0.0359   0.0278  -0.0374   0.0165   0.0123   0.00    1.9
2020/04/05 00:12:00.000   1710698.0802   3046081.5368   5318704.6493   2   6   0.0646   0.0340   0.0263  -0.0356   0.0157   0.0115   0.00    1.2
2020/04/05 00:12:30.000   1710698.0831   3046081.5429   5318704.6561   2   6   0.0614   0.0323   0.0249  -0.0339   0.0150   0.0108   0.00    1.8
2020/04/05 00:13:00.000   1710698.0883   3046081.5390   5318704.6577   2   6   0.0584   0.0307   0.0237  -0.0323   0.0144   0.0102   0.00    1.7
2020/04/05 00:13:30.000   1710698.1135   3046081.5318   5318704.6671   2   6   0.0557   0.0292   0.0225  -0.0309   0.0137   0.0096   0.00    1.0
2020/04/05 00:14:00.000   1710698.1377   3046081.5144   5318704.6765   2   6   0.0533   0.0279   0.0214  -0.0295   0.0131   0.0091   0.00    1.5
2020/04/05 00:14:30.000   1710698.1462   3046081.5098   5318704.6907   2   6   0.0510   0.0266   0.0204  -0.0283   0.0126   0.0086   0.00    1.6
2020/04/05 00:15:00.000   1710698.1573   3046081.5049   5318704.7010   2   6   0.0489   0.0255   0.0195  -0.0272   0.0121   0.0081   0.00    1.3
2020/04/05 00:15:30.000   1710698.1622   3046081.5028   5318704.7116   2   6   0.0469   0.0244   0.0187  -0.0261   0.0116   0.0077   0.00    1.1
2020/04/05 00:16:00.000   1710698.1587   3046081.4971   5318704.7155   2   6   0.0451   0.0234   0.0179  -0.0252   0.0111   0.0074   0.00    1.1
2020/04/05 00:16:30.000   1710698.1474   3046081.4912   5318704.7206   2   6   0.0434   0.0225   0.0171  -0.0243   0.0107   0.0070   0.00    1.7
2020/04/05 00:17:00.000   1710698.1423   3046081.4896   5318704.7264   2   6   0.0419   0.0216   0.0164  -0.0234   0.0103   0.0067   0.00    1.0
2020/04/05 00:17:30.000   1710698.1188   3046081.4883   5318704.7271   2   6   0.0404   0.0208   0.0158  -0.0226   0.0099   0.0064   0.00    1.5
2020/04/05 00:18:00.000   1710698.1059   3046081.4871   5318704.7333   2   6   0.0390   0.0201   0.0152  -0.0219   0.0095   0.0062   0.00    1.1
2020/04/05 00:18:30.000   1710698.0812   3046081.4879   5318704.7342   2   6   0.0377   0.0194   0.0146  -0.0212   0.0092   0.0059   0.00    1.0
2020/04/05 00:19:00.000   1710698.0668   3046081.4883   5318704.7359   2   6   0.0365   0.0187   0.0141  -0.0206   0.0089   0.0057   0.00    1.3
2020/04/05 00:19:30.000   1710698.0521   3046081.4932   5318704.7352   2   6   0.0354   0.0181   0.0136  -0.0199   0.0086   0.0055   0.00    1.1
2020/04/05 00:20:00.000   1710698.0383   3046081.4954   5318704.7302   2   6   0.0343   0.0176   0.0131  -0.0194   0.0083   0.0053   0.00    1.3
2020/04/05 00:20:30.000   1710698.0223   3046081.5020   5318704.7280   2   6   0.0333   0.0170   0.0127  -0.0188   0.0080   0.0051   0.00    1.1
2020/04/05 00:21:00.000   1710698.0162   3046081.5062   5318704.7264   2   6   0.0324   0.0165   0.0123  -0.0183   0.0078   0.0049   0.00    1.3
2020/04/05 00:21:30.000   1710698.0037   3046081.5129   5318704.7210   2   6   0.0315   0.0160   0.0119  -0.0178   0.0075   0.0048   0.00    1.0
2020/04/05 00:22:00.000   1710697.9837   3046081.5246   5318704.7132   2   6   0.0307   0.0156   0.0115  -0.0174   0.0073   0.0046   0.00    1.3
2020/04/05 00:22:30.000   1710697.9689   3046081.5380   5318704.7044   2   6   0.0299   0.0151   0.0111  -0.0170   0.0071   0.0045   0.00    1.3
2020/04/05 00:23:00.000   1710697.9516   3046081.5502   5318704.6891   2   6   0.0291   0.0147   0.0108  -0.0165   0.0068   0.0043   0.00    1.4
2020/04/05 00:23:30.000   1710697.9313   3046081.5647   5318704.6752   2   6   0.0284   0.0143   0.0105  -0.0162   0.0066   0.0042   0.00    1.9
2020/04/05 00:24:00.000   1710697.9231   3046081.5770   5318704.6626   2   6   0.0277   0.0139   0.0102  -0.0158   0.0065   0.0041   0.00    1.4
2020/04/05 00:24:30.000   1710697.9055   3046081.5949   5318704.6513   2   6   0.0271   0.0136   0.0099  -0.0154   0.0063   0.0040   0.00    1.1
2020/04/05 00:25:00.000   1710697.8925   3046081.6110   5318704.6405   2   6   0.0264   0.0133   0.0096  -0.0151   0.0061   0.0039   0.00    1.4
2020/04/05 00:25:30.000   1710697.8780   3046081.6229   5318704.6259   2   6   0.0259   0.0129   0.0094  -0.0148   0.0059   0.0038   0.00    1.4
2020/04/05 00:26:00.000   1710697.8609   3046081.6317   5318704.6118   2   6   0.0253   0.0126   0.0091  -0.0145   0.0058   0.0037   0.00    1.4
2020/04/05 00:26:30.000   1710697.8397   3046081.6438   5318704.6035   2   6   0.0248   0.0124   0.0089  -0.0142   0.0056   0.0037   0.00    1.3
2020/04/05 00:27:00.000   1710697.8206   3046081.6560   5318704.5950   2   6   0.0243   0.0121   0.0087  -0.0139   0.0055   0.0036   0.00    2.2
2020/04/05 00:27:30.000   1710697.8097   3046081.6633   5318704.5827   2   6   0.0238   0.0118   0.0084  -0.0137   0.0053   0.0035   0.00    2.2
2020/04/05 00:28:00.000   1710697.8050   3046081.6679   5318704.5727   2   6   0.0233   0.0116   0.0082  -0.0134   0.0052   0.0034   0.00    2.2
2020/04/05 00:28:30.000   1710697.8049   3046081.6714   5318704.5635   2   6   0.0229   0.0113   0.0080  -0.0132   0.0051   0.0034   0.00    2.1
2020/04/05 00:29:00.000   1710697.8082   3046081.6743   5318704.5564   2   6   0.0224   0.0111   0.0078  -0.0129   0.0049   0.0033   0.00    2.1
2020/04/05 00:29:30.000   1710697.8212   3046081.6751   5318704.5522   2   6   0.0220   0.0109   0.0077  -0.0127   0.0048   0.0033   0.00    2.0
2020/04/05 00:30:00.000   1710697.8391   3046081.6720   5318704.5463   2   6   0.0217   0.0107   0.0075  -0.0125   0.0047   0.0032   0.00    1.9
2020/04/05 00:30:30.000   1710697.8497   3046081.6706   5318704.5389   2   6   0.0213   0.0105   0.0073  -0.0123   0.0046   0.0032   0.00    1.8
2020/04/05 00:31:00.000   1710697.8552   3046081.6697   5318704.5321   2   6   0.0209   0.0103   0.0072  -0.0121   0.0045   0.0031   0.00    1.7
2020/04/05 00:31:30.000   1710697.8581   3046081.6678   5318704.5245   2   6   0.0206   0.0101   0.0070  -0.0119   0.0044   0.0031   0.00    1.6
2020/04/05 00:32:00.000   1710697.8573   3046081.6686   5318704.5199   2   6   0.0202   0.0099   0.0069  -0.0117   0.0043   0.0031   0.00    1.0
2020/04/05 00:32:30.000   1710697.8582   3046081.6650   5318704.5124   2   6   0.0199   0.0097   0.0067  -0.0116   0.0042   0.0030   0.00    1.4
2020/04/05 00:33:00.000   1710697.8630   3046081.6598   5318704.5054   2   6   0.0196   0.0096   0.0066  -0.0114   0.0041   0.0030   0.00    1.0
2020/04/05 00:33:30.000   1710697.8637   3046081.6554   5318704.4989   2   6   0.0193   0.0094   0.0064  -0.0113   0.0040   0.0030   0.00    1.1
2020/04/05 00:34:00.000   1710697.8628   3046081.6503   5318704.4923   2   6   0.0191   0.0093   0.0063  -0.0111   0.0039   0.0029   0.00    1.1
2020/04/05 00:34:30.000   1710697.8658   3046081.6434   5318704.4880   2   6   0.0188   0.0091   0.0062  -0.0110   0.0038   0.0029   0.00    1.0
2020/04/05 00:35:00.000   1710697.8627   3046081.6370   5318704.4819   2   6   0.0185   0.0090   0.0061  -0.0108   0.0037   0.0029   0.00    1.1
2020/04/05 00:35:30.000   1710697.8609   3046081.6295   5318704.4766   2   6   0.0183   0.0088   0.0060  -0.0107   0.0037   0.0029   0.00    1.5
2020/04/05 00:36:00.000   1710697.8623   3046081.6228   5318704.4719   2   6   0.0180   0.0087   0.0059  -0.0105   0.0036   0.0028   0.00    1.1
2020/04/05 00:36:30.000   1710697.8623   3046081.6167   5318704.4687   2   6   0.0178   0.0086   0.0057  -0.0104   0.0035   0.0028   0.00    1.4
2020/04/05 00:37:00.000   1710697.8592   3046081.6105   5318704.4649   2   6   0.0176   0.0085   0.0056  -0.0103   0.0034   0.0028   0.00    1.1
2020/04/05 00:37:30.000   1710697.8584   3046081.6032   5318704.4604   2   6   0.0173   0.0084   0.0055  -0.0102   0.0034   0.0028   0.00    1.1
2020/04/05 00:38:00.000   1710697.8598   3046081.5934   5318704.4550   2   6   0.0171   0.0082   0.0055  -0.0101   0.0033   0.0028   0.00    1.0
2020/04/05 00:38:30.000   1710697.8619   3046081.5823   5318704.4491   2   6   0.0169   0.0081   0.0054  -0.0100   0.0032   0.0028   0.00    1.1
2020/04/05 00:39:00.000   1710697.8572   3046081.5732   5318704.4430   2   6   0.0167   0.0080   0.0053  -0.0099   0.0032   0.0028   0.00    1.0
2020/04/05 00:39:30.000   1710697.8544   3046081.5639   5318704.4375   2   6   0.0166   0.0079   0.0052  -0.0097   0.0031   0.0027   0.00    1.1
2020/04/05 00:40:00.000   1710697.8533   3046081.5540   5318704.4330   2   6   0.0164   0.0078   0.0051  -0.0097   0.0030   0.0027   0.00    1.0
2020/04/05 00:40:30.000   1710697.8481   3046081.5470   5318704.4299   2   6   0.0162   0.0077   0.0050  -0.0096   0.0030   0.0027   0.00    1.0
2020/04/05 00:41:00.000   1710697.8396   3046081.5415   5318704.4269   2   6   0.0160   0.0076   0.0049  -0.0095   0.0029   0.0027   0.00    1.1
2020/04/05 00:41:30.000   1710697.8299   3046081.5363   5318704.4248   2   6   0.0159   0.0075   0.0049  -0.0094   0.0029   0.0027   0.00    1.2
2020/04/05 00:42:00.000   1710697.8171   3046081.5325   5318704.4240   2   6   0.0157   0.0075   0.0048  -0.0093   0.0028   0.0027   0.00    1.2
2020/04/05 00:42:30.000   1710697.8054   3046081.5294   5318704.4238   2   6   0.0155   0.0074   0.0047  -0.0092   0.0027   0.0027   0.00    1.1
2020/04/05 00:43:00.000   1710697.7913   3046081.5272   5318704.4239   2   6   0.0154   0.0073   0.0046  -0.0091   0.0027   0.0027   0.00    1.2
2020/04/05 00:43:30.000   1710697.7764   3046081.5261   5318704.4246   2   6   0.0152   0.0072   0.0046  -0.0090   0.0026   0.0027   0.00    1.2
2020/04/05 00:44:00.000   1710697.7626   3046081.5253   5318704.4264   2   6   0.0151   0.0071   0.0045  -0.0090   0.0026   0.0027   0.00    1.1
2020/04/05 00:44:30.000   1710697.7487   3046081.5255   5318704.4287   2   6   0.0150   0.0071   0.0044  -0.0089   0.0025   0.0027   0.00    1.3
2020/04/05 00:45:00.000   1710697.7349   3046081.5243   5318704.4297   2   6   0.0148   0.0070   0.0044  -0.0088   0.0025   0.0027   0.00    1.0
2020/04/05 00:45:30.000   1710697.7237   3046081.5229   5318704.4312   2   6   0.0147   0.0069   0.0043  -0.0088   0.0024   0.0027   0.00    1.3
2020/04/05 00:46:00.000   1710697.7067   3046081.5235   5318704.4331   2   6   0.0146   0.0069   0.0043  -0.0087   0.0024   0.0027   0.00    1.6
2020/04/05 00:46:30.000   1710697.6923   3046081.5241   5318704.4365   2   6   0.0145   0.0068   0.0042  -0.0086   0.0023   0.0027   0.00    1.4
2020/04/05 00:47:00.000   1710697.6785   3046081.5250   5318704.4408   2   6   0.0144   0.0067   0.0042  -0.0086   0.0022   0.0028   0.00    1.2
2020/04/05 00:47:30.000   1710697.6649   3046081.5262   5318704.4457   2   6   0.0143   0.0067   0.0041  -0.0085   0.0022   0.0029   0.00    1.1
2020/04/05 00:48:00.000   1710697.6519   3046081.5274   5318704.4500   2   6   0.0143   0.0066   0.0041  -0.0085   0.0021   0.0029   0.00    1.1
2020/04/05 00:48:30.000   1710697.6403   3046081.5290   5318704.4544   2   6   0.0142   0.0066   0.0041  -0.0084   0.0021   0.0030   0.00    1.1
2020/04/05 00:49:00.000   1710697.6278   3046081.5311   5318704.4590   2   6   0.0142   0.0065   0.0040  -0.0084   0.0020   0.0031   0.00    1.1
2020/04/05 00:49:30.000   1710697.6142   3046081.5341   5318704.4643   2   6   0.0141   0.0065   0.0040  -0.0084   0.0019   0.0031   0.00    1.0
2020/04/05 00:50:00.000   1710697.5997   3046081.5378   5318704.4696   2   6   0.0141   0.0064   0.0039  -0.0083   0.0019   0.0032   0.00    1.2
2020/04/05 00:50:30.000   1710697.5850   3046081.5420   5318704.4753   2   6   0.0140   0.0064   0.0039  -0.0083   0.0018   0.0032   0.00    1.1
2020/04/05 00:51:00.000   1710697.5676   3046081.5479   5318704.4820   2   6   0.0140   0.0063   0.0039  -0.0083   0.0017   0.0033   0.00    1.1
2020/04/05 00:51:30.000   1710697.5625   3046081.5476   5318704.4860   2   5   0.0140   0.0063   0.0039  -0.0083   0.0017   0.0033   0.00    1.1
2020/04/05 00:52:00.000   1710697.5568   3046081.5471   5318704.4898   2   5   0.0139   0.0063   0.0038  -0.0083   0.0017   0.0033   0.00    1.0
2020/04/05 00:52:30.000   1710697.5506   3046081.5473   5318704.4937   2   5   0.0139   0.0063   0.0038  -0.0083   0.0016   0.0033   0.00    1.0
2020/04/05 00:53:00.000   1710697.5442   3046081.5477   5318704.4976   2   5   0.0139   0.0063   0.0038  -0.0083   0.0016   0.0033   0.00    1.0
2020/04/05 00:53:30.000   1710697.5377   3046081.5489   5318704.5028   2   5   0.0139   0.0062   0.0038  -0.0083   0.0016   0.0034   0.00    1.1
2020/04/05 00:54:00.000   1710697.5301   3046081.5497   5318704.5076   2   5   0.0139   0.0062   0.0037  -0.0083   0.0015   0.0034   0.00    1.1
2020/04/05 00:54:30.000   1710697.5221   3046081.5507   5318704.5123   2   5   0.0139   0.0062   0.0037  -0.0083   0.0015   0.0034   0.00    1.2
2020/04/05 00:55:00.000   1710697.5136   3046081.5523   5318704.5172   2   5   0.0139   0.0062   0.0037  -0.0083   0.0014   0.0034   0.00    1.2
2020/04/05 00:55:30.000   1710697.5048   3046081.5544   5318704.5225   2   5   0.0139   0.0062   0.0037  -0.0083   0.0014   0.0034   0.00    1.2
2020/04/05 00:56:00.000   1710697.4959   3046081.5566   5318704.5274   2   5   0.0139   0.0062   0.0036  -0.0083   0.0014   0.0034   0.00    1.3
2020/04/05 00:56:30.000   1710697.4866   3046081.5589   5318704.5325   2   5   0.0138   0.0061   0.0036  -0.0083   0.0013   0.0035   0.00    1.4
2020/04/05 00:57:00.000   1710697.4764   3046081.5623   5318704.5383   2   5   0.0138   0.0061   0.0036  -0.0082   0.0013   0.0035   0.00    1.4
2020/04/05 00:57:30.000   1710697.4656   3046081.5662   5318704.5443   2   5   0.0138   0.0061   0.0036  -0.0082   0.0012   0.0035   0.00    1.4
2020/04/05 00:58:00.000   1710697.4540   3046081.5704   5318704.5505   2   5   0.0138   0.0061   0.0035  -0.0082   0.0011   0.0035   0.00    1.4
2020/04/05 00:58:30.000   1710697.4423   3046081.5742   5318704.5563   2   5   0.0138   0.0061   0.0035  -0.0082   0.0011   0.0035   0.00    1.5
2020/04/05 00:59:00.000   1710697.4304   3046081.5786   5318704.5625   2   5   0.0138   0.0061   0.0035  -0.0082   0.0010   0.0036   0.00    1.5
2020/04/05 00:59:30.000   1710697.4179   3046081.5835   5318704.5688   2   5   0.0137   0.0060   0.0035  -0.0082   0.0009   0.0036   0.00    1.5
2020/04/05 01:00:00.000   1710697.4041   3046081.5893   5318704.5758   2   5   0.0137   0.0060   0.0034  -0.0082   0.0009   0.0036   0.00    1.5
2020/04/05 01:00:30.000   1710697.3904   3046081.5947   5318704.5819   2   5   0.0137   0.0060   0.0034  -0.0082   0.0008   0.0036   0.00    1.5
2020/04/05 01:01:00.000   1710697.3767   3046081.6006   5318704.5881   2   5   0.0137   0.0060   0.0034  -0.0082   0.0007   0.0037   0.00    1.4
2020/04/05 01:01:30.000   1710697.3618   3046081.6074   5318704.5948   2   5   0.0137   0.0060   0.0034  -0.0082   0.0006   0.0037   0.00    1.4
2020/04/05 01:02:00.000   1710697.3461   3046081.6145   5318704.6015   2   5   0.0137   0.0060   0.0034  -0.0082   0.0005   0.0037   0.00    1.3
2020/04/05 01:02:30.000   1710697.3301   3046081.6216   5318704.6080   2   5   0.0136   0.0059   0.0033  -0.0082   0.0003   0.0037   0.00    1.3
2020/04/05 01:03:00.000   1710697.3135   3046081.6286   5318704.6140   2   5   0.0136   0.0059   0.0033  -0.0082  -0.0003   0.0037   0.00    1.2
2020/04/05 01:03:30.000   1710697.2969   3046081.6357   5318704.6200   2   6   0.0136   0.0059   0.0033  -0.0082  -0.0005   0.0038   0.00    1.0
2020/04/05 01:04:00.000   1710697.2808   3046081.6424   5318704.6256   2   6   0.0136   0.0059   0.0033  -0.0082  -0.0006   0.0038   0.00    1.0
2020/04/05 01:04:30.000   1710697.2641   3046081.6486   5318704.6306   2   6   0.0136   0.0059   0.0033  -0.0081  -0.0007   0.0038   0.00    1.0
2020/04/05 01:05:00.000   1710697.2468   3046081.6555   5318704.6359   2   6   0.0135   0.0058   0.0032  -0.0081  -0.0008   0.0038   0.00    1.1
2020/04/05 01:05:30.000   1710697.2285   3046081.6630   5318704.6417   2   6   0.0135   0.0058   0.0032  -0.0081  -0.0009   0.0039   0.00    1.0
2020/04/05 01:06:00.000   1710697.2096   3046081.6705   5318704.6472   2   6   0.0135   0.0058   0.0032  -0.0081  -0.0009   0.0039   0.00    1.0
2020/04/05 01:06:30.000   1710697.1907   3046081.6781   5318704.6528   2   6   0.0135   0.0058   0.0032  -0.0081  -0.0010   0.0039   0.00    1.1
2020/04/05 01:07:00.000   1710697.1713   3046081.6856   5318704.6579   2   6   0.0134   0.0058   0.0032  -0.0081  -0.0011   0.0039   0.00    1.1
2020/04/05 01:07:30.000   1710697.1520   3046081.6930   5318704.6629   2   6   0.0134   0.0058   0.0032  -0.0081  -0.0011   0.0039   0.00    1.1
2020/04/05 01:08:00.000   1710697.1331   3046081.7000   5318704.6674   2   6   0.0134   0.0057   0.0032  -0.0081  -0.0012   0.0040   0.00    1.1
2020/04/05 01:08:30.000   1710697.1132   3046081.7076   5318704.6721   2   6   0.0133   0.0057   0.0031  -0.0080  -0.0012   0.0040   0.00    1.4
2020/04/05 01:09:00.000   1710697.0931   3046081.7150   5318704.6765   2   5   0.0133   0.0057   0.0031  -0.0080  -0.0013   0.0040   0.00    1.1
2020/04/05 01:09:30.000   1710697.0725   3046081.7228   5318704.6807   2   6   0.0133   0.0057   0.0031  -0.0080  -0.0013   0.0040   0.00    1.2
2020/04/05 01:10:00.000   1710697.0529   3046081.7304   5318704.6848   2   6   0.0132   0.0057   0.0031  -0.0080  -0.0014   0.0040   0.00    1.4
2020/04/05 01:10:30.000   1710697.0326   3046081.7383   5318704.6889   2   6   0.0132   0.0056   0.0031  -0.0080  -0.0014   0.0041   0.00    1.2
2020/04/05 01:11:00.000   1710697.0133   3046081.7458   5318704.6925   2   6   0.0132   0.0056   0.0031  -0.0079  -0.0015   0.0041   0.00    1.2
2020/04/05 01:11:30.000   1710696.9947   3046081.7527   5318704.6955   2   5   0.0131   0.0056   0.0031  -0.0079  -0.0015   0.0041   0.00    1.2
2020/04/05 01:12:00.000   1710696.9751   3046081.7603   5318704.6989   2   5   0.0131   0.0056   0.0030  -0.0079  -0.0015   0.0041   0.00    1.2
2020/04/05 01:12:30.000   1710696.9552   3046081.7681   5318704.7023   2   5   0.0130   0.0056   0.0030  -0.0079  -0.0016   0.0041   0.00    1.3
2020/04/05 01:13:00.000   1710696.9339   3046081.7764   5318704.7056   2   5   0.0130   0.0055   0.0030  -0.0078  -0.0016   0.0041   0.00    1.3
2020/04/05 01:13:30.000   1710696.9141   3046081.7841   5318704.7085   2   6   0.0130   0.0055   0.0030  -0.0078  -0.0016   0.0042   0.00    1.0
2020/04/05 01:14:00.000   1710696.8934   3046081.7922   5318704.7111   2   6   0.0129   0.0055   0.0030  -0.0078  -0.0017   0.0042   0.00    1.0
2020/04/05 01:14:30.000   1710696.8718   3046081.8004   5318704.7136   2   6   0.0129   0.0055   0.0030  -0.0078  -0.0017   0.0042   0.00    1.1
2020/04/05 01:15:00.000   1710696.8512   3046081.8081   5318704.7157   2   6   0.0128   0.0054   0.0030  -0.0077  -0.0017   0.0042   0.00    1.1
2020/04/05 01:15:30.000   1710696.8303   3046081.8159   5318704.7176   2   6   0.0128   0.0054   0.0030  -0.0077  -0.0017   0.0042   0.00    1.1
2020/04/05 01:16:00.000   1710696.8099   3046081.8236   5318704.7194   2   7   0.0127   0.0054   0.0030  -0.0077  -0.0017   0.0042   0.00    1.0
2020/04/05 01:16:30.000   1710696.7905   3046081.8306   5318704.7209   2   7   0.0126   0.0054   0.0029  -0.0076  -0.0018   0.0042   0.00    1.0
2020/04/05 01:17:00.000   1710696.7704   3046081.8380   5318704.7224   2   7   0.0126   0.0053   0.0029  -0.0076  -0.0018   0.0042   0.00    1.2
2020/04/05 01:17:30.000   1710696.7498   3046081.8453   5318704.7238   2   7   0.0125   0.0053   0.0029  -0.0075  -0.0018   0.0042   0.00    1.1
2020/04/05 01:18:00.000   1710696.7300   3046081.8522   5318704.7248   2   7   0.0124   0.0053   0.0029  -0.0075  -0.0018   0.0042   0.00    1.0
2020/04/05 01:18:30.000   1710696.7086   3046081.8600   5318704.7259   2   7   0.0124   0.0052   0.0029  -0.0075  -0.0018   0.0042   0.00    1.0
2020/04/05 01:19:00.000   1710696.6884   3046081.8671   5318704.7269   2   7   0.0123   0.0052   0.0029  -0.0074  -0.0018   0.0042   0.00    1.1
2020/04/05 01:19:30.000   1710696.6691   3046081.8742   5318704.7281   2   7   0.0122   0.0052   0.0029  -0.0074  -0.0019   0.0042   0.00    1.0
2020/04/05 01:20:00.000   1710696.6501   3046081.8811   5318704.7286   2   7   0.0121   0.0051   0.0029  -0.0073  -0.0019   0.0042   0.00    1.1
2020/04/05 01:20:30.000   1710696.6301   3046081.8885   5318704.7288   2   7   0.0121   0.0051   0.0029  -0.0073  -0.0019   0.0042   0.00    1.0
2020/04/05 01:21:00.000   1710696.6105   3046081.8954   5318704.7288   2   7   0.0120   0.0051   0.0028  -0.0072  -0.0019   0.0042   0.00    1.5
2020/04/05 01:21:30.000   1710696.5938   3046081.9015   5318704.7293   2   7   0.0119   0.0050   0.0028  -0.0072  -0.0019   0.0042   0.00    1.3
2020/04/05 01:22:00.000   1710696.5768   3046081.9076   5318704.7293   2   7   0.0118   0.0050   0.0028  -0.0071  -0.0019   0.0042   0.00    1.5
2020/04/05 01:22:30.000   1710696.5580   3046081.9143   5318704.7290   2   7   0.0117   0.0050   0.0028  -0.0070  -0.0019   0.0042   0.00    1.8
2020/04/05 01:23:00.000   1710696.5417   3046081.9202   5318704.7290   2   7   0.0116   0.0049   0.0028  -0.0070  -0.0019   0.0042   0.00    1.5
2020/04/05 01:23:30.000   1710696.5239   3046081.9265   5318704.7286   2   7   0.0115   0.0049   0.0028  -0.0069  -0.0019   0.0042   0.00    1.6
2020/04/05 01:24:00.000   1710696.5099   3046081.9312   5318704.7283   2   7   0.0114   0.0048   0.0028  -0.0069  -0.0019   0.0041   0.00    1.5
2020/04/05 01:24:30.000   1710696.4953   3046081.9364   5318704.7280   2   7   0.0113   0.0048   0.0028  -0.0068  -0.0019   0.0041   0.00    1.0
2020/04/05 01:25:00.000   1710696.4818   3046081.9408   5318704.7274   2   7   0.0112   0.0047   0.0027  -0.0067  -0.0019   0.0041   0.00    1.5
2020/04/05 01:25:30.000   1710696.4685   3046081.9456   5318704.7271   2   7   0.0111   0.0047   0.0027  -0.0067  -0.0019   0.0041   0.00    1.5
2020/04/05 01:26:00.000   1710696.4564   3046081.9495   5318704.7267   2   7   0.0110   0.0047   0.0027  -0.0066  -0.0018   0.0041   0.00    1.5
2020/04/05 01:26:30.000   1710696.4444   3046081.9536   5318704.7260   2   7   0.0108   0.0046   0.0027  -0.0065  -0.0018   0.0040   0.00    1.0
2020/04/05 01:27:00.000   1710696.4318   3046081.9579   5318704.7250   2   7   0.0107   0.0046   0.0027  -0.0064  -0.0018   0.0040   0.00    1.3
2020/04/05 01:27:30.000   1710696.4203   3046081.9618   5318704.7240   2   7   0.0106   0.0045   0.0027  -0.0064  -0.0018   0.0040   0.00    1.3
2020/04/05 01:28:00.000   1710696.4084   3046081.9659   5318704.7231   2   7   0.0105   0.0045   0.0027  -0.0063  -0.0018   0.0039   0.00    1.5
2020/04/05 01:28:30.000   1710696.3963   3046081.9702   5318704.7220   2   7   0.0104   0.0044   0.0026  -0.0062  -0.0018   0.0039   0.00    1.2
2020/04/05 01:29:00.000   1710696.3849   3046081.9744   5318704.7209   2   7   0.0102   0.0044   0.0026  -0.0061  -0.0018   0.0039   0.00    1.0
2020/04/05 01:29:30.000   1710696.3745   3046081.9784   5318704.7201   2   7   0.0101   0.0043   0.0026  -0.0061  -0.0017   0.0039   0.00    1.2
2020/04/05 01:30:00.000   1710696.3663   3046081.9814   5318704.7193   2   7   0.0100   0.0043   0.0026  -0.0060  -0.0017   0.0038   0.00    1.2
2020/04/05 01:30:30.000   1710696.3590   3046081.9842   5318704.7189   2   7   0.0099   0.0043   0.0026  -0.0059  -0.0017   0.0038   0.00    1.7
2020/04/05 01:31:00.000   1710696.3531   3046081.9866   5318704.7187   2   7   0.0098   0.0042   0.0026  -0.0058  -0.0017   0.0038   0.00    1.1
2020/04/05 01:31:30.000   1710696.3490   3046081.9884   5318704.7189   2   7   0.0096   0.0042   0.0026  -0.0058  -0.0017   0.0037   0.00    1.1
2020/04/05 01:32:00.000   1710696.3450   3046081.9901   5318704.7188   2   7   0.0095   0.0041   0.0025  -0.0057  -0.0017   0.0037   0.00    1.4
2020/04/05 01:32:30.000   1710696.3430   3046081.9913   5318704.7193   2   7   0.0094   0.0041   0.0025  -0.0056  -0.0016   0.0037   0.00    1.0
2020/04/05 01:33:00.000   1710696.3399   3046081.9925   5318704.7193   2   7   0.0093   0.0040   0.0025  -0.0055  -0.0016   0.0036   0.00    1.1
2020/04/05 01:33:30.000   1710696.3383   3046081.9934   5318704.7196   2   7   0.0091   0.0040   0.0025  -0.0054  -0.0016   0.0036   0.00    1.0
2020/04/05 01:34:00.000   1710696.3356   3046081.9947   5318704.7196   2   7   0.0090   0.0039   0.0025  -0.0054  -0.0016   0.0035   0.00    1.5
2020/04/05 01:34:30.000   1710696.3341   3046081.9955   5318704.7195   2   7   0.0089   0.0039   0.0025  -0.0053  -0.0015   0.0035   0.00    1.7
2020/04/05 01:35:00.000   1710696.3336   3046081.9957   5318704.7197   2   7   0.0088   0.0038   0.0024  -0.0052  -0.0015   0.0035   0.00    1.2
2020/04/05 01:35:30.000   1710696.3326   3046081.9964   5318704.7200   2   7   0.0086   0.0038   0.0024  -0.0051  -0.0015   0.0034   0.00    1.4
2020/04/05 01:36:00.000   1710696.3319   3046081.9969   5318704.7198   2   7   0.0085   0.0038   0.0024  -0.0051  -0.0015   0.0034   0.00    1.2
2020/04/05 01:36:30.000   1710696.3320   3046081.9972   5318704.7201   2   7   0.0084   0.0037   0.0024  -0.0050  -0.0015   0.0034   0.00    1.0
2020/04/05 01:37:00.000   1710696.3340   3046081.9968   5318704.7205   2   7   0.0083   0.0037   0.0024  -0.0049  -0.0014   0.0033   0.00    1.2
2020/04/05 01:37:30.000   1710696.3353   3046081.9968   5318704.7209   2   7   0.0082   0.0036   0.0024  -0.0048  -0.0014   0.0033   0.00    1.5
2020/04/05 01:38:00.000   1710696.3376   3046081.9965   5318704.7214   2   7   0.0081   0.0036   0.0023  -0.0048  -0.0014   0.0032   0.00    1.5
2020/04/05 01:38:30.000   1710696.3395   3046081.9964   5318704.7217   2   7   0.0079   0.0035   0.0023  -0.0047  -0.0014   0.0032   0.00    1.4
2020/04/05 01:39:00.000   1710696.3409   3046081.9966   5318704.7221   2   7   0.0078   0.0035   0.0023  -0.0046  -0.0013   0.0032   0.00    1.3
2020/04/05 01:39:30.000   1710696.3434   3046081.9964   5318704.7224   2   7   0.0077   0.0035   0.0023  -0.0046  -0.0013   0.0031   0.00    1.2
2020/04/05 01:40:00.000   1710696.3474   3046081.9959   5318704.7230   2   7   0.0076   0.0034   0.0023  -0.0045  -0.0013   0.0031   0.00    1.2
2020/04/05 01:40:30.000   1710696.3509   3046081.9956   5318704.7235   2   7   0.0075   0.0034   0.0023  -0.0044  -0.0013   0.0031   0.00    1.1
2020/04/05 01:41:00.000   1710696.3563   3046081.9945   5318704.7242   2   7   0.0074   0.0033   0.0023  -0.0044  -0.0012   0.0030   0.00    1.1
2020/04/05 01:41:30.000   1710696.3630   3046081.9931   5318704.7252   2   7   0.0073   0.0033   0.0022  -0.0043  -0.0012   0.0030   0.00    1.6
2020/04/05 01:42:00.000   1710696.3681   3046081.9923   5318704.7259   2   7   0.0072   0.0033   0.0022  -0.0042  -0.0012   0.0030   0.00    1.3
2020/04/05 01:42:30.000   1710696.3732   3046081.9916   5318704.7266   2   7   0.0071   0.0032   0.0022  -0.0042  -0.0012   0.0029   0.00    1.3
2020/04/05 01:43:00.000   1710696.3794   3046081.9907   5318704.7278   2   7   0.0070   0.0032   0.0022  -0.0041  -0.0011   0.0029   0.00    1.1
2020/04/05 01:43:30.000   1710696.3858   3046081.9898   5318704.7289   2   7   0.0069   0.0032   0.0022  -0.0040  -0.0011   0.0029   0.00    1.1
2020/04/05 01:44:00.000   1710696.3926   3046081.9888   5318704.7300   2   7   0.0068   0.0031   0.0022  -0.0040  -0.0011   0.0028   0.00    1.1
2020/04/05 01:44:30.000   1710696.4002   3046081.9875   5318704.7314   2   7   0.0067   0.0031   0.0021  -0.0039  -0.0011   0.0028   0.00    1.1
2020/04/05 01:45:00.000   1710696.4078   3046081.9862   5318704.7329   2   7   0.0066   0.0031   0.0021  -0.0039  -0.0011   0.0028   0.00    1.5
2020/04/05 01:45:30.000   1710696.4148   3046081.9855   5318704.7344   2   7   0.0065   0.0030   0.0021  -0.0038  -0.0010   0.0027   0.00    1.2
2020/04/05 01:46:00.000   1710696.4230   3046081.9844   5318704.7360   2   7   0.0064   0.0030   0.0021  -0.0037  -0.0010   0.0027   0.00    1.2
2020/04/05 01:46:30.000   1710696.4300   3046081.9838   5318704.7373   2   7   0.0063   0.0030   0.0021  -0.0037  -0.0010   0.0027   0.00    1.1
2020/04/05 01:47:00.000   1710696.4372   3046081.9830   5318704.7386   2   7   0.0062   0.0029   0.0021  -0.0036  -0.0010   0.0026   0.00    1.1
2020/04/05 01:47:30.000   1710696.4445   3046081.9825   5318704.7401   2   7   0.0062   0.0029   0.0021  -0.0036  -0.0009   0.0026   0.00    1.0
2020/04/05 01:48:00.000   1710696.4515   3046081.9822   5318704.7416   2   7   0.0061   0.0029   0.0020  -0.0035  -0.0009   0.0026   0.00    1.0
2020/04/05 01:48:30.000   1710696.4589   3046081.9817   5318704.7431   2   7   0.0060   0.0028   0.0020  -0.0035  -0.0009   0.0025   0.00    1.1
2020/04/05 01:49:00.000   1710696.4660   3046081.9816   5318704.7447   2   7   0.0059   0.0028   0.0020  -0.0034  -0.0009   0.0025   0.00    1.5
2020/04/05 01:49:30.000   1710696.4713   3046081.9822   5318704.7461   2   7   0.0058   0.0028   0.0020  -0.0034  -0.0009   0.0025   0.00    1.0
2020/04/05 01:50:00.000   1710696.4770   3046081.9827   5318704.7474   2   7   0.0058   0.0028   0.0020  -0.0033  -0.0008   0.0025   0.00    1.0
2020/04/05 01:50:30.000   1710696.4828   3046081.9832   5318704.7486   2   7   0.0057   0.0027   0.0020  -0.0033  -0.0008   0.0024   0.00    1.3
2020/04/05 01:51:00.000   1710696.4893   3046081.9835   5318704.7498   2   7   0.0056   0.0027   0.0020  -0.0032  -0.0008   0.0024   0.00    1.1
2020/04/05 01:51:30.000   1710696.4952   3046081.9840   5318704.7510   2   7   0.0055   0.0027   0.0020  -0.0032  -0.0008   0.0024   0.00    1.2
2020/04/05 01:52:00.000   1710696.5012   3046081.9845   5318704.7523   2   8   0.0055   0.0027   0.0019  -0.0031  -0.0008   0.0023   0.00    1.0
2020/04/05 01:52:30.000   1710696.5061   3046081.9853   5318704.7531   2   8   0.0054   0.0026   0.0019  -0.0031  -0.0007   0.0023   0.00    1.0
2020/04/05 01:53:00.000   1710696.5117   3046081.9860   5318704.7541   2   8   0.0053   0.0026   0.0019  -0.0031  -0.0007   0.0023   0.00    1.2
2020/04/05 01:53:30.000   1710696.5171   3046081.9870   5318704.7551   2   8   0.0053   0.0026   0.0019  -0.0030  -0.0007   0.0023   0.00    1.0
2020/04/05 01:54:00.000   1710696.5238   3046081.9877   5318704.7564   2   8   0.0052   0.0026   0.0019  -0.0030  -0.0007   0.0022   0.00    1.0
2020/04/05 01:54:30.000   1710696.5301   3046081.9885   5318704.7576   2   8   0.0051   0.0025   0.0019  -0.0029  -0.0007   0.0022   0.00    1.0
2020/04/05 01:55:00.000   1710696.5364   3046081.9892   5318704.7586   2   8   0.0051   0.0025   0.0019  -0.0029  -0.0007   0.0022   0.00    1.0
2020/04/05 01:55:30.000   1710696.5425   3046081.9898   5318704.7596   2   8   0.0050   0.0025   0.0019  -0.0028  -0.0006   0.0022   0.00    1.1
2020/04/05 01:56:00.000   1710696.5484   3046081.9905   5318704.7604   2   8   0.0050   0.0025   0.0019  -0.0028  -0.0006   0.0022   0.00    1.0
2020/04/05 01:56:30.000   1710696.5541   3046081.9914   5318704.7613   2   8   0.0049   0.0025   0.0018  -0.0028  -0.0006   0.0021   0.00    1.1
2020/04/05 01:57:00.000   1710696.5593   3046081.9926   5318704.7621   2   8   0.0048   0.0024   0.0018  -0.0027  -0.0006   0.0021   0.00    1.0
2020/04/05 01:57:30.000   1710696.5654   3046081.9935   5318704.7630   2   8   0.0048   0.0024   0.0018  -0.0027  -0.0006   0.0021   0.00    1.2
2020/04/05 01:58:00.000   1710696.5707   3046081.9948   5318704.7640   2   8   0.0047   0.0024   0.0018  -0.0027  -0.0005   0.0021   0.00    1.0
2020/04/05 01:58:30.000   1710696.5767   3046081.9957   5318704.7651   2   8   0.0047   0.0024   0.0018  -0.0026  -0.0005   0.0020   0.00    1.1
2020/04/05 01:59:00.000   1710696.5822   3046081.9971   5318704.7661   2   8   0.0046   0.0024   0.0018  -0.0026  -0.0005   0.0020   0.00    1.1
2020/04/05 01:59:30.000   1710696.5881   3046081.9982   5318704.7672   2   8   0.0046   0.0023   0.0018  -0.0026  -0.0005   0.0020   0.00    1.1
2020/04/05 02:00:00.000   1710696.5939   3046081.9993   5318704.7684   2   8   0.0045   0.0023   0.0018  -0.0025  -0.0005   0.0020   0.00    1.0
2020/04/05 02:00:30.000   1710696.5998   3046082.0005   5318704.7696   2   8   0.0045   0.0023   0.0018  -0.0025  -0.0005   0.0020   0.00    1.0
2020/04/05 02:01:00.000   1710696.6049   3046082.0021   5318704.7709   2   8   0.0044   0.0023   0.0017  -0.0025  -0.0004   0.0020   0.00    1.0
2020/04/05 02:01:30.000   1710696.6097   3046082.0037   5318704.7721   2   8   0.0044   0.0023   0.0017  -0.0024  -0.0004   0.0019   0.00    1.2
2020/04/05 02:02:00.000   1710696.6146   3046082.0052   5318704.7733   2   8   0.0043   0.0023   0.0017  -0.0024  -0.0004   0.0019   0.00    1.2
2020/04/05 02:02:30.000   1710696.6198   3046082.0068   5318704.7748   2   8   0.0043   0.0022   0.0017  -0.0024  -0.0004   0.0019   0.00    1.1
2020/04/05 02:03:00.000   1710696.6254   3046082.0082   5318704.7765   2   8   0.0042   0.0022   0.0017  -0.0023  -0.0004   0.0019   0.00    1.0
2020/04/05 02:03:30.000   1710696.6308   3046082.0095   5318704.7782   2   8   0.0042   0.0022   0.0017  -0.0023  -0.0003   0.0019   0.00    1.1
2020/04/05 02:04:00.000   1710696.6365   3046082.0108   5318704.7799   2   8   0.0042   0.0022   0.0017  -0.0023  -0.0003   0.0018   0.00    1.0
2020/04/05 02:04:30.000   1710696.6426   3046082.0120   5318704.7817   2   8   0.0041   0.0022   0.0017  -0.0022  -0.0003   0.0018   0.00    1.0
2020/04/05 02:05:00.000   1710696.6486   3046082.0130   5318704.7834   2   8   0.0041   0.0022   0.0017  -0.0022  -0.0003   0.0018   0.00    1.1
2020/04/05 02:05:30.000   1710696.6546   3046082.0139   5318704.7853   2   8   0.0040   0.0021   0.0017  -0.0022  -0.0003   0.0018   0.00    1.0
2020/04/05 02:06:00.000   1710696.6605   3046082.0150   5318704.7872   2   8   0.0040   0.0021   0.0017  -0.0022  -0.0002   0.0018   0.00    1.1
2020/04/05 02:06:30.000   1710696.6670   3046082.0159   5318704.7893   2   8   0.0040   0.0021   0.0017  -0.0021  -0.0002   0.0018   0.00    1.1
2020/04/05 02:07:00.000   1710696.6741   3046082.0165   5318704.7916   2   8   0.0039   0.0021   0.0016  -0.0021  -0.0002   0.0018   0.00    1.1
2020/04/05 02:07:30.000   1710696.6802   3046082.0172   5318704.7937   2   8   0.0039   0.0021   0.0016  -0.0021  -0.0002   0.0017   0.00    1.1
2020/04/05 02:08:00.000   1710696.6862   3046082.0178   5318704.7957   2   8   0.0038   0.0021   0.0016  -0.0021  -0.0001   0.0017   0.00    1.1
2020/04/05 02:08:30.000   1710696.6920   3046082.0185   5318704.7977   2   8   0.0038   0.0021   0.0016  -0.0020  -0.0001   0.0017   0.00    1.0
2020/04/05 02:09:00.000   1710696.6977   3046082.0191   5318704.7997   2   8   0.0038   0.0020   0.0016  -0.0020  -0.0001   0.0017   0.00    1.1
2020/04/05 02:09:30.000   1710696.7029   3046082.0198   5318704.8016   2   8   0.0037   0.0020   0.0016  -0.0020   0.0001   0.0017   0.00    1.0
2020/04/05 02:10:00.000   1710696.7083   3046082.0202   5318704.8036   2   8   0.0037   0.0020   0.0016  -0.0020   0.0001   0.0017   0.00    1.0
2020/04/05 02:10:30.000   1710696.7136   3046082.0208   5318704.8056   2   8   0.0037   0.0020   0.0016  -0.0019   0.0001   0.0017   0.00    1.2
2020/04/05 02:11:00.000   1710696.7188   3046082.0213   5318704.8075   2   8   0.0036   0.0020   0.0016  -0.0019   0.0002   0.0016   0.00    1.0
2020/04/05 02:11:30.000   1710696.7240   3046082.0219   5318704.8096   2   8   0.0036   0.0020   0.0016  -0.0019   0.0002   0.0016   0.00    1.0
2020/04/05 02:12:00.000   1710696.7292   3046082.0224   5318704.8117   2   8   0.0036   0.0020   0.0016  -0.0019   0.0002   0.0016   0.00    1.0
2020/04/05 02:12:30.000   1710696.7342   3046082.0229   5318704.8138   2   8   0.0035   0.0020   0.0016  -0.0018   0.0002   0.0016   0.00    1.0
2020/04/05 02:13:00.000   1710696.7386   3046082.0235   5318704.8158   2   8   0.0035   0.0019   0.0015  -0.0018   0.0002   0.0016   0.00    1.0
2020/04/05 02:13:30.000   1710696.7429   3046082.0241   5318704.8176   2   8   0.0035   0.0019   0.0015  -0.0018   0.0002   0.0016   0.00    1.1
2020/04/05 02:14:00.000   1710696.7471   3046082.0246   5318704.8195   2   8   0.0035   0.0019   0.0015  -0.0018   0.0003   0.0016   0.00    1.0
2020/04/05 02:14:30.000   1710696.7510   3046082.0253   5318704.8215   2   8   0.0034   0.0019   0.0015  -0.0018   0.0003   0.0016   0.00    1.2
2020/04/05 02:15:00.000   1710696.7545   3046082.0260   5318704.8233   2   8   0.0034   0.0019   0.0015  -0.0017   0.0003   0.0015   0.00    1.0
2020/04/05 02:15:30.000   1710696.7579   3046082.0267   5318704.8250   2   8   0.0034   0.0019   0.0015  -0.0017   0.0003   0.0015   0.00    1.0
2020/04/05 02:16:00.000   1710696.7610   3046082.0274   5318704.8267   2   8   0.0033   0.0019   0.0015  -0.0017   0.0003   0.0015   0.00    1.2
2020/04/05 02:16:30.000   1710696.7637   3046082.0283   5318704.8284   2   8   0.0033   0.0019   0.0015  -0.0017   0.0003   0.0015   0.00    1.1
2020/04/05 02:17:00.000   1710696.7661   3046082.0290   5318704.8300   2   8   0.0033   0.0019   0.0015  -0.0017   0.0003   0.0015   0.00    1.1
2020/04/05 02:17:30.000   1710696.7677   3046082.0301   5318704.8314   2   8   0.0033   0.0018   0.0015  -0.0016   0.0003   0.0015   0.00    1.1
2020/04/05 02:18:00.000   1710696.7693   3046082.0312   5318704.8329   2   8   0.0032   0.0018   0.0015  -0.0016   0.0003   0.0015   0.00    1.0
2020/04/05 02:18:30.000   1710696.7684   3046082.0318   5318704.8332   2   7   0.0032   0.0018   0.0015  -0.0016   0.0003   0.0015   0.00    1.1
2020/04/05 02:19:00.000   1710696.7675   3046082.0324   5318704.8336   2   7   0.0032   0.0018   0.0015  -0.0016   0.0004   0.0015   0.00    1.0
2020/04/05 02:19:30.000   1710696.7670   3046082.0327   5318704.8340   2   7   0.0032   0.0018   0.0015  -0.0016   0.0004   0.0015   0.00    1.1
2020/04/05 02:20:00.000   1710696.7666   3046082.0331   5318704.8345   2   7   0.0032   0.0018   0.0015  -0.0016   0.0004   0.0015   0.00    1.2
2020/04/05 02:20:30.000   1710696.7661   3046082.0336   5318704.8350   2   7   0.0031   0.0018   0.0015  -0.0015   0.0004   0.0015   0.00    1.1
2020/04/05 02:21:00.000   1710696.7655   3046082.0340   5318704.8353   2   7   0.0031   0.0018   0.0015  -0.0015   0.0004   0.0014   0.00    1.1
2020/04/05 02:21:30.000   1710696.7648   3046082.0346   5318704.8357   2   7   0.0031   0.0018   0.0015  -0.0015   0.0004   0.0014   0.00    1.1
2020/04/05 02:22:00.000   1710696.7644   3046082.0351   5318704.8360   2   7   0.0031   0.0018   0.0014  -0.0015   0.0004   0.0014   0.00    1.1
2020/04/05 02:22:30.000   1710696.7639   3046082.0355   5318704.8363   2   7   0.0031   0.0018   0.0014  -0.0015   0.0004   0.0014   0.00    1.1
2020/04/05 02:23:00.000   1710696.7636   3046082.0359   5318704.8366   2   7   0.0030   0.0017   0.0014  -0.0014   0.0004   0.0014   0.00    1.3
2020/04/05 02:23:30.000   1710696.7632   3046082.0362   5318704.8368   2   7   0.0030   0.0017   0.0014  -0.0014   0.0004   0.0014   0.00    1.2
2020/04/05 02:24:00.000   1710696.7631   3046082.0365   5318704.8371   2   7   0.0030   0.0017   0.0014  -0.0014   0.0004   0.0014   0.00    1.0
2020/04/05 02:24:30.000   1710696.7631   3046082.0368   5318704.8371   2   6   0.0030   0.0017   0.0014  -0.0014   0.0004   0.0014   0.00    1.0
2020/04/05 02:25:00.000   1710696.7627   3046082.0372   5318704.8372   2   6   0.0030   0.0017   0.0014  -0.0014   0.0004   0.0014   0.00    1.2
2020/04/05 02:25:30.000   1710696.7624   3046082.0376   5318704.8373   2   6   0.0029   0.0017   0.0014  -0.0014   0.0005   0.0014   0.00    1.1
2020/04/05 02:26:00.000   1710696.7621   3046082.0380   5318704.8374   2   6   0.0029   0.0017   0.0014  -0.0013   0.0005   0.0014   0.00    1.1
2020/04/05 02:26:30.000   1710696.7620   3046082.0384   5318704.8375   2   6   0.0029   0.0017   0.0014  -0.0013   0.0005   0.0014   0.00    1.0
2020/04/05 02:27:00.000   1710696.7619   3046082.0387   5318704.8375   2   6   0.0029   0.0017   0.0014  -0.0013   0.0005   0.0014   0.00    1.0
2020/04/05 02:27:30.000   1710696.7622   3046082.0390   5318704.8376   2   6   0.0029   0.0017   0.0014  -0.0013   0.0005   0.0014   0.00    1.0
2020/04/05 02:28:00.000   1710696.7624   3046082.0391   5318704.8376   2   6   0.0029   0.0017   0.0014  -0.0013   0.0005   0.0014   0.00    1.1
2020/04/05 02:28:30.000   1710696.7631   3046082.0392   5318704.8377   2   6   0.0028   0.0017   0.0014  -0.0013   0.0005   0.0014   0.00    1.1
2020/04/05 02:29:00.000   1710696.7637   3046082.0393   5318704.8377   2   6   0.0028   0.0017   0.0014  -0.0013   0.0005   0.0013   0.00    1.2
2020/04/05 02:29:30.000   1710696.7645   3046082.0394   5318704.8378   2   6   0.0028   0.0016   0.0014  -0.0012   0.0005   0.0013   0.00    1.1
2020/04/05 02:30:00.000   1710696.7656   3046082.0393   5318704.8379   2   6   0.0028   0.0016   0.0014  -0.0012   0.0005   0.0013   0.00    1.1
2020/04/05 02:30:30.000   1710696.7668   3046082.0391   5318704.8381   2   6   0.0028   0.0016   0.0014  -0.0012   0.0005   0.0013   0.00    1.0
2020/04/05 02:31:00.000   1710696.7679   3046082.0389   5318704.8382   2   6   0.0028   0.0016   0.0014  -0.0012   0.0005   0.0013   0.00    1.2
2020/04/05 02:31:30.000   1710696.7692   3046082.0386   5318704.8384   2   6   0.0028   0.0016   0.0014  -0.0012   0.0005   0.0013   0.00    1.0
2020/04/05 02:32:00.000   1710696.7709   3046082.0381   5318704.8387   2   6   0.0027   0.0016   0.0014  -0.0012   0.0005   0.0013   0.00    1.2
2020/04/05 02:32:30.000   1710696.7725   3046082.0377   5318704.8390   2   6   0.0027   0.0016   0.0014  -0.0011   0.0005   0.0013   0.00    1.0
2020/04/05 02:33:00.000   1710696.7741   3046082.0373   5318704.8393   2   6   0.0027   0.0016   0.0014  -0.0011   0.0005   0.0013   0.00    1.3
2020/04/05 02:33:30.000   1710696.7761   3046082.0368   5318704.8396   2   6   0.0027   0.0016   0.0014  -0.0011   0.0005   0.0013   0.00    1.1
2020/04/05 02:34:00.000   1710696.7780   3046082.0364   5318704.8400   2   6   0.0027   0.0016   0.0014  -0.0011   0.0005   0.0013   0.00    1.4
2020/04/05 02:34:30.000   1710696.7799   3046082.0361   5318704.8404   2   6   0.0027   0.0016   0.0014  -0.0011   0.0005   0.0013   0.00    1.1
2020/04/05 02:35:00.000   1710696.7823   3046082.0355   5318704.8410   2   6   0.0027   0.0016   0.0014  -0.0011   0.0005   0.0013   0.00    1.1
2020/04/05 02:35:30.000   1710696.7844   3046082.0352   5318704.8414   2   6   0.0027   0.0016   0.0014  -0.0011   0.0005   0.0013   0.00    1.2
2020/04/05 02:36:00.000   1710696.7866   3046082.0347   5318704.8419   2   7   0.0026   0.0016   0.0014  -0.0011   0.0006   0.0013   0.00    1.0
2020/04/05 02:36:30.000   1710696.7891   3046082.0342   5318704.8425   2   7   0.0026   0.0016   0.0013  -0.0010   0.0006   0.0013   0.00    1.0
2020/04/05 02:37:00.000   1710696.7915   3046082.0337   5318704.8430   2   7   0.0026   0.0016   0.0013  -0.0010   0.0006   0.0013   0.00    1.2
2020/04/05 02:37:30.000   1710696.7940   3046082.0332   5318704.8436   2   7   0.0026   0.0015   0.0013  -0.0010   0.0006   0.0013   0.00    1.0
2020/04/05 02:38:00.000   1710696.7966   3046082.0327   5318704.8443   2   7   0.0026   0.0015   0.0013  -0.0010   0.0006   0.0013   0.00    1.1
2020/04/05 02:38:30.000   1710696.7989   3046082.0322   5318704.8449   2   7   0.0026   0.0015   0.0013  -0.0010   0.0006   0.0013   0.00    1.1
2020/04/05 02:39:00.000   1710696.8013   3046082.0318   5318704.8455   2   7   0.0026   0.0015   0.0013  -0.0010   0.0006   0.0013   0.00    1.0
2020/04/05 02:39:30.000   1710696.8036   3046082.0314   5318704.8460   2   7   0.0026   0.0015   0.0013  -0.0010   0.0006   0.0013   0.00    1.0
2020/04/05 02:40:00.000   1710696.8060   3046082.0308   5318704.8466   2   7   0.0026   0.0015   0.0013  -0.0010   0.0006   0.0013   0.00    1.1
2020/04/05 02:40:30.000   1710696.8083   3046082.0303   5318704.8471   2   7   0.0025   0.0015   0.0013  -0.0009   0.0006   0.0012   0.00    1.1
2020/04/05 02:41:00.000   1710696.8103   3046082.0300   5318704.8476   2   7   0.0025   0.0015   0.0013  -0.0009   0.0006   0.0012   0.00    1.3
2020/04/05 02:41:30.000   1710696.8121   3046082.0299   5318704.8480   2   7   0.0025   0.0015   0.0013  -0.0009   0.0006   0.0012   0.00    1.1
2020/04/05 02:42:00.000   1710696.8138   3046082.0296   5318704.8484   2   7   0.0025   0.0015   0.0013  -0.0009   0.0006   0.0012   0.00    1.0
2020/04/05 02:42:30.000   1710696.8156   3046082.0293   5318704.8489   2   7   0.0025   0.0015   0.0013  -0.0009   0.0006   0.0012   0.00    1.0
2020/04/05 02:43:00.000   1710696.8174   3046082.0290   5318704.8495   2   7   0.0025   0.0015   0.0013  -0.0009   0.0006   0.0012   0.00    1.0
2020/04/05 02:43:30.000   1710696.8193   3046082.0287   5318704.8500   2   7   0.0025   0.0015   0.0013  -0.0009   0.0006   0.0012   0.00    1.2
2020/04/05 02:44:00.000   1710696.8212   3046082.0283   5318704.8505   2   7   0.0025   0.0015   0.0013  -0.0009   0.0006   0.0012   0.00    1.0
2020/04/05 02:44:30.000   1710696.8231   3046082.0279   5318704.8511   2   7   0.0025   0.0015   0.0013  -0.0009   0.0006   0.0012   0.00    1.1
2020/04/05 02:45:00.000   1710696.8250   3046082.0275   5318704.8516   2   7   0.0025   0.0015   0.0013  -0.0008   0.0006   0.0012   0.00    1.1
2020/04/05 02:45:30.000   1710696.8272   3046082.0270   5318704.8523   2   7   0.0025   0.0015   0.0013  -0.0008   0.0006   0.0012   0.00    1.0
2020/04/05 02:46:00.000   1710696.8293   3046082.0266   5318704.8529   2   7   0.0024   0.0015   0.0013  -0.0008   0.0006   0.0012   0.00    1.0
2020/04/05 02:46:30.000   1710696.8314   3046082.0260   5318704.8535   2   7   0.0024   0.0014   0.0013  -0.0008   0.0006   0.0012   0.00    1.0
2020/04/05 02:47:00.000   1710696.8333   3046082.0254   5318704.8540   2   7   0.0024   0.0014   0.0013  -0.0008   0.0006   0.0012   0.00    1.2
2020/04/05 02:47:30.000   1710696.8353   3046082.0249   5318704.8545   2   7   0.0024   0.0014   0.0013  -0.0008   0.0006   0.0012   0.00    1.4
2020/04/05 02:48:00.000   1710696.8373   3046082.0243   5318704.8550   2   7   0.0024   0.0014   0.0013  -0.0008   0.0006   0.0012   0.00    1.1
2020/04/05 02:48:30.000   1710696.8396   3046082.0236   5318704.8555   2   7   0.0024   0.0014   0.0013  -0.0008   0.0006   0.0012   0.00    1.1
2020/04/05 02:49:00.000   1710696.8417   3046082.0229   5318704.8560   2   7   0.0024   0.0014   0.0013  -0.0008   0.0006   0.0012   0.00    1.2
2020/04/05 02:49:30.000   1710696.8439   3046082.0222   5318704.8564   2   7   0.0024   0.0014   0.0013  -0.0007   0.0006   0.0012   0.00    1.0
2020/04/05 02:50:00.000   1710696.8463   3046082.0215   5318704.8569   2   7   0.0024   0.0014   0.0013  -0.0007   0.0006   0.0012   0.00    1.0
2020/04/05 02:50:30.000   1710696.8483   3046082.0208   5318704.8573   2   7   0.0024   0.0014   0.0013  -0.0007   0.0006   0.0012   0.00    1.1
2020/04/05 02:51:00.000   1710696.8504   3046082.0201   5318704.8578   2   7   0.0024   0.0014   0.0013  -0.0007   0.0006   0.0012   0.00    1.5
2020/04/05 02:51:30.000   1710696.8525   3046082.0195   5318704.8580   2   7   0.0024   0.0014   0.0013  -0.0007   0.0006   0.0012   0.00    1.2
2020/04/05 02:52:00.000   1710696.8545   3046082.0188   5318704.8584   2   7   0.0024   0.0014   0.0013  -0.0007   0.0006   0.0012   0.00    1.2
2020/04/05 02:52:30.000   1710696.8566   3046082.0181   5318704.8587   2   7   0.0023   0.0014   0.0013  -0.0007   0.0006   0.0012   0.00    1.2
2020/04/05 02:53:00.000   1710696.8583   3046082.0175   5318704.8589   2   7   0.0023   0.0014   0.0013  -0.0007   0.0006   0.0012   0.00    1.2
2020/04/05 02:53:30.000   1710696.8600   3046082.0168   5318704.8590   2   7   0.0023   0.0014   0.0013  -0.0007   0.0006   0.0012   0.00    1.1
2020/04/05 02:54:00.000   1710696.8616   3046082.0162   5318704.8591   2   7   0.0023   0.0014   0.0013  -0.0007   0.0006   0.0012   0.00    1.2
2020/04/05 02:54:30.000   1710696.8631   3046082.0155   5318704.8590   2   7   0.0023   0.0014   0.0013  -0.0006   0.0006   0.0012   0.00    1.0
2020/04/05 02:55:00.000   1710696.8645   3046082.0149   5318704.8590   2   7   0.0023   0.0014   0.0013  -0.0006   0.0006   0.0012   0.00    1.6
2020/04/05 02:55:30.000   1710696.8660   3046082.0142   5318704.8589   2   7   0.0023   0.0014   0.0012  -0.0006   0.0006   0.0012   0.00    1.6
2020/04/05 02:56:00.000   1710696.8674   3046082.0133   5318704.8589   2   7   0.0023   0.0014   0.0012  -0.0006   0.0006   0.0012   0.00    1.6
2020/04/05 02:56:30.000   1710696.8690   3046082.0124   5318704.8588   2   7   0.0023   0.0014   0.0012  -0.0006   0.0006   0.0011   0.00    2.1
2020/04/05 02:57:00.000   1710696.8692   3046082.0117   5318704.8588   2   6   0.0023   0.0014   0.0012  -0.0006   0.0006   0.0011   0.00    1.6
2020/04/05 02:57:30.000   1710696.8696   3046082.0110   5318704.8588   2   6   0.0023   0.0013   0.0012  -0.0006   0.0006   0.0011   0.00    1.6
2020/04/05 02:58:00.000   1710696.8701   3046082.0101   5318704.8588   2   6   0.0023   0.0013   0.0012  -0.0006   0.0006   0.0011   0.00    1.6
2020/04/05 02:58:30.000   1710696.8705   3046082.0093   5318704.8588   2   6   0.0023   0.0013   0.0012  -0.0006   0.0006   0.0011   0.00    1.6
2020/04/05 02:59:00.000   1710696.8710   3046082.0084   5318704.8588   2   6   0.0023   0.0013   0.0012  -0.0006   0.0006   0.0011   0.00    1.6
2020/04/05 02:59:30.000   1710696.8713   3046082.0076   5318704.8587   2   6   0.0023   0.0013   0.0012  -0.0006   0.0006   0.0011   0.00    1.6
2020/04/05 03:00:00.000   1710696.8719   3046082.0067   5318704.8587   2   6   0.0023   0.0013   0.0012  -0.0006   0.0006   0.0011   0.00    1.2
2020/04/05 03:00:30.000   1710696.8725   3046082.0059   5318704.8587   2   6   0.0023   0.0013   0.0012  -0.0006   0.0006   0.0011   0.00    1.0
2020/04/05 03:01:00.000   1710696.8732   3046082.0048   5318704.8588   2   6   0.0023   0.0013   0.0012  -0.0005   0.0006   0.0011   0.00    1.2
2020/04/05 03:01:30.000   1710696.8739   3046082.0039   5318704.8589   2   6   0.0023   0.0013   0.0012  -0.0005   0.0006   0.0011   0.00    1.5
2020/04/05 03:02:00.000   1710696.8746   3046082.0029   5318704.8590   2   6   0.0023   0.0013   0.0012  -0.0005   0.0006   0.0011   0.00    1.2
2020/04/05 03:02:30.000   1710696.8754   3046082.0020   5318704.8591   2   6   0.0023   0.0013   0.0012  -0.0005   0.0006   0.0011   0.00    1.0
2020/04/05 03:03:00.000   1710696.8762   3046082.0009   5318704.8592   2   6   0.0023   0.0013   0.0012  -0.0005   0.0006   0.0011   0.00    1.2
2020/04/05 03:03:30.000   1710696.8770   3046081.9998   5318704.8594   2   6   0.0023   0.0013   0.0012  -0.0005   0.0006   0.0011   0.00    1.1
2020/04/05 03:04:00.000   1710696.8777   3046081.9987   5318704.8594   2   6   0.0022   0.0013   0.0012  -0.0005   0.0006   0.0011   0.00    1.2
2020/04/05 03:04:30.000   1710696.8785   3046081.9977   5318704.8596   2   6   0.0022   0.0013   0.0012  -0.0005   0.0006   0.0011   0.00    1.7
2020/04/05 03:05:00.000   1710696.8792   3046081.9967   5318704.8597   2   6   0.0022   0.0013   0.0012  -0.0005   0.0006   0.0011   0.00    1.2
2020/04/05 03:05:30.000   1710696.8801   3046081.9955   5318704.8600   2   6   0.0022   0.0013   0.0012  -0.0005   0.0006   0.0011   0.00    1.2
2020/04/05 03:06:00.000   1710696.8812   3046081.9943   5318704.8603   2   6   0.0022   0.0013   0.0012  -0.0005   0.0006   0.0011   0.00    1.2
2020/04/05 03:06:30.000   1710696.8824   3046081.9930   5318704.8606   2   6   0.0022   0.0013   0.0012  -0.0005   0.0006   0.0011   0.00    1.1
2020/04/05 03:07:00.000   1710696.8837   3046081.9917   5318704.8610   2   6   0.0022   0.0013   0.0012  -0.0005   0.0006   0.0011   0.00    1.3
2020/04/05 03:07:30.000   1710696.8849   3046081.9904   5318704.8613   2   6   0.0022   0.0013   0.0012  -0.0005   0.0006   0.0011   0.00    1.8
2020/04/05 03:08:00.000   1710696.8862   3046081.9891   5318704.8617   2   6   0.0022   0.0013   0.0012  -0.0005   0.0006   0.0011   0.00    1.4
2020/04/05 03:08:30.000   1710696.8877   3046081.9877   5318704.8622   2   6   0.0022   0.0013   0.0012  -0.0004   0.0006   0.0011   0.00    1.3
2020/04/05 03:09:00.000   1710696.8891   3046081.9864   5318704.8626   2   6   0.0022   0.0013   0.0012  -0.0004   0.0006   0.0011   0.00    1.4
2020/04/05 03:09:30.000   1710696.8906   3046081.9848   5318704.8630   2   6   0.0022   0.0013   0.0012  -0.0004   0.0006   0.0011   0.00    1.4
2020/04/05 03:10:00.000   1710696.8921   3046081.9835   5318704.8635   2   6   0.0022   0.0012   0.0012  -0.0004   0.0006   0.0011   0.00    1.6
2020/04/05 03:10:30.000   1710696.8934   3046081.9821   5318704.8638   2   6   0.0022   0.0012   0.0012  -0.0004   0.0006   0.0011   0.00    1.5
2020/04/05 03:11:00.000   1710696.8950   3046081.9805   5318704.8643   2   6   0.0022   0.0012   0.0012  -0.0004   0.0006   0.0011   0.00    1.9
2020/04/05 03:11:30.000   1710696.8964   3046081.9791   5318704.8648   2   5   0.0022   0.0012   0.0012  -0.0004   0.0006   0.0011   0.00    1.7
2020/04/05 03:12:00.000   1710696.8978   3046081.9775   5318704.8653   2   5   0.0022   0.0012   0.0012  -0.0004   0.0006   0.0011   0.00    1.7
2020/04/05 03:12:30.000   1710696.8993   3046081.9760   5318704.8658   2   5   0.0022   0.0012   0.0012  -0.0004   0.0006   0.0011   0.00    1.8
2020/04/05 03:13:00.000   1710696.9007   3046081.9746   5318704.8664   2   5   0.0022   0.0012   0.0012  -0.0004   0.0006   0.0011   0.00    1.8
2020/04/05 03:13:30.000   1710696.9021   3046081.9731   5318704.8669   2   5   0.0022   0.0012   0.0012  -0.0004   0.0006   0.0011   0.00    1.8
2020/04/05 03:14:00.000   1710696.9035   3046081.9717   5318704.8674   2   5   0.0022   0.0012   0.0012  -0.0004   0.0006   0.0011   0.00    1.9
2020/04/05 03:14:30.000   1710696.9048   3046081.9703   5318704.8679   2   5   0.0022   0.0012   0.0012  -0.0004   0.0006   0.0011   0.00    1.9
2020/04/05 03:15:00.000   1710696.9060   3046081.9689   5318704.8684   2   5   0.0022   0.0012   0.0012  -0.0004   0.0006   0.0011   0.00    1.9
2020/04/05 03:15:30.000   1710696.9072   3046081.9675   5318704.8688   2   5   0.0022   0.0012   0.0012  -0.0004   0.0006   0.0011   0.00    2.0
2020/04/05 03:16:00.000   1710696.9084   3046081.9662   5318704.8693   2   5   0.0022   0.0012   0.0012  -0.0004   0.0006   0.0011   0.00    2.0
2020/04/05 03:16:30.000   1710696.9097   3046081.9647   5318704.8698   2   5   0.0022   0.0012   0.0012  -0.0003   0.0006   0.0011   0.00    2.0
2020/04/05 03:17:00.000   1710696.9109   3046081.9633   5318704.8703   2   5   0.0022   0.0012   0.0012  -0.0003   0.0006   0.0011   0.00    2.1
2020/04/05 03:17:30.000   1710696.9122   3046081.9618   5318704.8708   2   5   0.0022   0.0012   0.0012  -0.0003   0.0006   0.0010   0.00    2.1
2020/04/05 03:18:00.000   1710696.9134   3046081.9603   5318704.8712   2   5   0.0022   0.0012   0.0012  -0.0003   0.0006   0.0010   0.00    2.2
2020/04/05 03:18:30.000   1710696.9148   3046081.9588   5318704.8718   2   5   0.0022   0.0012   0.0012  -0.0003   0.0006   0.0010   0.00    2.2
2020/04/05 03:19:00.000   1710696.9160   3046081.9573   5318704.8724   2   5   0.0022   0.0012   0.0012  -0.0003   0.0006   0.0010   0.00    2.3
2020/04/05 03:19:30.000   1710696.9173   3046081.9558   5318704.8729   2   5   0.0022   0.0012   0.0012  -0.0003   0.0006   0.0010   0.00    2.3
2020/04/05 03:20:00.000   1710696.9186   3046081.9544   5318704.8735   2   5   0.0022   0.0012   0.0012  -0.0003   0.0006   0.0010   0.00    2.4
2020/04/05 03:20:30.000   1710696.9198   3046081.9529   5318704.8741   2   5   0.0022   0.0012   0.0012  -0.0003   0.0006   0.0010   0.00    2.4
2020/04/05 03:21:00.000   1710696.9210   3046081.9514   5318704.8746   2   5   0.0022   0.0012   0.0012  -0.0003   0.0006   0.0010   0.00    2.5
2020/04/05 03:21:30.000   1710696.9222   3046081.9499   5318704.8751   2   5   0.0022   0.0012   0.0012  -0.0003   0.0006   0.0010   0.00    2.5
