% program   : RTKPOST ver.2.4.3 b34
% inp file  : C:\Users\89231\Documents\Учеба\Диссертация\Данные\Лос-Анджелес 03-05.07.22\03.07.2022\cit11840.22o
% inp file  : C:\Users\89231\Documents\Учеба\Диссертация\Данные\Лос-Анджелес 03-05.07.22\03.07.2022\jplm1840.22o
% inp file  : C:\Users\89231\Documents\Учеба\Диссертация\Данные\Лос-Анджелес 03-05.07.22\03.07.2022\cit11840.22n
% inp file  : C:\Users\89231\Documents\Учеба\Диссертация\Данные\Лос-Анджелес 03-05.07.22\03.07.2022\igs22170.sp3
% obs start : 2022/07/03 00:00:00.0 GPST (week2217      0.0s)
% obs end   : 2022/07/03 23:59:45.0 GPST (week2217  86385.0s)
% pos mode  : Static
% freqs     : L1+2
% solution  : Forward
% elev mask : 15.0 deg
% dynamics  : off
% tidecorr  : off
% ionos opt : Broadcast
% tropo opt : Saastamoinen
% ephemeris : Precise
% navi sys  : GPS
% amb res   : Fix and Hold
% val thres : 3.0
% antenna1  :                       ( 0.0000  0.0000  0.0000)
% antenna2  :                       ( 0.0000  0.0000  0.0610)
% ref pos   : -2493304.7034  -4655215.1477   3565497.6261
%
% (x/y/z-ecef=WGS84,Q=1:fix,2:float,3:sbas,4:dgps,5:single,6:ppp,ns=# of satellites)
%  GPST                      x-ecef(m)      y-ecef(m)      z-ecef(m)   Q  ns   sdx(m)   sdy(m)   sdz(m)  sdxy(m)  sdyz(m)  sdzx(m) age(s)  ratio
2022/07/03 00:00:00.000  -2491490.4207  -4660803.1652   3559129.1044   1   8   0.0054   0.0102   0.0075   0.0058  -0.0075  -0.0049   0.00    3.3
2022/07/03 00:00:15.000  -2491490.4199  -4660803.1644   3559129.1043   1   8   0.0050   0.0096   0.0071   0.0055  -0.0070  -0.0046  15.00    4.1
2022/07/03 00:00:30.000  -2491490.4178  -4660803.1592   3559129.1020   1   8   0.0037   0.0070   0.0052   0.0040  -0.0051  -0.0034   0.00    4.1
2022/07/03 00:00:45.000  -2491490.4170  -4660803.1600   3559129.1025   1   8   0.0036   0.0068   0.0050   0.0038  -0.0050  -0.0033  15.00    4.4
2022/07/03 00:01:00.000  -2491490.4155  -4660803.1578   3559129.1000   1   8   0.0030   0.0056   0.0042   0.0032  -0.0041  -0.0027   0.00    4.4
2022/07/03 00:01:15.000  -2491490.4151  -4660803.1589   3559129.1004   1   8   0.0029   0.0055   0.0041   0.0031  -0.0041  -0.0027  15.00    4.4
2022/07/03 00:01:30.000  -2491490.4140  -4660803.1586   3559129.0997   1   8   0.0025   0.0048   0.0036   0.0028  -0.0036  -0.0023   0.00    4.3
2022/07/03 00:01:45.000  -2491490.4136  -4660803.1587   3559129.0996   1   8   0.0025   0.0048   0.0036   0.0027  -0.0035  -0.0023  15.00    4.3
2022/07/03 00:02:00.000  -2491490.4137  -4660803.1590   3559129.0994   1   8   0.0023   0.0043   0.0032   0.0025  -0.0032  -0.0021   0.00    4.4
2022/07/03 00:02:15.000  -2491490.4133  -4660803.1581   3559129.0990   1   8   0.0022   0.0043   0.0032   0.0024  -0.0031  -0.0021  15.00    4.4
2022/07/03 00:02:30.000  -2491490.4137  -4660803.1587   3559129.0995   1   8   0.0021   0.0039   0.0029   0.0022  -0.0029  -0.0019   0.00   21.1
2022/07/03 00:02:45.000  -2491490.4135  -4660803.1587   3559129.0995   1   8   0.0020   0.0039   0.0029   0.0022  -0.0029  -0.0019  15.00   36.7
2022/07/03 00:03:00.000  -2491490.4138  -4660803.1596   3559129.1005   1   8   0.0019   0.0036   0.0027   0.0021  -0.0027  -0.0018   0.00   47.2
2022/07/03 00:03:15.000  -2491490.4136  -4660803.1597   3559129.1005   1   8   0.0019   0.0036   0.0027   0.0020  -0.0027  -0.0017  15.00   64.8
2022/07/03 00:03:30.000  -2491490.4136  -4660803.1602   3559129.1009   1   8   0.0018   0.0034   0.0025   0.0019  -0.0025  -0.0016   0.00   72.0
2022/07/03 00:03:45.000  -2491490.4133  -4660803.1599   3559129.1009   1   8   0.0018   0.0034   0.0025   0.0019  -0.0025  -0.0016  15.00   89.4
2022/07/03 00:04:00.000  -2491490.4133  -4660803.1597   3559129.1011   1   8   0.0017   0.0032   0.0024   0.0018  -0.0024  -0.0015   0.00   92.4
2022/07/03 00:04:15.000  -2491490.4132  -4660803.1597   3559129.1011   1   8   0.0017   0.0032   0.0024   0.0018  -0.0023  -0.0015  15.00  109.3
2022/07/03 00:04:30.000  -2491490.4136  -4660803.1596   3559129.1017   1   8   0.0016   0.0030   0.0023   0.0017  -0.0022  -0.0015   0.00  109.7
2022/07/03 00:04:45.000  -2491490.4134  -4660803.1596   3559129.1017   1   8   0.0016   0.0030   0.0023   0.0017  -0.0022  -0.0015  15.00  125.6
2022/07/03 00:05:00.000  -2491490.4139  -4660803.1595   3559129.1023   1   8   0.0015   0.0029   0.0022   0.0016  -0.0021  -0.0014   0.00  124.8
2022/07/03 00:05:15.000  -2491490.4138  -4660803.1593   3559129.1024   1   8   0.0015   0.0029   0.0022   0.0016  -0.0021  -0.0014  15.00  139.3
2022/07/03 00:05:30.000  -2491490.4140  -4660803.1591   3559129.1029   1   8   0.0014   0.0028   0.0021   0.0016  -0.0020  -0.0013   0.00  134.4
2022/07/03 00:05:45.000  -2491490.4139  -4660803.1589   3559129.1028   1   8   0.0014   0.0028   0.0021   0.0016  -0.0020  -0.0013  15.00  147.9
2022/07/03 00:06:00.000  -2491490.4141  -4660803.1587   3559129.1034   1   8   0.0014   0.0027   0.0020   0.0015  -0.0020  -0.0013   0.00  143.3
2022/07/03 00:06:15.000  -2491490.4140  -4660803.1586   3559129.1034   1   8   0.0014   0.0026   0.0020   0.0015  -0.0020  -0.0013  15.00  156.2
2022/07/03 00:06:30.000  -2491490.4142  -4660803.1582   3559129.1036   1   8   0.0013   0.0026   0.0019   0.0014  -0.0019  -0.0012   0.00  153.5
2022/07/03 00:06:45.000  -2491490.4141  -4660803.1583   3559129.1037   1   8   0.0013   0.0026   0.0019   0.0014  -0.0019  -0.0012  15.00  166.1
2022/07/03 00:07:00.000  -2491490.4141  -4660803.1578   3559129.1036   1   8   0.0013   0.0025   0.0019   0.0014  -0.0018  -0.0012   0.00  163.2
2022/07/03 00:07:15.000  -2491490.4141  -4660803.1583   3559129.1037   1   8   0.0013   0.0025   0.0019   0.0014  -0.0018  -0.0012  15.00  175.8
2022/07/03 00:07:30.000  -2491490.4141  -4660803.1578   3559129.1036   1   8   0.0013   0.0024   0.0018   0.0013  -0.0018  -0.0012   0.00  173.7
2022/07/03 00:07:45.000  -2491490.4140  -4660803.1576   3559129.1035   1   8   0.0012   0.0024   0.0018   0.0013  -0.0018  -0.0012  15.00  185.4
2022/07/03 00:08:00.000  -2491490.4140  -4660803.1570   3559129.1031   1   8   0.0012   0.0023   0.0018   0.0013  -0.0017  -0.0011   0.00  183.0
2022/07/03 00:08:15.000  -2491490.4138  -4660803.1567   3559129.1031   1   8   0.0012   0.0023   0.0018   0.0013  -0.0017  -0.0011  15.00  194.2
2022/07/03 00:08:30.000  -2491490.4141  -4660803.1569   3559129.1031   1   8   0.0012   0.0023   0.0017   0.0013  -0.0017  -0.0011   0.00  191.6
2022/07/03 00:08:45.000  -2491490.4140  -4660803.1570   3559129.1032   1   8   0.0012   0.0023   0.0017   0.0013  -0.0017  -0.0011  15.00  203.5
2022/07/03 00:09:00.000  -2491490.4139  -4660803.1571   3559129.1030   1   8   0.0011   0.0022   0.0017   0.0012  -0.0016  -0.0011   0.00  200.7
2022/07/03 00:09:15.000  -2491490.4139  -4660803.1570   3559129.1029   1   8   0.0011   0.0022   0.0017   0.0012  -0.0016  -0.0011  15.00  211.9
2022/07/03 00:09:30.000  -2491490.4139  -4660803.1569   3559129.1026   1   8   0.0011   0.0021   0.0016   0.0012  -0.0016  -0.0010   0.00  211.3
2022/07/03 00:09:45.000  -2491490.4137  -4660803.1567   3559129.1025   1   8   0.0011   0.0021   0.0016   0.0012  -0.0016  -0.0010  15.00  222.5
2022/07/03 00:10:00.000  -2491490.4138  -4660803.1569   3559129.1023   1   8   0.0011   0.0021   0.0016   0.0012  -0.0015  -0.0010   0.00  220.6
2022/07/03 00:10:15.000  -2491490.4137  -4660803.1566   3559129.1022   1   8   0.0011   0.0021   0.0016   0.0012  -0.0015  -0.0010  15.00  231.9
2022/07/03 00:10:30.000  -2491490.4137  -4660803.1568   3559129.1020   1   8   0.0011   0.0020   0.0016   0.0011  -0.0015  -0.0010   0.00  231.4
2022/07/03 00:10:45.000  -2491490.4136  -4660803.1566   3559129.1019   1   8   0.0011   0.0020   0.0016   0.0011  -0.0015  -0.0010  15.00  243.4
2022/07/03 00:11:00.000  -2491490.4138  -4660803.1571   3559129.1019   1   8   0.0010   0.0020   0.0015   0.0011  -0.0015  -0.0010   0.00  245.6
2022/07/03 00:11:15.000  -2491490.4138  -4660803.1571   3559129.1019   1   8   0.0010   0.0020   0.0015   0.0011  -0.0015  -0.0010  15.00  257.9
2022/07/03 00:11:30.000  -2491490.4139  -4660803.1576   3559129.1019   1   8   0.0010   0.0020   0.0015   0.0011  -0.0015  -0.0010   0.00  262.2
2022/07/03 00:11:45.000  -2491490.4138  -4660803.1575   3559129.1019   1   8   0.0010   0.0020   0.0015   0.0011  -0.0014  -0.0010  15.00  274.7
2022/07/03 00:12:00.000  -2491490.4139  -4660803.1579   3559129.1020   1   8   0.0010   0.0019   0.0015   0.0011  -0.0014  -0.0009   0.00  279.0
2022/07/03 00:12:15.000  -2491490.4138  -4660803.1579   3559129.1020   1   8   0.0010   0.0019   0.0015   0.0011  -0.0014  -0.0009  15.00  292.0
2022/07/03 00:12:30.000  -2491490.4138  -4660803.1583   3559129.1021   1   8   0.0010   0.0019   0.0014   0.0011  -0.0014  -0.0009   0.00  296.5
2022/07/03 00:12:45.000  -2491490.4138  -4660803.1584   3559129.1021   1   8   0.0010   0.0019   0.0014   0.0010  -0.0014  -0.0009  15.00  310.7
2022/07/03 00:13:00.000  -2491490.4139  -4660803.1586   3559129.1021   1   8   0.0010   0.0018   0.0014   0.0010  -0.0014  -0.0009   0.00  309.3
2022/07/03 00:13:15.000  -2491490.4138  -4660803.1584   3559129.1021   1   8   0.0010   0.0018   0.0014   0.0010  -0.0014  -0.0009  15.00  322.2
2022/07/03 00:13:30.000  -2491490.4139  -4660803.1585   3559129.1020   1   8   0.0009   0.0018   0.0014   0.0010  -0.0013  -0.0009   0.00  321.0
2022/07/03 00:13:45.000  -2491490.4138  -4660803.1585   3559129.1020   1   8   0.0009   0.0018   0.0014   0.0010  -0.0013  -0.0009  15.00  334.0
2022/07/03 00:14:00.000  -2491490.4138  -4660803.1585   3559129.1019   1   8   0.0009   0.0018   0.0014   0.0010  -0.0013  -0.0009   0.00  333.9
2022/07/03 00:14:15.000  -2491490.4137  -4660803.1584   3559129.1019   1   8   0.0009   0.0018   0.0014   0.0010  -0.0013  -0.0009  15.00  346.6
2022/07/03 00:14:30.000  -2491490.4137  -4660803.1586   3559129.1018   1   8   0.0009   0.0017   0.0014   0.0010  -0.0013  -0.0009   0.00  345.7
2022/07/03 00:14:45.000  -2491490.4136  -4660803.1584   3559129.1017   1   8   0.0009   0.0017   0.0014   0.0010  -0.0013  -0.0009  15.00  358.7
2022/07/03 00:15:00.000  -2491490.4136  -4660803.1586   3559129.1017   1   8   0.0009   0.0017   0.0013   0.0010  -0.0013  -0.0008   0.00  355.9
2022/07/03 00:15:15.000  -2491490.4135  -4660803.1585   3559129.1016   1   8   0.0009   0.0017   0.0013   0.0010  -0.0013  -0.0008  15.00  368.9
2022/07/03 00:15:30.000  -2491490.4134  -4660803.1588   3559129.1016   1   8   0.0009   0.0017   0.0013   0.0009  -0.0013  -0.0008   0.00  372.3
2022/07/03 00:15:45.000  -2491490.4134  -4660803.1589   3559129.1015   1   8   0.0009   0.0017   0.0013   0.0009  -0.0013  -0.0008  15.00  387.4
2022/07/03 00:16:00.000  -2491490.4133  -4660803.1591   3559129.1016   1   8   0.0009   0.0017   0.0013   0.0009  -0.0012  -0.0008   0.00  389.6
2022/07/03 00:16:15.000  -2491490.4132  -4660803.1590   3559129.1015   1   8   0.0009   0.0017   0.0013   0.0009  -0.0012  -0.0008  15.00  403.8
2022/07/03 00:16:30.000  -2491490.4132  -4660803.1594   3559129.1014   1   8   0.0009   0.0016   0.0013   0.0009  -0.0012  -0.0008   0.00  401.2
2022/07/03 00:16:45.000  -2491490.4131  -4660803.1594   3559129.1014   1   8   0.0009   0.0016   0.0013   0.0009  -0.0012  -0.0008  15.00  415.6
2022/07/03 00:17:00.000  -2491490.4131  -4660803.1598   3559129.1015   1   8   0.0008   0.0016   0.0013   0.0009  -0.0012  -0.0008   0.00  420.8
2022/07/03 00:17:15.000  -2491490.4130  -4660803.1598   3559129.1014   1   8   0.0008   0.0016   0.0013   0.0009  -0.0012  -0.0008  15.00  435.6
2022/07/03 00:17:30.000  -2491490.4130  -4660803.1603   3559129.1014   1   8   0.0008   0.0016   0.0013   0.0009  -0.0012  -0.0008   0.00  443.9
2022/07/03 00:17:45.000  -2491490.4130  -4660803.1603   3559129.1014   1   8   0.0008   0.0016   0.0013   0.0009  -0.0012  -0.0008  15.00  460.2
2022/07/03 00:18:00.000  -2491490.4129  -4660803.1607   3559129.1013   1   8   0.0008   0.0016   0.0012   0.0009  -0.0012  -0.0008   0.00  467.7
2022/07/03 00:18:15.000  -2491490.4129  -4660803.1606   3559129.1012   1   8   0.0008   0.0016   0.0012   0.0009  -0.0012  -0.0008  15.00  484.2
2022/07/03 00:18:30.000  -2491490.4128  -4660803.1610   3559129.1011   1   8   0.0008   0.0016   0.0012   0.0009  -0.0012  -0.0008   0.00  488.7
2022/07/03 00:18:45.000  -2491490.4128  -4660803.1610   3559129.1011   1   8   0.0008   0.0016   0.0012   0.0009  -0.0012  -0.0008  15.00  506.0
2022/07/03 00:19:00.000  -2491490.4128  -4660803.1612   3559129.1010   1   8   0.0008   0.0015   0.0012   0.0009  -0.0011  -0.0008   0.00  507.5
2022/07/03 00:19:15.000  -2491490.4127  -4660803.1611   3559129.1009   1   8   0.0008   0.0015   0.0012   0.0009  -0.0011  -0.0008  15.00  522.5
2022/07/03 00:19:30.000  -2491490.4128  -4660803.1612   3559129.1010   1   8   0.0008   0.0015   0.0012   0.0008  -0.0011  -0.0007   0.00  519.6
2022/07/03 00:19:45.000  -2491490.4127  -4660803.1613   3559129.1010   1   8   0.0008   0.0015   0.0012   0.0008  -0.0011  -0.0007  15.00  535.0
2022/07/03 00:20:00.000  -2491490.4128  -4660803.1614   3559129.1011   1   8   0.0008   0.0015   0.0012   0.0008  -0.0011  -0.0007   0.00  534.0
2022/07/03 00:20:15.000  -2491490.4128  -4660803.1614   3559129.1010   1   8   0.0008   0.0015   0.0012   0.0008  -0.0011  -0.0007  15.00  549.0
2022/07/03 00:20:30.000  -2491490.4129  -4660803.1615   3559129.1011   1   8   0.0008   0.0015   0.0012   0.0008  -0.0011  -0.0007   0.00  551.3
2022/07/03 00:20:45.000  -2491490.4128  -4660803.1614   3559129.1011   1   8   0.0008   0.0015   0.0012   0.0008  -0.0011  -0.0007  15.00  567.0
2022/07/03 00:21:00.000  -2491490.4128  -4660803.1614   3559129.1011   1   8   0.0008   0.0015   0.0012   0.0008  -0.0011  -0.0007   0.00  564.3
2022/07/03 00:21:15.000  -2491490.4128  -4660803.1614   3559129.1011   1   8   0.0008   0.0015   0.0012   0.0008  -0.0011  -0.0007  15.00  581.4
2022/07/03 00:21:30.000  -2491490.4128  -4660803.1613   3559129.1010   1   8   0.0008   0.0014   0.0011   0.0008  -0.0011  -0.0007   0.00  580.7
2022/07/03 00:21:45.000  -2491490.4128  -4660803.1612   3559129.1010   1   8   0.0008   0.0014   0.0012   0.0008  -0.0011  -0.0007  15.00  595.7
2022/07/03 00:22:00.000  -2491490.4127  -4660803.1611   3559129.1009   1   8   0.0008   0.0014   0.0011   0.0008  -0.0011  -0.0007   0.00  592.5
2022/07/03 00:22:15.000  -2491490.4127  -4660803.1611   3559129.1009   1   8   0.0008   0.0014   0.0011   0.0008  -0.0011  -0.0007  15.00  610.1
2022/07/03 00:22:30.000  -2491490.4127  -4660803.1611   3559129.1007   1   8   0.0007   0.0014   0.0011   0.0008  -0.0011  -0.0007   0.00  610.3
2022/07/03 00:22:45.000  -2491490.4126  -4660803.1610   3559129.1007   1   8   0.0007   0.0014   0.0011   0.0008  -0.0011  -0.0007  15.00  625.7
2022/07/03 00:23:00.000  -2491490.4125  -4660803.1610   3559129.1005   1   8   0.0007   0.0014   0.0011   0.0008  -0.0010  -0.0007   0.00  625.7
2022/07/03 00:23:15.000  -2491490.4125  -4660803.1609   3559129.1005   1   8   0.0007   0.0014   0.0011   0.0008  -0.0010  -0.0007  15.00  642.4
2022/07/03 00:23:30.000  -2491490.4125  -4660803.1610   3559129.1004   1   8   0.0007   0.0014   0.0011   0.0008  -0.0010  -0.0007   0.00  643.1
2022/07/03 00:23:45.000  -2491490.4124  -4660803.1609   3559129.1003   1   8   0.0007   0.0014   0.0011   0.0008  -0.0010  -0.0007  15.00  660.8
2022/07/03 00:24:00.000  -2491490.4124  -4660803.1610   3559129.1002   1   8   0.0007   0.0014   0.0011   0.0008  -0.0010  -0.0007   0.00  662.5
2022/07/03 00:24:15.000  -2491490.4118  -4660803.1596   3559129.0997   2   8   0.0008   0.0015   0.0012   0.0008  -0.0011  -0.0008  15.00    1.5
2022/07/03 00:24:30.000  -2491490.4125  -4660803.1613   3559129.1001   1   8   0.0007   0.0014   0.0011   0.0008  -0.0010  -0.0007   0.00    3.2
2022/07/03 00:24:45.000  -2491490.4124  -4660803.1613   3559129.1001   1   8   0.0007   0.0014   0.0011   0.0008  -0.0010  -0.0007  15.00    3.7
2022/07/03 00:25:00.000  -2491490.4123  -4660803.1613   3559129.0999   1   8   0.0007   0.0013   0.0011   0.0007  -0.0010  -0.0007   0.00    5.5
2022/07/03 00:25:15.000  -2491490.4123  -4660803.1613   3559129.0999   1   8   0.0007   0.0013   0.0011   0.0007  -0.0010  -0.0007  15.00    6.1
2022/07/03 00:25:30.000  -2491490.4121  -4660803.1612   3559129.0995   1   8   0.0007   0.0013   0.0011   0.0007  -0.0010  -0.0007   0.00    8.0
2022/07/03 00:25:45.000  -2491490.4120  -4660803.1611   3559129.0994   1   8   0.0007   0.0013   0.0011   0.0007  -0.0010  -0.0007  15.00    8.5
2022/07/03 00:26:00.000  -2491490.4119  -4660803.1610   3559129.0990   1   8   0.0007   0.0013   0.0011   0.0007  -0.0010  -0.0007   0.00   10.0
2022/07/03 00:26:15.000  -2491490.4119  -4660803.1609   3559129.0988   1   8   0.0007   0.0013   0.0011   0.0007  -0.0010  -0.0007  15.00   10.5
2022/07/03 00:26:30.000  -2491490.4117  -4660803.1607   3559129.0984   1   8   0.0007   0.0013   0.0011   0.0007  -0.0010  -0.0007   0.00   12.3
2022/07/03 00:26:45.000  -2491490.4110  -4660803.1591   3559129.0978   2   9   0.0008   0.0014   0.0012   0.0008  -0.0011  -0.0007  15.00    1.2
2022/07/03 00:27:00.000  -2491490.4109  -4660803.1588   3559129.0974   2   9   0.0008   0.0014   0.0012   0.0008  -0.0011  -0.0007   0.00    1.9
2022/07/03 00:27:15.000  -2491490.4108  -4660803.1587   3559129.0973   2   9   0.0008   0.0014   0.0012   0.0008  -0.0011  -0.0007  15.00    2.1
2022/07/03 00:27:30.000  -2491490.4107  -4660803.1586   3559129.0968   2   9   0.0008   0.0014   0.0012   0.0008  -0.0011  -0.0007   0.00    2.6
2022/07/03 00:27:45.000  -2491490.4107  -4660803.1584   3559129.0967   2   9   0.0008   0.0014   0.0012   0.0008  -0.0011  -0.0007  15.00    2.7
2022/07/03 00:28:00.000  -2491490.4113  -4660803.1606   3559129.0969   1   9   0.0007   0.0013   0.0010   0.0007  -0.0009  -0.0006   0.00    3.1
2022/07/03 00:28:15.000  -2491490.4112  -4660803.1606   3559129.0968   1   9   0.0007   0.0013   0.0010   0.0007  -0.0009  -0.0006  15.00    3.2
2022/07/03 00:28:30.000  -2491490.4111  -4660803.1605   3559129.0964   1   9   0.0007   0.0012   0.0010   0.0007  -0.0009  -0.0006   0.00    3.7
2022/07/03 00:28:45.000  -2491490.4110  -4660803.1604   3559129.0963   1   9   0.0007   0.0012   0.0010   0.0007  -0.0009  -0.0006  15.00    3.9
2022/07/03 00:29:00.000  -2491490.4110  -4660803.1605   3559129.0960   1   9   0.0007   0.0012   0.0010   0.0007  -0.0009  -0.0006   0.00    4.1
2022/07/03 00:29:15.000  -2491490.4109  -4660803.1606   3559129.0960   1   9   0.0007   0.0012   0.0010   0.0007  -0.0009  -0.0006  15.00    4.2
2022/07/03 00:29:30.000  -2491490.4108  -4660803.1604   3559129.0956   1   9   0.0007   0.0012   0.0010   0.0007  -0.0009  -0.0006   0.00    4.4
2022/07/03 00:29:45.000  -2491490.4108  -4660803.1605   3559129.0955   1   9   0.0007   0.0012   0.0010   0.0007  -0.0009  -0.0006  15.00    4.4
2022/07/03 00:30:00.000  -2491490.4107  -4660803.1605   3559129.0951   1   9   0.0007   0.0012   0.0010   0.0007  -0.0009  -0.0006   0.00    4.6
2022/07/03 00:30:15.000  -2491490.4107  -4660803.1604   3559129.0950   1   9   0.0007   0.0012   0.0010   0.0007  -0.0009  -0.0006  15.00    4.5
2022/07/03 00:30:30.000  -2491490.4105  -4660803.1604   3559129.0946   1   9   0.0006   0.0012   0.0010   0.0007  -0.0009  -0.0006   0.00   11.9
2022/07/03 00:30:45.000  -2491490.4105  -4660803.1604   3559129.0945   1   9   0.0006   0.0012   0.0010   0.0007  -0.0009  -0.0006  15.00   19.9
2022/07/03 00:31:00.000  -2491490.4104  -4660803.1604   3559129.0943   1   9   0.0006   0.0012   0.0010   0.0006  -0.0009  -0.0006   0.00   27.7
2022/07/03 00:31:15.000  -2491490.4104  -4660803.1604   3559129.0942   1   9   0.0006   0.0012   0.0010   0.0006  -0.0009  -0.0006  15.00   36.6
2022/07/03 00:31:30.000  -2491490.4103  -4660803.1603   3559129.0940   1   9   0.0006   0.0012   0.0010   0.0006  -0.0009  -0.0006   0.00   44.2
2022/07/03 00:31:45.000  -2491490.4103  -4660803.1603   3559129.0939   1   9   0.0006   0.0012   0.0010   0.0006  -0.0009  -0.0006  15.00   53.0
2022/07/03 00:32:00.000  -2491490.4102  -4660803.1604   3559129.0938   1   9   0.0006   0.0011   0.0010   0.0006  -0.0009  -0.0006   0.00   60.0
2022/07/03 00:32:15.000  -2491490.4102  -4660803.1604   3559129.0937   1   9   0.0006   0.0011   0.0010   0.0006  -0.0009  -0.0006  15.00   69.0
2022/07/03 00:32:30.000  -2491490.4101  -4660803.1605   3559129.0936   1   9   0.0006   0.0011   0.0010   0.0006  -0.0009  -0.0006   0.00   75.1
2022/07/03 00:32:45.000  -2491490.4101  -4660803.1605   3559129.0936   1   9   0.0006   0.0011   0.0010   0.0006  -0.0009  -0.0006  15.00   83.8
2022/07/03 00:33:00.000  -2491490.4100  -4660803.1606   3559129.0936   1   9   0.0006   0.0011   0.0010   0.0006  -0.0008  -0.0006   0.00   89.8
2022/07/03 00:33:15.000  -2491490.4100  -4660803.1606   3559129.0936   1   9   0.0006   0.0011   0.0010   0.0006  -0.0008  -0.0006  15.00   99.0
2022/07/03 00:33:30.000  -2491490.4100  -4660803.1608   3559129.0937   1   9   0.0006   0.0011   0.0009   0.0006  -0.0008  -0.0006   0.00  104.8
2022/07/03 00:33:45.000  -2491490.4099  -4660803.1608   3559129.0936   1   9   0.0006   0.0011   0.0009   0.0006  -0.0008  -0.0006  15.00  115.0
2022/07/03 00:34:00.000  -2491490.4099  -4660803.1610   3559129.0937   1   9   0.0006   0.0011   0.0009   0.0006  -0.0008  -0.0006   0.00  121.3
2022/07/03 00:34:15.000  -2491490.4099  -4660803.1610   3559129.0937   1   9   0.0006   0.0011   0.0009   0.0006  -0.0008  -0.0006  15.00  131.4
2022/07/03 00:34:30.000  -2491490.4098  -4660803.1612   3559129.0938   1   9   0.0006   0.0011   0.0009   0.0006  -0.0008  -0.0006   0.00  137.0
2022/07/03 00:34:45.000  -2491490.4097  -4660803.1612   3559129.0938   1   9   0.0006   0.0011   0.0009   0.0006  -0.0008  -0.0006  15.00  146.5
2022/07/03 00:35:00.000  -2491490.4097  -4660803.1613   3559129.0939   1   9   0.0006   0.0011   0.0009   0.0006  -0.0008  -0.0006   0.00  152.9
2022/07/03 00:35:15.000  -2491490.4097  -4660803.1613   3559129.0939   1   9   0.0006   0.0011   0.0009   0.0006  -0.0008  -0.0006  15.00  162.0
2022/07/03 00:35:30.000  -2491490.4097  -4660803.1615   3559129.0940   1   9   0.0006   0.0011   0.0009   0.0006  -0.0008  -0.0006   0.00  167.7
2022/07/03 00:35:45.000  -2491490.4096  -4660803.1615   3559129.0939   1   9   0.0006   0.0011   0.0009   0.0006  -0.0008  -0.0006  15.00  178.2
2022/07/03 00:36:00.000  -2491490.4096  -4660803.1616   3559129.0941   1   9   0.0006   0.0011   0.0009   0.0006  -0.0008  -0.0006   0.00  183.5
2022/07/03 00:36:15.000  -2491490.4096  -4660803.1617   3559129.0941   1   9   0.0006   0.0011   0.0009   0.0006  -0.0008  -0.0006  15.00  194.0
2022/07/03 00:36:30.000  -2491490.4096  -4660803.1618   3559129.0941   1   9   0.0006   0.0010   0.0009   0.0006  -0.0008  -0.0006   0.00  199.6
2022/07/03 00:36:45.000  -2491490.4095  -4660803.1617   3559129.0941   1   9   0.0006   0.0010   0.0009   0.0006  -0.0008  -0.0006  15.00  210.4
2022/07/03 00:37:00.000  -2491490.4095  -4660803.1617   3559129.0941   1   9   0.0006   0.0010   0.0009   0.0006  -0.0008  -0.0005   0.00  213.9
2022/07/03 00:37:15.000  -2491490.4095  -4660803.1618   3559129.0941   1   9   0.0006   0.0010   0.0009   0.0006  -0.0008  -0.0005  15.00  223.8
2022/07/03 00:37:30.000  -2491490.4096  -4660803.1619   3559129.0942   1   9   0.0006   0.0010   0.0009   0.0006  -0.0008  -0.0005   0.00  226.3
2022/07/03 00:37:45.000  -2491490.4095  -4660803.1619   3559129.0942   1   9   0.0006   0.0010   0.0009   0.0006  -0.0008  -0.0005  15.00  236.8
2022/07/03 00:38:00.000  -2491490.4096  -4660803.1621   3559129.0943   1   9   0.0006   0.0010   0.0009   0.0006  -0.0008  -0.0005   0.00  237.3
2022/07/03 00:38:15.000  -2491490.4096  -4660803.1621   3559129.0942   1   9   0.0006   0.0010   0.0009   0.0006  -0.0008  -0.0005  15.00  247.4
2022/07/03 00:38:30.000  -2491490.4096  -4660803.1622   3559129.0943   1   9   0.0006   0.0010   0.0009   0.0006  -0.0008  -0.0005   0.00  248.9
2022/07/03 00:38:45.000  -2491490.4096  -4660803.1622   3559129.0942   1   9   0.0006   0.0010   0.0009   0.0006  -0.0008  -0.0005  15.00  258.7
2022/07/03 00:39:00.000  -2491490.4096  -4660803.1624   3559129.0943   1   9   0.0006   0.0010   0.0009   0.0006  -0.0008  -0.0005   0.00  260.9
2022/07/03 00:39:15.000  -2491490.4095  -4660803.1623   3559129.0942   1   9   0.0006   0.0010   0.0009   0.0006  -0.0008  -0.0005  15.00  271.1
2022/07/03 00:39:30.000  -2491490.4095  -4660803.1625   3559129.0943   1   9   0.0006   0.0010   0.0009   0.0006  -0.0008  -0.0005   0.00  272.6
2022/07/03 00:39:45.000  -2491490.4095  -4660803.1625   3559129.0943   1   9   0.0006   0.0010   0.0009   0.0006  -0.0008  -0.0005  15.00  282.8
2022/07/03 00:40:00.000  -2491490.4095  -4660803.1625   3559129.0942   1   9   0.0006   0.0010   0.0009   0.0005  -0.0007  -0.0005   0.00  283.1
2022/07/03 00:40:15.000  -2491490.4095  -4660803.1625   3559129.0942   1   9   0.0006   0.0010   0.0009   0.0005  -0.0007  -0.0005  15.00  293.2
2022/07/03 00:40:30.000  -2491490.4094  -4660803.1626   3559129.0942   1   9   0.0006   0.0010   0.0009   0.0005  -0.0007  -0.0005   0.00  292.7
2022/07/03 00:40:45.000  -2491490.4094  -4660803.1625   3559129.0941   1   9   0.0006   0.0010   0.0009   0.0005  -0.0007  -0.0005  15.00  302.4
2022/07/03 00:41:00.000  -2491490.4094  -4660803.1625   3559129.0941   1   9   0.0006   0.0010   0.0009   0.0005  -0.0007  -0.0005   0.00  304.4
2022/07/03 00:41:15.000  -2491490.4093  -4660803.1625   3559129.0941   1   9   0.0006   0.0010   0.0009   0.0005  -0.0007  -0.0005  15.00  314.6
2022/07/03 00:41:30.000  -2491490.4093  -4660803.1626   3559129.0941   1   9   0.0006   0.0010   0.0009   0.0005  -0.0007  -0.0005   0.00  314.9
2022/07/03 00:41:45.000  -2491490.4093  -4660803.1626   3559129.0940   1   9   0.0006   0.0010   0.0009   0.0005  -0.0007  -0.0005  15.00  325.6
2022/07/03 00:42:00.000  -2491490.4093  -4660803.1628   3559129.0940   1   9   0.0006   0.0009   0.0009   0.0005  -0.0007  -0.0005   0.00  325.3
2022/07/03 00:42:15.000  -2491490.4092  -4660803.1628   3559129.0940   1   9   0.0006   0.0009   0.0009   0.0005  -0.0007  -0.0005  15.00  334.3
2022/07/03 00:42:30.000  -2491490.4092  -4660803.1629   3559129.0940   1   9   0.0005   0.0009   0.0009   0.0005  -0.0007  -0.0005   0.00  334.2
2022/07/03 00:42:45.000  -2491490.4092  -4660803.1629   3559129.0940   1   9   0.0005   0.0009   0.0009   0.0005  -0.0007  -0.0005  15.00  343.7
2022/07/03 00:43:00.000  -2491490.4092  -4660803.1631   3559129.0940   1   9   0.0005   0.0009   0.0008   0.0005  -0.0007  -0.0005   0.00  340.1
2022/07/03 00:43:15.000  -2491490.4091  -4660803.1630   3559129.0940   1   9   0.0005   0.0009   0.0008   0.0005  -0.0007  -0.0005  15.00  349.2
2022/07/03 00:43:30.000  -2491490.4092  -4660803.1631   3559129.0940   1   9   0.0005   0.0009   0.0008   0.0005  -0.0007  -0.0005   0.00  344.3
2022/07/03 00:43:45.000  -2491490.4091  -4660803.1631   3559129.0940   1   9   0.0005   0.0009   0.0008   0.0005  -0.0007  -0.0005  15.00  353.5
2022/07/03 00:44:00.000  -2491490.4092  -4660803.1633   3559129.0941   1   9   0.0005   0.0009   0.0008   0.0005  -0.0007  -0.0005   0.00  348.8
2022/07/03 00:44:15.000  -2491490.4091  -4660803.1633   3559129.0941   1   9   0.0005   0.0009   0.0008   0.0005  -0.0007  -0.0005  15.00  355.8
2022/07/03 00:44:30.000  -2491490.4092  -4660803.1635   3559129.0942   1   9   0.0005   0.0009   0.0008   0.0005  -0.0007  -0.0005   0.00  348.5
2022/07/03 00:44:45.000  -2491490.4092  -4660803.1635   3559129.0942   1   9   0.0005   0.0009   0.0008   0.0005  -0.0007  -0.0005  15.00  356.7
2022/07/03 00:45:00.000  -2491490.4093  -4660803.1636   3559129.0944   1   9   0.0005   0.0009   0.0008   0.0005  -0.0007  -0.0005   0.00  353.5
2022/07/03 00:45:15.000  -2491490.4093  -4660803.1636   3559129.0944   1   9   0.0005   0.0009   0.0008   0.0005  -0.0007  -0.0005  15.00  362.4
2022/07/03 00:45:30.000  -2491490.4095  -4660803.1639   3559129.0946   1   9   0.0005   0.0009   0.0008   0.0005  -0.0007  -0.0005   0.00  357.0
2022/07/03 00:45:45.000  -2491490.4094  -4660803.1638   3559129.0947   1   9   0.0005   0.0009   0.0008   0.0005  -0.0007  -0.0005  15.00  365.6
2022/07/03 00:46:00.000  -2491490.4096  -4660803.1640   3559129.0949   1   9   0.0005   0.0009   0.0008   0.0005  -0.0007  -0.0005   0.00  360.8
2022/07/03 00:46:15.000  -2491490.4096  -4660803.1640   3559129.0949   1   9   0.0005   0.0009   0.0008   0.0005  -0.0007  -0.0005  15.00  369.5
2022/07/03 00:46:30.000  -2491490.4097  -4660803.1642   3559129.0951   1   9   0.0005   0.0009   0.0008   0.0005  -0.0007  -0.0005   0.00  367.5
2022/07/03 00:46:45.000  -2491490.4097  -4660803.1642   3559129.0951   1   9   0.0005   0.0009   0.0008   0.0005  -0.0007  -0.0005  15.00  375.5
2022/07/03 00:47:00.000  -2491490.4099  -4660803.1644   3559129.0954   1   9   0.0005   0.0009   0.0008   0.0005  -0.0007  -0.0005   0.00  372.2
2022/07/03 00:47:15.000  -2491490.4099  -4660803.1643   3559129.0954   1   9   0.0005   0.0009   0.0008   0.0005  -0.0007  -0.0005  15.00  381.4
2022/07/03 00:47:30.000  -2491490.4100  -4660803.1645   3559129.0955   1   9   0.0005   0.0009   0.0008   0.0005  -0.0007  -0.0005   0.00  376.3
2022/07/03 00:47:45.000  -2491490.4100  -4660803.1645   3559129.0956   1   9   0.0005   0.0009   0.0008   0.0005  -0.0007  -0.0005  15.00  384.9
2022/07/03 00:48:00.000  -2491490.4101  -4660803.1646   3559129.0958   1   9   0.0005   0.0009   0.0008   0.0005  -0.0007  -0.0005   0.00  378.9
2022/07/03 00:48:15.000  -2491490.4101  -4660803.1646   3559129.0958   1   9   0.0005   0.0009   0.0008   0.0005  -0.0007  -0.0005  15.00  386.9
2022/07/03 00:48:30.000  -2491490.4102  -4660803.1648   3559129.0959   1   9   0.0005   0.0009   0.0008   0.0005  -0.0007  -0.0005   0.00  379.5
2022/07/03 00:48:45.000  -2491490.4102  -4660803.1648   3559129.0960   1   9   0.0005   0.0009   0.0008   0.0005  -0.0007  -0.0005  15.00  388.0
2022/07/03 00:49:00.000  -2491490.4104  -4660803.1650   3559129.0962   1   9   0.0005   0.0009   0.0008   0.0005  -0.0007  -0.0005   0.00  382.3
2022/07/03 00:49:15.000  -2491490.4104  -4660803.1650   3559129.0962   1   9   0.0005   0.0009   0.0008   0.0005  -0.0007  -0.0005  15.00  391.0
2022/07/03 00:49:30.000  -2491490.4105  -4660803.1652   3559129.0964   1   9   0.0005   0.0008   0.0008   0.0005  -0.0007  -0.0005   0.00  385.3
2022/07/03 00:49:45.000  -2491490.4105  -4660803.1652   3559129.0964   1   9   0.0005   0.0008   0.0008   0.0005  -0.0007  -0.0005  15.00  393.8
2022/07/03 00:50:00.000  -2491490.4106  -4660803.1654   3559129.0966   1   9   0.0005   0.0008   0.0008   0.0005  -0.0006  -0.0005   0.00  388.7
2022/07/03 00:50:15.000  -2491490.4106  -4660803.1654   3559129.0966   1   9   0.0005   0.0008   0.0008   0.0005  -0.0006  -0.0005  15.00  397.6
2022/07/03 00:50:30.000  -2491490.4106  -4660803.1654   3559129.0964   1   8   0.0005   0.0008   0.0008   0.0005  -0.0006  -0.0005   0.00  418.3
2022/07/03 00:50:45.000  -2491490.4105  -4660803.1654   3559129.0964   1   8   0.0005   0.0008   0.0008   0.0005  -0.0006  -0.0005  15.00  427.7
2022/07/03 00:51:00.000  -2491490.4106  -4660803.1655   3559129.0964   1   8   0.0005   0.0008   0.0008   0.0005  -0.0006  -0.0005   0.00  418.2
2022/07/03 00:51:15.000  -2491490.4106  -4660803.1655   3559129.0964   1   8   0.0005   0.0008   0.0008   0.0005  -0.0006  -0.0005  15.00  427.4
2022/07/03 00:51:30.000  -2491490.4107  -4660803.1656   3559129.0964   1   8   0.0005   0.0008   0.0008   0.0005  -0.0006  -0.0005   0.00  419.8
2022/07/03 00:51:45.000  -2491490.4112  -4660803.1662   3559129.0968   1   7   0.0005   0.0008   0.0008   0.0005  -0.0006  -0.0005  15.00  700.6
2022/07/03 00:52:00.000  -2491490.4113  -4660803.1662   3559129.0968   1   7   0.0005   0.0008   0.0008   0.0005  -0.0006  -0.0005   0.00  684.7
2022/07/03 00:52:15.000  -2491490.4113  -4660803.1662   3559129.0968   1   7   0.0005   0.0008   0.0008   0.0005  -0.0006  -0.0005  15.00  701.4
2022/07/03 00:52:30.000  -2491490.4114  -4660803.1664   3559129.0968   1   7   0.0005   0.0008   0.0008   0.0005  -0.0006  -0.0005   0.00  681.7
2022/07/03 00:52:45.000  -2491490.4114  -4660803.1664   3559129.0968   1   7   0.0005   0.0008   0.0008   0.0005  -0.0006  -0.0005  15.00  697.7
2022/07/03 00:53:00.000  -2491490.4115  -4660803.1665   3559129.0969   1   7   0.0005   0.0008   0.0008   0.0005  -0.0006  -0.0005   0.00  680.6
2022/07/03 00:53:15.000  -2491490.4115  -4660803.1666   3559129.0969   1   7   0.0005   0.0008   0.0008   0.0005  -0.0006  -0.0005  15.00  697.6
2022/07/03 00:53:30.000  -2491490.4116  -4660803.1667   3559129.0969   1   7   0.0005   0.0008   0.0008   0.0005  -0.0006  -0.0005   0.00  687.8
2022/07/03 00:53:45.000  -2491490.4116  -4660803.1667   3559129.0969   1   7   0.0005   0.0008   0.0008   0.0005  -0.0006  -0.0005  15.00  705.0
2022/07/03 00:54:00.000  -2491490.4117  -4660803.1669   3559129.0970   1   7   0.0005   0.0008   0.0008   0.0005  -0.0006  -0.0005   0.00  691.4
2022/07/03 00:54:15.000  -2491490.4117  -4660803.1669   3559129.0970   1   7   0.0005   0.0008   0.0008   0.0005  -0.0006  -0.0005  15.00  707.8
2022/07/03 00:54:30.000  -2491490.4118  -4660803.1671   3559129.0971   1   7   0.0005   0.0008   0.0008   0.0005  -0.0006  -0.0005   0.00  697.8
2022/07/03 00:54:45.000  -2491490.4118  -4660803.1670   3559129.0971   1   7   0.0005   0.0008   0.0008   0.0005  -0.0006  -0.0005  15.00  713.8
2022/07/03 00:55:00.000  -2491490.4119  -4660803.1672   3559129.0972   1   7   0.0005   0.0008   0.0008   0.0005  -0.0006  -0.0005   0.00  705.0
2022/07/03 00:55:15.000  -2491490.4119  -4660803.1672   3559129.0972   1   7   0.0005   0.0008   0.0008   0.0005  -0.0006  -0.0005  15.00  722.0
2022/07/03 00:55:30.000  -2491490.4120  -4660803.1674   3559129.0972   1   7   0.0005   0.0008   0.0008   0.0005  -0.0006  -0.0005   0.00  713.3
2022/07/03 00:55:45.000  -2491490.4120  -4660803.1674   3559129.0972   1   7   0.0005   0.0008   0.0008   0.0005  -0.0006  -0.0005  15.00  730.5
2022/07/03 00:56:00.000  -2491490.4121  -4660803.1675   3559129.0973   1   7   0.0005   0.0008   0.0008   0.0005  -0.0006  -0.0005   0.00  716.9
2022/07/03 00:56:15.000  -2491490.4121  -4660803.1675   3559129.0973   1   7   0.0005   0.0008   0.0008   0.0005  -0.0006  -0.0005  15.00  735.0
2022/07/03 00:56:30.000  -2491490.4122  -4660803.1676   3559129.0974   1   7   0.0005   0.0008   0.0008   0.0005  -0.0006  -0.0005   0.00  723.2
2022/07/03 00:56:45.000  -2491490.4122  -4660803.1676   3559129.0974   1   7   0.0005   0.0008   0.0008   0.0005  -0.0006  -0.0005  15.00  739.9
2022/07/03 00:57:00.000  -2491490.4123  -4660803.1677   3559129.0975   1   7   0.0005   0.0008   0.0008   0.0005  -0.0006  -0.0005   0.00  727.5
2022/07/03 00:57:15.000  -2491490.4123  -4660803.1677   3559129.0975   1   7   0.0005   0.0008   0.0008   0.0005  -0.0006  -0.0005  15.00  744.6
2022/07/03 00:57:30.000  -2491490.4124  -4660803.1679   3559129.0976   1   7   0.0005   0.0008   0.0008   0.0005  -0.0006  -0.0005   0.00  735.1
2022/07/03 00:57:45.000  -2491490.4124  -4660803.1679   3559129.0976   1   7   0.0005   0.0008   0.0008   0.0005  -0.0006  -0.0005  15.00  752.4
2022/07/03 00:58:00.000  -2491490.4125  -4660803.1682   3559129.0977   1   7   0.0005   0.0008   0.0008   0.0005  -0.0006  -0.0005   0.00  737.4
2022/07/03 00:58:15.000  -2491490.4125  -4660803.1682   3559129.0977   1   7   0.0005   0.0008   0.0008   0.0005  -0.0006  -0.0005  15.00  753.9
2022/07/03 00:58:30.000  -2491490.4126  -4660803.1684   3559129.0978   1   7   0.0005   0.0008   0.0008   0.0005  -0.0006  -0.0005   0.00  736.2
2022/07/03 00:58:45.000  -2491490.4126  -4660803.1684   3559129.0978   1   7   0.0005   0.0008   0.0008   0.0005  -0.0006  -0.0005  15.00  752.2
2022/07/03 00:59:00.000  -2491490.4127  -4660803.1686   3559129.0979   1   7   0.0005   0.0008   0.0008   0.0005  -0.0006  -0.0005   0.00  735.7
2022/07/03 00:59:15.000  -2491490.4127  -4660803.1686   3559129.0979   1   7   0.0005   0.0008   0.0008   0.0005  -0.0006  -0.0005  15.00  751.5
2022/07/03 00:59:30.000  -2491490.4128  -4660803.1690   3559129.0981   1   7   0.0005   0.0008   0.0008   0.0005  -0.0006  -0.0005   0.00  727.9
2022/07/03 00:59:45.000  -2491490.4128  -4660803.1690   3559129.0981   1   7   0.0005   0.0008   0.0008   0.0005  -0.0006  -0.0005  15.00  744.5
2022/07/03 01:00:00.000  -2491490.4130  -4660803.1692   3559129.0982   1   7   0.0005   0.0008   0.0008   0.0005  -0.0006  -0.0005   0.00  722.4
2022/07/03 01:00:15.000  -2491490.4129  -4660803.1692   3559129.0982   1   7   0.0005   0.0008   0.0008   0.0005  -0.0006  -0.0005  15.00  738.2
2022/07/03 01:00:30.000  -2491490.4131  -4660803.1694   3559129.0983   1   7   0.0005   0.0008   0.0008   0.0005  -0.0006  -0.0005   0.00  723.3
2022/07/03 01:00:45.000  -2491490.4131  -4660803.1694   3559129.0983   1   7   0.0005   0.0008   0.0008   0.0005  -0.0006  -0.0005  15.00  739.3
2022/07/03 01:01:00.000  -2491490.4132  -4660803.1696   3559129.0985   1   7   0.0005   0.0008   0.0008   0.0005  -0.0006  -0.0005   0.00  718.7
2022/07/03 01:01:15.000  -2491490.4132  -4660803.1696   3559129.0985   1   7   0.0005   0.0008   0.0008   0.0005  -0.0006  -0.0005  15.00  734.4
2022/07/03 01:01:30.000  -2491490.4133  -4660803.1697   3559129.0986   1   7   0.0005   0.0008   0.0008   0.0004  -0.0006  -0.0005   0.00  714.8
2022/07/03 01:01:45.000  -2491490.4133  -4660803.1698   3559129.0986   1   7   0.0005   0.0008   0.0008   0.0004  -0.0006  -0.0005  15.00  729.4
2022/07/03 01:02:00.000  -2491490.4134  -4660803.1699   3559129.0987   1   7   0.0005   0.0008   0.0008   0.0004  -0.0006  -0.0005   0.00  709.8
2022/07/03 01:02:15.000  -2491490.4134  -4660803.1699   3559129.0987   1   7   0.0005   0.0008   0.0008   0.0004  -0.0006  -0.0005  15.00  724.9
2022/07/03 01:02:30.000  -2491490.4136  -4660803.1700   3559129.0989   1   7   0.0005   0.0007   0.0008   0.0004  -0.0006  -0.0005   0.00  709.4
2022/07/03 01:02:45.000  -2491490.4136  -4660803.1700   3559129.0989   1   7   0.0005   0.0007   0.0008   0.0004  -0.0006  -0.0005  15.00  724.7
2022/07/03 01:03:00.000  -2491490.4136  -4660803.1701   3559129.0990   1   7   0.0005   0.0007   0.0007   0.0004  -0.0006  -0.0005   0.00  714.5
2022/07/03 01:03:15.000  -2491490.4137  -4660803.1702   3559129.0990   1   7   0.0005   0.0007   0.0007   0.0004  -0.0006  -0.0005  15.00  729.9
2022/07/03 01:03:30.000  -2491490.4138  -4660803.1703   3559129.0991   1   7   0.0005   0.0007   0.0007   0.0004  -0.0006  -0.0005   0.00  718.4
2022/07/03 01:03:45.000  -2491490.4138  -4660803.1703   3559129.0991   1   7   0.0005   0.0007   0.0007   0.0004  -0.0006  -0.0005  15.00  734.1
2022/07/03 01:04:00.000  -2491490.4138  -4660803.1704   3559129.0992   1   7   0.0005   0.0007   0.0007   0.0004  -0.0006  -0.0005   0.00  719.8
2022/07/03 01:04:15.000  -2491490.4138  -4660803.1704   3559129.0992   1   7   0.0005   0.0007   0.0007   0.0004  -0.0006  -0.0005  15.00  735.4
2022/07/03 01:04:30.000  -2491490.4139  -4660803.1705   3559129.0993   1   7   0.0005   0.0007   0.0007   0.0004  -0.0006  -0.0005   0.00  720.1
2022/07/03 01:04:45.000  -2491490.4139  -4660803.1705   3559129.0992   1   7   0.0005   0.0007   0.0007   0.0004  -0.0006  -0.0005  15.00  733.2
2022/07/03 01:05:00.000  -2491490.4140  -4660803.1707   3559129.0994   1   7   0.0005   0.0007   0.0007   0.0004  -0.0006  -0.0005   0.00  716.4
2022/07/03 01:05:15.000  -2491490.4140  -4660803.1706   3559129.0994   1   7   0.0005   0.0007   0.0007   0.0004  -0.0006  -0.0005  15.00  731.0
2022/07/03 01:05:30.000  -2491490.4141  -4660803.1707   3559129.0994   1   7   0.0005   0.0007   0.0007   0.0004  -0.0006  -0.0004   0.00  718.2
2022/07/03 01:05:45.000  -2491490.4140  -4660803.1707   3559129.0994   1   7   0.0005   0.0007   0.0007   0.0004  -0.0006  -0.0004  15.00  733.6
2022/07/03 01:06:00.000  -2491490.4141  -4660803.1708   3559129.0995   1   7   0.0005   0.0007   0.0007   0.0004  -0.0006  -0.0004   0.00  720.9
2022/07/03 01:06:15.000  -2491490.4141  -4660803.1707   3559129.0994   1   7   0.0005   0.0007   0.0007   0.0004  -0.0006  -0.0004  15.00  736.8
2022/07/03 01:06:30.000  -2491490.4141  -4660803.1707   3559129.0995   1   7   0.0005   0.0007   0.0007   0.0004  -0.0006  -0.0004   0.00  729.4
2022/07/03 01:06:45.000  -2491490.4141  -4660803.1707   3559129.0994   1   7   0.0005   0.0007   0.0007   0.0004  -0.0006  -0.0004  15.00  744.8
2022/07/03 01:07:00.000  -2491490.4142  -4660803.1707   3559129.0995   1   7   0.0005   0.0007   0.0007   0.0004  -0.0006  -0.0004   0.00  733.8
2022/07/03 01:07:15.000  -2491490.4141  -4660803.1707   3559129.0995   1   7   0.0005   0.0007   0.0007   0.0004  -0.0006  -0.0004  15.00  749.8
2022/07/03 01:07:30.000  -2491490.4142  -4660803.1707   3559129.0995   1   7   0.0005   0.0007   0.0007   0.0004  -0.0006  -0.0004   0.00  735.6
2022/07/03 01:07:45.000  -2491490.4142  -4660803.1707   3559129.0995   1   7   0.0005   0.0007   0.0007   0.0004  -0.0006  -0.0004  15.00  750.1
2022/07/03 01:08:00.000  -2491490.4143  -4660803.1708   3559129.0996   1   7   0.0005   0.0007   0.0007   0.0004  -0.0006  -0.0004   0.00  728.1
2022/07/03 01:08:15.000  -2491490.4143  -4660803.1707   3559129.0995   1   7   0.0005   0.0007   0.0007   0.0004  -0.0006  -0.0004  15.00  743.1
2022/07/03 01:08:30.000  -2491490.4144  -4660803.1707   3559129.0996   1   7   0.0005   0.0007   0.0007   0.0004  -0.0005  -0.0004   0.00  727.1
2022/07/03 01:08:45.000  -2491490.4144  -4660803.1707   3559129.0996   1   7   0.0005   0.0007   0.0007   0.0004  -0.0005  -0.0004  15.00  742.0
2022/07/03 01:09:00.000  -2491490.4144  -4660803.1708   3559129.0996   1   7   0.0005   0.0007   0.0007   0.0004  -0.0005  -0.0004   0.00  719.4
2022/07/03 01:09:15.000  -2491490.4144  -4660803.1708   3559129.0996   1   7   0.0005   0.0007   0.0007   0.0004  -0.0005  -0.0004  15.00  732.9
2022/07/03 01:09:30.000  -2491490.4145  -4660803.1709   3559129.0997   1   7   0.0005   0.0007   0.0007   0.0004  -0.0005  -0.0004   0.00  718.0
2022/07/03 01:09:45.000  -2491490.4145  -4660803.1708   3559129.0997   1   7   0.0005   0.0007   0.0007   0.0004  -0.0005  -0.0004  15.00  733.7
2022/07/03 01:10:00.000  -2491490.4146  -4660803.1709   3559129.0997   1   7   0.0005   0.0007   0.0007   0.0004  -0.0005  -0.0004   0.00  718.3
2022/07/03 01:10:15.000  -2491490.4146  -4660803.1708   3559129.0997   1   7   0.0005   0.0007   0.0007   0.0004  -0.0005  -0.0004  15.00  733.2
2022/07/03 01:10:30.000  -2491490.4147  -4660803.1709   3559129.0998   1   7   0.0005   0.0007   0.0007   0.0004  -0.0005  -0.0004   0.00  718.5
2022/07/03 01:10:45.000  -2491490.4147  -4660803.1709   3559129.0998   1   7   0.0005   0.0007   0.0007   0.0004  -0.0005  -0.0004  15.00  733.4
2022/07/03 01:11:00.000  -2491490.4148  -4660803.1710   3559129.0998   1   7   0.0005   0.0007   0.0007   0.0004  -0.0005  -0.0004   0.00  715.8
2022/07/03 01:11:15.000  -2491490.4148  -4660803.1710   3559129.0998   1   7   0.0005   0.0007   0.0007   0.0004  -0.0005  -0.0004  15.00  730.1
2022/07/03 01:11:30.000  -2491490.4149  -4660803.1710   3559129.0999   1   7   0.0005   0.0007   0.0007   0.0004  -0.0005  -0.0004   0.00  715.6
2022/07/03 01:11:45.000  -2491490.4149  -4660803.1710   3559129.0998   1   7   0.0005   0.0007   0.0007   0.0004  -0.0005  -0.0004  15.00  729.8
2022/07/03 01:12:00.000  -2491490.4150  -4660803.1711   3559129.0999   1   7   0.0005   0.0007   0.0007   0.0004  -0.0005  -0.0004   0.00  712.4
2022/07/03 01:12:15.000  -2491490.4150  -4660803.1711   3559129.0999   1   7   0.0005   0.0007   0.0007   0.0004  -0.0005  -0.0004  15.00  726.8
2022/07/03 01:12:30.000  -2491490.4151  -4660803.1712   3559129.0999   1   7   0.0005   0.0007   0.0007   0.0004  -0.0005  -0.0004   0.00  705.5
2022/07/03 01:12:45.000  -2491490.4151  -4660803.1712   3559129.0999   1   7   0.0005   0.0007   0.0007   0.0004  -0.0005  -0.0004  15.00  718.9
2022/07/03 01:13:00.000  -2491490.4153  -4660803.1713   3559129.1000   1   7   0.0005   0.0007   0.0007   0.0004  -0.0005  -0.0004   0.00  703.1
2022/07/03 01:13:15.000  -2491490.4153  -4660803.1713   3559129.1000   1   7   0.0005   0.0007   0.0007   0.0004  -0.0005  -0.0004  15.00  716.8
2022/07/03 01:13:30.000  -2491490.4154  -4660803.1714   3559129.1001   1   7   0.0005   0.0007   0.0007   0.0004  -0.0005  -0.0004   0.00  700.1
2022/07/03 01:13:45.000  -2491490.4154  -4660803.1714   3559129.1001   1   7   0.0005   0.0007   0.0007   0.0004  -0.0005  -0.0004  15.00  714.5
2022/07/03 01:14:00.000  -2491490.4155  -4660803.1715   3559129.1001   1   7   0.0005   0.0007   0.0007   0.0004  -0.0005  -0.0004   0.00  701.7
2022/07/03 01:14:15.000  -2491490.4155  -4660803.1715   3559129.1001   1   7   0.0005   0.0007   0.0007   0.0004  -0.0005  -0.0004  15.00  715.3
2022/07/03 01:14:30.000  -2491490.4156  -4660803.1716   3559129.1002   1   7   0.0005   0.0007   0.0007   0.0004  -0.0005  -0.0004   0.00  696.9
2022/07/03 01:14:45.000  -2491490.4156  -4660803.1716   3559129.1001   1   7   0.0005   0.0007   0.0007   0.0004  -0.0005  -0.0004  15.00  710.8
2022/07/03 01:15:00.000  -2491490.4157  -4660803.1717   3559129.1003   1   7   0.0005   0.0007   0.0007   0.0004  -0.0005  -0.0004   0.00  689.5
2022/07/03 01:15:15.000  -2491490.4157  -4660803.1717   3559129.1003   1   7   0.0005   0.0007   0.0007   0.0004  -0.0005  -0.0004  15.00  702.3
2022/07/03 01:15:30.000  -2491490.4159  -4660803.1719   3559129.1004   1   7   0.0005   0.0007   0.0007   0.0004  -0.0005  -0.0004   0.00  681.5
2022/07/03 01:15:45.000  -2491490.4159  -4660803.1719   3559129.1004   1   7   0.0005   0.0007   0.0007   0.0004  -0.0005  -0.0004  15.00  694.1
2022/07/03 01:16:00.000  -2491490.4160  -4660803.1721   3559129.1006   1   7   0.0005   0.0007   0.0007   0.0004  -0.0005  -0.0004   0.00  675.1
2022/07/03 01:16:15.000  -2491490.4160  -4660803.1721   3559129.1006   1   7   0.0005   0.0007   0.0007   0.0004  -0.0005  -0.0004  15.00  688.5
2022/07/03 01:16:30.000  -2491490.4162  -4660803.1723   3559129.1007   1   7   0.0004   0.0007   0.0007   0.0004  -0.0005  -0.0004   0.00  674.3
2022/07/03 01:16:45.000  -2491490.4162  -4660803.1723   3559129.1007   1   7   0.0004   0.0007   0.0007   0.0004  -0.0005  -0.0004  15.00  686.5
2022/07/03 01:17:00.000  -2491490.4164  -4660803.1725   3559129.1010   1   7   0.0004   0.0007   0.0007   0.0004  -0.0005  -0.0004   0.00  665.4
2022/07/03 01:17:15.000  -2491490.4164  -4660803.1725   3559129.1010   1   7   0.0004   0.0007   0.0007   0.0004  -0.0005  -0.0004  15.00  678.6
2022/07/03 01:17:30.000  -2491490.4166  -4660803.1727   3559129.1012   1   7   0.0004   0.0007   0.0007   0.0004  -0.0005  -0.0004   0.00  660.8
2022/07/03 01:17:45.000  -2491490.4166  -4660803.1728   3559129.1012   1   7   0.0004   0.0007   0.0007   0.0004  -0.0005  -0.0004  15.00  672.9
2022/07/03 01:18:00.000  -2491490.4167  -4660803.1730   3559129.1014   1   7   0.0004   0.0007   0.0007   0.0004  -0.0005  -0.0004   0.00  655.3
2022/07/03 01:18:15.000  -2491490.4167  -4660803.1730   3559129.1014   1   7   0.0004   0.0007   0.0007   0.0004  -0.0005  -0.0004  15.00  667.2
2022/07/03 01:18:30.000  -2491490.4169  -4660803.1732   3559129.1016   1   7   0.0004   0.0007   0.0007   0.0004  -0.0005  -0.0004   0.00  649.8
2022/07/03 01:18:45.000  -2491490.4169  -4660803.1731   3559129.1015   1   7   0.0004   0.0007   0.0007   0.0004  -0.0005  -0.0004  15.00  662.0
2022/07/03 01:19:00.000  -2491490.4170  -4660803.1733   3559129.1017   1   7   0.0004   0.0007   0.0007   0.0004  -0.0005  -0.0004   0.00  650.4
2022/07/03 01:19:15.000  -2491490.4161  -4660803.1723   3559129.1012   2   8   0.0005   0.0007   0.0007   0.0004  -0.0005  -0.0004  15.00    1.1
2022/07/03 01:19:30.000  -2491490.4162  -4660803.1724   3559129.1013   2   8   0.0005   0.0007   0.0007   0.0004  -0.0005  -0.0004   0.00    1.9
2022/07/03 01:19:45.000  -2491490.4162  -4660803.1724   3559129.1013   2   8   0.0005   0.0007   0.0007   0.0004  -0.0005  -0.0004  15.00    1.9
2022/07/03 01:20:00.000  -2491490.4163  -4660803.1725   3559129.1014   2   8   0.0005   0.0007   0.0007   0.0004  -0.0005  -0.0004   0.00    2.4
2022/07/03 01:20:15.000  -2491490.4163  -4660803.1725   3559129.1013   2   8   0.0005   0.0007   0.0007   0.0004  -0.0005  -0.0004  15.00    2.2
2022/07/03 01:20:30.000  -2491490.4164  -4660803.1726   3559129.1014   2   8   0.0005   0.0007   0.0007   0.0004  -0.0005  -0.0004   0.00    2.6
2022/07/03 01:20:45.000  -2491490.4164  -4660803.1726   3559129.1014   2   8   0.0005   0.0007   0.0007   0.0004  -0.0005  -0.0004  15.00    2.6
2022/07/03 01:21:00.000  -2491490.4179  -4660803.1743   3559129.1031   1   8   0.0004   0.0007   0.0007   0.0004  -0.0005  -0.0004   0.00    3.1
2022/07/03 01:21:15.000  -2491490.4179  -4660803.1743   3559129.1032   1   8   0.0004   0.0007   0.0007   0.0004  -0.0005  -0.0004  15.00    3.1
2022/07/03 01:21:30.000  -2491490.4181  -4660803.1746   3559129.1034   1   8   0.0004   0.0006   0.0007   0.0004  -0.0005  -0.0004   0.00    3.4
2022/07/03 01:21:45.000  -2491490.4181  -4660803.1746   3559129.1035   1   8   0.0004   0.0006   0.0007   0.0004  -0.0005  -0.0004  15.00    3.4
2022/07/03 01:22:00.000  -2491490.4183  -4660803.1748   3559129.1038   1   8   0.0004   0.0006   0.0007   0.0004  -0.0005  -0.0004   0.00    3.6
2022/07/03 01:22:15.000  -2491490.4183  -4660803.1748   3559129.1038   1   8   0.0004   0.0006   0.0007   0.0004  -0.0005  -0.0004  15.00    3.7
2022/07/03 01:22:30.000  -2491490.4185  -4660803.1750   3559129.1041   1   8   0.0004   0.0006   0.0006   0.0004  -0.0005  -0.0004   0.00    3.9
2022/07/03 01:22:45.000  -2491490.4186  -4660803.1750   3559129.1041   1   8   0.0004   0.0006   0.0006   0.0004  -0.0005  -0.0004  15.00    3.8
2022/07/03 01:23:00.000  -2491490.4187  -4660803.1752   3559129.1043   1   8   0.0004   0.0006   0.0006   0.0004  -0.0005  -0.0004   0.00    4.1
2022/07/03 01:23:15.000  -2491490.4188  -4660803.1752   3559129.1044   1   8   0.0004   0.0006   0.0006   0.0004  -0.0005  -0.0004  15.00    4.1
2022/07/03 01:23:30.000  -2491490.4190  -4660803.1753   3559129.1046   1   8   0.0004   0.0006   0.0006   0.0004  -0.0005  -0.0004   0.00    7.8
2022/07/03 01:23:45.000  -2491490.4190  -4660803.1754   3559129.1047   1   8   0.0004   0.0006   0.0006   0.0004  -0.0005  -0.0004  15.00   11.9
2022/07/03 01:24:00.000  -2491490.4192  -4660803.1755   3559129.1049   1   8   0.0004   0.0006   0.0006   0.0004  -0.0005  -0.0004   0.00   16.2
2022/07/03 01:24:15.000  -2491490.4192  -4660803.1755   3559129.1049   1   8   0.0004   0.0006   0.0006   0.0004  -0.0005  -0.0004  15.00   21.0
2022/07/03 01:24:30.000  -2491490.4193  -4660803.1757   3559129.1051   1   8   0.0004   0.0006   0.0006   0.0004  -0.0005  -0.0004   0.00   25.5
2022/07/03 01:24:45.000  -2491490.4193  -4660803.1757   3559129.1052   1   8   0.0004   0.0006   0.0006   0.0004  -0.0005  -0.0004  15.00   30.4
2022/07/03 01:25:00.000  -2491490.4195  -4660803.1758   3559129.1053   1   8   0.0004   0.0006   0.0006   0.0004  -0.0005  -0.0004   0.00   35.2
2022/07/03 01:25:15.000  -2491490.4195  -4660803.1758   3559129.1054   1   8   0.0004   0.0006   0.0006   0.0004  -0.0005  -0.0004  15.00   40.5
2022/07/03 01:25:30.000  -2491490.4197  -4660803.1759   3559129.1056   1   8   0.0004   0.0006   0.0006   0.0004  -0.0005  -0.0004   0.00   44.7
2022/07/03 01:25:45.000  -2491490.4183  -4660803.1743   3559129.1042   2   8   0.0004   0.0007   0.0007   0.0004  -0.0005  -0.0004  15.00    1.1
2022/07/03 01:26:00.000  -2491490.4184  -4660803.1744   3559129.1043   2   8   0.0004   0.0007   0.0007   0.0004  -0.0005  -0.0004   0.00    2.1
2022/07/03 01:26:15.000  -2491490.4184  -4660803.1744   3559129.1043   2   8   0.0004   0.0007   0.0007   0.0004  -0.0005  -0.0004  15.00    2.2
2022/07/03 01:26:30.000  -2491490.4199  -4660803.1761   3559129.1058   1   8   0.0004   0.0006   0.0006   0.0004  -0.0005  -0.0004   0.00    3.2
2022/07/03 01:26:45.000  -2491490.4199  -4660803.1761   3559129.1058   1   8   0.0004   0.0006   0.0006   0.0004  -0.0005  -0.0004  15.00    3.3
2022/07/03 01:27:00.000  -2491490.4201  -4660803.1762   3559129.1060   1   8   0.0004   0.0006   0.0006   0.0004  -0.0005  -0.0004   0.00    4.1
2022/07/03 01:27:15.000  -2491490.4201  -4660803.1762   3559129.1060   1   8   0.0004   0.0006   0.0006   0.0004  -0.0005  -0.0004  15.00    4.2
2022/07/03 01:27:30.000  -2491490.4203  -4660803.1763   3559129.1062   1   8   0.0004   0.0006   0.0006   0.0004  -0.0005  -0.0004   0.00    4.9
2022/07/03 01:27:45.000  -2491490.4203  -4660803.1763   3559129.1062   1   8   0.0004   0.0006   0.0006   0.0004  -0.0005  -0.0004  15.00    5.0
2022/07/03 01:28:00.000  -2491490.4204  -4660803.1763   3559129.1064   1   8   0.0004   0.0006   0.0006   0.0004  -0.0005  -0.0004   0.00    5.8
2022/07/03 01:28:15.000  -2491490.4204  -4660803.1763   3559129.1064   1   8   0.0004   0.0006   0.0006   0.0004  -0.0005  -0.0004  15.00    5.9
2022/07/03 01:28:30.000  -2491490.4206  -4660803.1764   3559129.1066   1   8   0.0004   0.0006   0.0006   0.0004  -0.0004  -0.0004   0.00    6.5
2022/07/03 01:28:45.000  -2491490.4206  -4660803.1764   3559129.1066   1   8   0.0004   0.0006   0.0006   0.0004  -0.0004  -0.0004  15.00    6.6
2022/07/03 01:29:00.000  -2491490.4207  -4660803.1764   3559129.1067   1   8   0.0004   0.0006   0.0006   0.0004  -0.0004  -0.0004   0.00   11.4
2022/07/03 01:29:15.000  -2491490.4207  -4660803.1764   3559129.1067   1   8   0.0004   0.0006   0.0006   0.0004  -0.0004  -0.0004  15.00   15.7
2022/07/03 01:29:30.000  -2491490.4208  -4660803.1765   3559129.1069   1   8   0.0004   0.0006   0.0006   0.0004  -0.0004  -0.0004   0.00   20.5
2022/07/03 01:29:45.000  -2491490.4208  -4660803.1764   3559129.1069   1   8   0.0004   0.0006   0.0006   0.0004  -0.0004  -0.0004  15.00   25.0
2022/07/03 01:30:00.000  -2491490.4210  -4660803.1765   3559129.1070   1   8   0.0004   0.0006   0.0006   0.0004  -0.0004  -0.0004   0.00   29.8
2022/07/03 01:30:15.000  -2491490.4210  -4660803.1765   3559129.1071   1   8   0.0004   0.0006   0.0006   0.0004  -0.0004  -0.0004  15.00   34.5
2022/07/03 01:30:30.000  -2491490.4212  -4660803.1766   3559129.1072   1   8   0.0004   0.0006   0.0006   0.0004  -0.0004  -0.0004   0.00   39.0
2022/07/03 01:30:45.000  -2491490.4212  -4660803.1766   3559129.1072   1   8   0.0004   0.0006   0.0006   0.0004  -0.0004  -0.0004  15.00   43.9
2022/07/03 01:31:00.000  -2491490.4213  -4660803.1767   3559129.1074   1   8   0.0004   0.0006   0.0006   0.0004  -0.0004  -0.0004   0.00   48.7
2022/07/03 01:31:15.000  -2491490.4213  -4660803.1767   3559129.1074   1   8   0.0004   0.0006   0.0006   0.0004  -0.0004  -0.0004  15.00   53.6
2022/07/03 01:31:30.000  -2491490.4215  -4660803.1767   3559129.1074   1   8   0.0004   0.0006   0.0006   0.0004  -0.0004  -0.0004   0.00   58.5
2022/07/03 01:31:45.000  -2491490.4215  -4660803.1767   3559129.1074   1   8   0.0004   0.0006   0.0006   0.0004  -0.0004  -0.0004  15.00   63.8
2022/07/03 01:32:00.000  -2491490.4216  -4660803.1767   3559129.1076   1   8   0.0004   0.0006   0.0006   0.0004  -0.0004  -0.0004   0.00   68.2
2022/07/03 01:32:15.000  -2491490.4216  -4660803.1767   3559129.1076   1   8   0.0004   0.0006   0.0006   0.0004  -0.0004  -0.0004  15.00   73.8
2022/07/03 01:32:30.000  -2491490.4218  -4660803.1768   3559129.1077   1   8   0.0004   0.0006   0.0006   0.0004  -0.0004  -0.0004   0.00   78.2
2022/07/03 01:32:45.000  -2491490.4218  -4660803.1768   3559129.1077   1   8   0.0004   0.0006   0.0006   0.0004  -0.0004  -0.0004  15.00   83.8
2022/07/03 01:33:00.000  -2491490.4219  -4660803.1768   3559129.1078   1   8   0.0004   0.0006   0.0006   0.0004  -0.0004  -0.0004   0.00   88.2
2022/07/03 01:33:15.000  -2491490.4219  -4660803.1768   3559129.1078   1   8   0.0004   0.0006   0.0006   0.0004  -0.0004  -0.0004  15.00   93.9
2022/07/03 01:33:30.000  -2491490.4220  -4660803.1769   3559129.1079   1   8   0.0004   0.0006   0.0006   0.0004  -0.0004  -0.0004   0.00   98.3
2022/07/03 01:33:45.000  -2491490.4220  -4660803.1768   3559129.1079   1   8   0.0004   0.0006   0.0006   0.0004  -0.0004  -0.0004  15.00  104.3
2022/07/03 01:34:00.000  -2491490.4222  -4660803.1769   3559129.1081   1   8   0.0004   0.0006   0.0006   0.0004  -0.0004  -0.0004   0.00  107.8
2022/07/03 01:34:15.000  -2491490.4222  -4660803.1769   3559129.1081   1   8   0.0004   0.0006   0.0006   0.0004  -0.0004  -0.0004  15.00  113.9
2022/07/03 01:34:30.000  -2491490.4223  -4660803.1770   3559129.1082   1   8   0.0004   0.0006   0.0006   0.0004  -0.0004  -0.0004   0.00  116.8
2022/07/03 01:34:45.000  -2491490.4223  -4660803.1769   3559129.1082   1   8   0.0004   0.0006   0.0006   0.0004  -0.0004  -0.0004  15.00  123.1
2022/07/03 01:35:00.000  -2491490.4225  -4660803.1770   3559129.1083   1   8   0.0004   0.0006   0.0006   0.0004  -0.0004  -0.0003   0.00  126.9
2022/07/03 01:35:15.000  -2491490.4225  -4660803.1770   3559129.1083   1   8   0.0004   0.0006   0.0006   0.0004  -0.0004  -0.0003  15.00  132.5
2022/07/03 01:35:30.000  -2491490.4226  -4660803.1771   3559129.1084   1   8   0.0004   0.0006   0.0006   0.0004  -0.0004  -0.0003   0.00  136.9
2022/07/03 01:35:45.000  -2491490.4226  -4660803.1770   3559129.1084   1   8   0.0004   0.0006   0.0006   0.0004  -0.0004  -0.0003  15.00  143.7
2022/07/03 01:36:00.000  -2491490.4227  -4660803.1771   3559129.1085   1   8   0.0004   0.0006   0.0006   0.0004  -0.0004  -0.0003   0.00  147.7
2022/07/03 01:36:15.000  -2491490.4227  -4660803.1770   3559129.1085   1   8   0.0004   0.0006   0.0006   0.0004  -0.0004  -0.0003  15.00  154.6
2022/07/03 01:36:30.000  -2491490.4228  -4660803.1771   3559129.1085   1   8   0.0004   0.0006   0.0006   0.0004  -0.0004  -0.0003   0.00  158.2
2022/07/03 01:36:45.000  -2491490.4228  -4660803.1770   3559129.1085   1   8   0.0004   0.0006   0.0006   0.0004  -0.0004  -0.0003  15.00  165.1
2022/07/03 01:37:00.000  -2491490.4229  -4660803.1771   3559129.1086   1   8   0.0004   0.0006   0.0006   0.0004  -0.0004  -0.0003   0.00  168.6
2022/07/03 01:37:15.000  -2491490.4216  -4660803.1758   3559129.1075   2   9   0.0004   0.0006   0.0006   0.0004  -0.0004  -0.0004  15.00    1.2
2022/07/03 01:37:30.000  -2491490.4217  -4660803.1758   3559129.1075   2   9   0.0004   0.0006   0.0006   0.0004  -0.0004  -0.0004   0.00    1.7
2022/07/03 01:37:45.000  -2491490.4217  -4660803.1758   3559129.1075   2   9   0.0004   0.0006   0.0006   0.0004  -0.0004  -0.0004  15.00    1.9
2022/07/03 01:38:00.000  -2491490.4217  -4660803.1758   3559129.1075   2   9   0.0004   0.0006   0.0006   0.0004  -0.0004  -0.0004   0.00    2.5
2022/07/03 01:38:15.000  -2491490.4218  -4660803.1758   3559129.1075   2   9   0.0004   0.0006   0.0006   0.0004  -0.0004  -0.0004  15.00    2.7
2022/07/03 01:38:30.000  -2491490.4232  -4660803.1771   3559129.1087   1   9   0.0004   0.0006   0.0006   0.0004  -0.0004  -0.0003   0.00    3.3
2022/07/03 01:38:45.000  -2491490.4218  -4660803.1758   3559129.1075   2   9   0.0004   0.0006   0.0006   0.0004  -0.0004  -0.0004  15.00    1.3
2022/07/03 01:39:00.000  -2491490.4232  -4660803.1770   3559129.1084   1   9   0.0004   0.0006   0.0006   0.0004  -0.0004  -0.0003   0.00    4.2
2022/07/03 01:39:15.000  -2491490.4232  -4660803.1770   3559129.1084   1   9   0.0004   0.0006   0.0006   0.0004  -0.0004  -0.0003  15.00    4.7
2022/07/03 01:39:30.000  -2491490.4233  -4660803.1771   3559129.1085   1   9   0.0004   0.0006   0.0006   0.0004  -0.0004  -0.0003   0.00    5.3
2022/07/03 01:39:45.000  -2491490.4233  -4660803.1770   3559129.1085   1   9   0.0004   0.0006   0.0006   0.0004  -0.0004  -0.0003  15.00    5.5
2022/07/03 01:40:00.000  -2491490.4234  -4660803.1771   3559129.1085   1   9   0.0004   0.0006   0.0005   0.0004  -0.0004  -0.0003   0.00    6.1
2022/07/03 01:40:15.000  -2491490.4234  -4660803.1770   3559129.1085   1   9   0.0004   0.0006   0.0005   0.0004  -0.0004  -0.0003  15.00    6.3
2022/07/03 01:40:30.000  -2491490.4235  -4660803.1771   3559129.1085   1   9   0.0004   0.0006   0.0005   0.0004  -0.0004  -0.0003   0.00    6.9
2022/07/03 01:40:45.000  -2491490.4235  -4660803.1771   3559129.1085   1   9   0.0004   0.0006   0.0005   0.0004  -0.0004  -0.0003  15.00    7.2
