% program   : RTKPOST ver.demo5 b34g
% inp file  : C:\Users\89231\Documents\Учеба\Диссертация\RTKLIB\Файлы\05.04.2020\ektg0960.20o
% inp file  : C:\Users\89231\Documents\Учеба\Диссертация\RTKLIB\Файлы\05.04.2020\kotl0960.20o
% inp file  : C:\Users\89231\Documents\Учеба\Диссертация\RTKLIB\Файлы\05.04.2020\ektg0960.20*
% inp file  : C:\Users\89231\Documents\Учеба\Диссертация\RTKLIB\Файлы\05.04.2020\igs21000.sp3
% inp file  : C:\Users\89231\Documents\Учеба\Диссертация\RTKLIB\Файлы\05.04.2020\igs21000.clk_30s
% obs start : 2020/04/05 00:00:00.0 GPST (week2100      0.0s)
% obs end   : 2020/04/05 23:59:30.0 GPST (week2100  86370.0s)
% pos mode  : Static
% freqs     : L1+L2/E5b
% solution  : Forward
% elev mask : 15.0 deg
% dynamics  : on
% tidecorr  : off
% ionos opt : Broadcast
% tropo opt : Saastamoinen
% ephemeris : Precise
% navi sys  : GPS
% amb res   : Fix and Hold
% val thres : 3.0
% antenna1  :                       ( 0.0000  0.0000  0.0000)
% antenna2  :                       ( 0.0000  0.0000  0.0000)
% ref pos   :  2111993.7756   2235910.4280   5568910.2461
%
% (x/y/z-ecef=WGS84,Q=1:fix,2:float,3:sbas,4:dgps,5:single,6:ppp,ns=# of satellites)
%  GPST                      x-ecef(m)      y-ecef(m)      z-ecef(m)   Q  ns   sdx(m)   sdy(m)   sdz(m)  sdxy(m)  sdyz(m)  sdzx(m) age(s)  ratio
2020/04/05 00:00:00.000   1710696.2532   3046080.1382   5318705.0525   2   7   1.1275   2.1720   2.8562   0.9661   1.0185   1.0152   0.00    0.0
2020/04/05 00:00:30.000   1710696.3136   3046081.0118   5318703.4741   2   7   0.7268   0.9771   1.1300   0.3916   0.6014   0.4554   0.00    0.0
2020/04/05 00:01:00.000   1710696.3335   3046081.4014   5318703.1742   2   7   0.5434   0.5663   0.6320   0.1609   0.3619   0.2599   0.00    0.0
2020/04/05 00:01:30.000   1710696.2353   3046081.5185   5318703.1761   2   8   0.4294   0.3781   0.4150  -0.0091   0.2435   0.1719   0.00    0.0
2020/04/05 00:02:00.000   1710696.1715   3046081.5035   5318703.1899   2   8   0.3510   0.2755   0.2971  -0.0788   0.1770   0.1209   0.00    1.1
2020/04/05 00:02:30.000   1710696.1684   3046081.3633   5318703.1802   2   8   0.2928   0.2121   0.2253  -0.0826   0.1356   0.0893   0.00    1.2
2020/04/05 00:03:00.000   1710696.1650   3046081.1879   5318703.1266   2   8   0.2481   0.1699   0.1780  -0.0777   0.1079   0.0686   0.00    1.3
2020/04/05 00:03:30.000   1710696.1370   3046081.0161   5318703.1209   2   8   0.2131   0.1400   0.1450  -0.0708   0.0884   0.0542   0.00    1.0
2020/04/05 00:04:00.000   1710696.0856   3046080.9397   5318703.1749   2   8   0.1853   0.1179   0.1210  -0.0640   0.0742   0.0440   0.00    1.4
2020/04/05 00:04:30.000   1710696.0467   3046080.9254   5318703.1776   2   8   0.1628   0.1011   0.1029  -0.0577   0.0633   0.0364   0.00    1.3
2020/04/05 00:05:00.000   1710696.0226   3046080.9369   5318703.1626   2   8   0.1443   0.0880   0.0889  -0.0522   0.0549   0.0307   0.00    1.1
2020/04/05 00:05:30.000   1710696.0188   3046080.9376   5318703.1716   2   8   0.1290   0.0774   0.0779  -0.0473   0.0482   0.0262   0.00    1.1
2020/04/05 00:06:00.000   1710696.0501   3046080.9504   5318703.1881   2   8   0.1162   0.0688   0.0689  -0.0431   0.0427   0.0227   0.00    1.1
2020/04/05 00:06:30.000   1710696.0715   3046080.9665   5318703.2132   2   8   0.1053   0.0617   0.0615  -0.0394   0.0383   0.0199   0.00    1.0
2020/04/05 00:07:00.000   1710696.1113   3046080.9631   5318703.2303   2   8   0.0960   0.0558   0.0554  -0.0362   0.0345   0.0177   0.00    1.0
2020/04/05 00:07:30.000   1710696.1213   3046080.9425   5318703.2124   2   8   0.0880   0.0507   0.0502  -0.0334   0.0313   0.0158   0.00    1.0
2020/04/05 00:08:00.000   1710696.1331   3046080.9212   5318703.2092   2   8   0.0810   0.0464   0.0458  -0.0309   0.0286   0.0143   0.00    1.1
2020/04/05 00:08:30.000   1710696.1429   3046080.8872   5318703.2066   2   8   0.0750   0.0426   0.0420  -0.0288   0.0263   0.0129   0.00    1.1
2020/04/05 00:09:00.000   1710696.1363   3046080.8753   5318703.1957   2   8   0.0696   0.0394   0.0387  -0.0268   0.0242   0.0118   0.00    1.2
2020/04/05 00:09:30.000   1710696.1330   3046080.8712   5318703.1826   2   8   0.0649   0.0365   0.0358  -0.0251   0.0224   0.0109   0.00    1.1
2020/04/05 00:10:00.000   1710696.1078   3046080.8645   5318703.1625   2   8   0.0606   0.0340   0.0333  -0.0235   0.0209   0.0101   0.00    1.2
2020/04/05 00:10:30.000   1710696.1073   3046080.8520   5318703.1356   2   8   0.0569   0.0317   0.0311  -0.0221   0.0195   0.0094   0.00    1.4
2020/04/05 00:11:00.000   1710696.1038   3046080.8497   5318703.1176   2   8   0.0535   0.0297   0.0291  -0.0209   0.0182   0.0087   0.00    1.1
2020/04/05 00:11:30.000   1710696.1079   3046080.8492   5318703.1122   2   8   0.0504   0.0279   0.0273  -0.0197   0.0171   0.0082   0.00    1.3
2020/04/05 00:12:00.000   1710696.1242   3046080.8405   5318703.1105   2   8   0.0477   0.0263   0.0257  -0.0187   0.0161   0.0077   0.00    1.1
2020/04/05 00:12:30.000   1710696.1267   3046080.8422   5318703.1076   2   7   0.0452   0.0249   0.0244  -0.0177   0.0154   0.0075   0.00    1.1
2020/04/05 00:13:00.000   1710696.1333   3046080.8381   5318703.1065   2   7   0.0429   0.0236   0.0232  -0.0168   0.0147   0.0073   0.00    1.0
2020/04/05 00:13:30.000   1710696.1444   3046080.8310   5318703.1058   2   7   0.0408   0.0224   0.0221  -0.0159   0.0140   0.0071   0.00    1.0
2020/04/05 00:14:00.000   1710696.1457   3046080.8284   5318703.1064   2   7   0.0389   0.0213   0.0211  -0.0152   0.0134   0.0068   0.00    1.2
2020/04/05 00:14:30.000   1710696.1611   3046080.8186   5318703.1104   2   7   0.0371   0.0203   0.0201  -0.0145   0.0128   0.0066   0.00    1.0
2020/04/05 00:15:00.000   1710696.1721   3046080.8140   5318703.1129   2   7   0.0355   0.0194   0.0193  -0.0139   0.0123   0.0064   0.00    1.2
2020/04/05 00:15:30.000   1710696.1768   3046080.8085   5318703.1164   2   7   0.0340   0.0185   0.0184  -0.0133   0.0118   0.0062   0.00    1.0
2020/04/05 00:16:00.000   1710696.1776   3046080.8022   5318703.1190   2   7   0.0326   0.0177   0.0177  -0.0127   0.0113   0.0060   0.00    1.2
2020/04/05 00:16:30.000   1710696.1734   3046080.7952   5318703.1214   2   7   0.0313   0.0170   0.0169  -0.0122   0.0108   0.0058   0.00    1.1
2020/04/05 00:17:00.000   1710696.1654   3046080.7894   5318703.1192   2   7   0.0301   0.0163   0.0163  -0.0118   0.0104   0.0056   0.00    1.0
2020/04/05 00:17:30.000   1710696.1510   3046080.7845   5318703.1198   2   7   0.0289   0.0157   0.0157  -0.0113   0.0100   0.0054   0.00    1.2
2020/04/05 00:18:00.000   1710696.1438   3046080.7830   5318703.1217   2   7   0.0279   0.0151   0.0151  -0.0109   0.0096   0.0053   0.00    1.1
2020/04/05 00:18:30.000   1710696.1285   3046080.7799   5318703.1250   2   7   0.0269   0.0145   0.0145  -0.0106   0.0093   0.0051   0.00    1.1
2020/04/05 00:19:00.000   1710696.1169   3046080.7806   5318703.1270   2   7   0.0260   0.0140   0.0140  -0.0102   0.0090   0.0050   0.00    1.1
2020/04/05 00:19:30.000   1710696.1073   3046080.7874   5318703.1305   2   7   0.0251   0.0135   0.0135  -0.0099   0.0087   0.0048   0.00    1.1
2020/04/05 00:20:00.000   1710696.0962   3046080.7991   5318703.1351   2   7   0.0243   0.0130   0.0130  -0.0096   0.0084   0.0047   0.00    1.1
2020/04/05 00:20:30.000   1710696.0890   3046080.8137   5318703.1428   2   7   0.0235   0.0126   0.0126  -0.0093   0.0081   0.0046   0.00    1.1
2020/04/05 00:21:00.000   1710696.0839   3046080.8267   5318703.1506   2   7   0.0228   0.0122   0.0122  -0.0090   0.0078   0.0044   0.00    1.0
2020/04/05 00:21:30.000   1710696.0842   3046080.8395   5318703.1576   2   7   0.0221   0.0118   0.0118  -0.0087   0.0076   0.0043   0.00    1.4
2020/04/05 00:22:00.000   1710696.0835   3046080.8518   5318703.1613   2   7   0.0214   0.0114   0.0114  -0.0085   0.0073   0.0042   0.00    1.1
2020/04/05 00:22:30.000   1710696.0848   3046080.8683   5318703.1616   2   7   0.0208   0.0111   0.0111  -0.0082   0.0071   0.0041   0.00    1.2
2020/04/05 00:23:00.000   1710696.0862   3046080.8860   5318703.1595   2   7   0.0202   0.0107   0.0108  -0.0080   0.0069   0.0040   0.00    1.0
2020/04/05 00:23:30.000   1710696.0892   3046080.9049   5318703.1570   2   7   0.0197   0.0104   0.0104  -0.0078   0.0067   0.0039   0.00    1.0
2020/04/05 00:24:00.000   1710696.0984   3046080.9234   5318703.1529   2   7   0.0191   0.0101   0.0101  -0.0076   0.0065   0.0038   0.00    1.1
2020/04/05 00:24:30.000   1710696.1039   3046080.9444   5318703.1510   2   7   0.0186   0.0099   0.0099  -0.0074   0.0063   0.0038   0.00    1.2
2020/04/05 00:25:00.000   1710696.1108   3046080.9655   5318703.1496   2   7   0.0182   0.0096   0.0096  -0.0072   0.0061   0.0037   0.00    1.0
2020/04/05 00:25:30.000   1710696.1147   3046080.9859   5318703.1476   2   7   0.0177   0.0093   0.0093  -0.0071   0.0060   0.0036   0.00    1.1
2020/04/05 00:26:00.000   1710696.1109   3046081.0030   5318703.1446   2   7   0.0173   0.0091   0.0091  -0.0069   0.0058   0.0035   0.00    1.0
2020/04/05 00:26:30.000   1710696.1027   3046081.0205   5318703.1443   2   7   0.0169   0.0089   0.0089  -0.0068   0.0056   0.0035   0.00    1.1
2020/04/05 00:27:00.000   1710696.1003   3046081.0391   5318703.1470   2   7   0.0165   0.0086   0.0086  -0.0066   0.0055   0.0034   0.00    1.1
2020/04/05 00:27:30.000   1710696.1020   3046081.0539   5318703.1476   2   7   0.0161   0.0084   0.0084  -0.0065   0.0054   0.0033   0.00    1.0
2020/04/05 00:28:00.000   1710696.1040   3046081.0665   5318703.1487   2   7   0.0157   0.0082   0.0082  -0.0063   0.0052   0.0033   0.00    1.1
2020/04/05 00:28:30.000   1710696.1070   3046081.0777   5318703.1505   2   7   0.0154   0.0080   0.0080  -0.0062   0.0051   0.0032   0.00    1.2
2020/04/05 00:29:00.000   1710696.1105   3046081.0881   5318703.1537   2   7   0.0150   0.0078   0.0078  -0.0061   0.0050   0.0032   0.00    1.0
2020/04/05 00:29:30.000   1710696.1174   3046081.0973   5318703.1576   2   7   0.0147   0.0077   0.0076  -0.0059   0.0048   0.0031   0.00    1.0
2020/04/05 00:30:00.000   1710696.1284   3046081.1037   5318703.1604   2   7   0.0144   0.0075   0.0075  -0.0058   0.0047   0.0031   0.00    1.3
2020/04/05 00:30:30.000   1710696.1405   3046081.1093   5318703.1631   2   7   0.0141   0.0073   0.0073  -0.0057   0.0046   0.0030   0.00    1.0
2020/04/05 00:31:00.000   1710696.1500   3046081.1145   5318703.1646   2   7   0.0138   0.0072   0.0071  -0.0056   0.0045   0.0030   0.00    1.1
2020/04/05 00:31:30.000   1710696.1598   3046081.1174   5318703.1650   2   7   0.0136   0.0070   0.0070  -0.0055   0.0044   0.0029   0.00    1.1
2020/04/05 00:32:00.000   1710696.1675   3046081.1190   5318703.1649   2   7   0.0133   0.0069   0.0068  -0.0054   0.0043   0.0029   0.00    1.2
2020/04/05 00:32:30.000   1710696.1752   3046081.1183   5318703.1623   2   7   0.0131   0.0067   0.0067  -0.0053   0.0042   0.0029   0.00    1.2
2020/04/05 00:33:00.000   1710696.1836   3046081.1157   5318703.1589   2   7   0.0128   0.0066   0.0066  -0.0052   0.0041   0.0028   0.00    1.0
2020/04/05 00:33:30.000   1710696.1898   3046081.1119   5318703.1551   2   7   0.0126   0.0065   0.0064  -0.0051   0.0040   0.0028   0.00    1.4
2020/04/05 00:34:00.000   1710696.1946   3046081.1070   5318703.1522   2   7   0.0124   0.0064   0.0063  -0.0051   0.0040   0.0027   0.00    1.1
2020/04/05 00:34:30.000   1710696.1965   3046081.1021   5318703.1488   2   7   0.0122   0.0062   0.0062  -0.0050   0.0039   0.0027   0.00    1.0
2020/04/05 00:35:00.000   1710696.1962   3046081.0963   5318703.1445   2   7   0.0119   0.0061   0.0061  -0.0049   0.0038   0.0027   0.00    1.3
2020/04/05 00:35:30.000   1710696.1991   3046081.0891   5318703.1403   2   7   0.0117   0.0060   0.0060  -0.0048   0.0037   0.0027   0.00    1.0
2020/04/05 00:36:00.000   1710696.2021   3046081.0823   5318703.1369   2   7   0.0115   0.0059   0.0058  -0.0047   0.0037   0.0026   0.00    1.1
2020/04/05 00:36:30.000   1710696.2027   3046081.0766   5318703.1350   2   7   0.0114   0.0058   0.0057  -0.0047   0.0036   0.0026   0.00    1.1
2020/04/05 00:37:00.000   1710696.2019   3046081.0710   5318703.1339   2   7   0.0112   0.0057   0.0056  -0.0046   0.0035   0.0026   0.00    1.5
2020/04/05 00:37:30.000   1710696.2031   3046081.0640   5318703.1317   2   7   0.0110   0.0056   0.0055  -0.0045   0.0034   0.0025   0.00    1.2
2020/04/05 00:38:00.000   1710696.2020   3046081.0577   5318703.1304   2   7   0.0108   0.0055   0.0054  -0.0045   0.0034   0.0025   0.00    1.1
2020/04/05 00:38:30.000   1710696.1985   3046081.0516   5318703.1289   2   7   0.0107   0.0054   0.0054  -0.0044   0.0033   0.0025   0.00    1.2
2020/04/05 00:39:00.000   1710696.1955   3046081.0446   5318703.1273   2   7   0.0105   0.0053   0.0053  -0.0044   0.0033   0.0025   0.00    1.1
2020/04/05 00:39:30.000   1710696.1931   3046081.0368   5318703.1254   2   7   0.0104   0.0052   0.0052  -0.0043   0.0032   0.0024   0.00    1.0
2020/04/05 00:40:00.000   1710696.1897   3046081.0285   5318703.1227   2   7   0.0102   0.0052   0.0051  -0.0042   0.0031   0.0024   0.00    1.0
2020/04/05 00:40:30.000   1710696.1835   3046081.0214   5318703.1212   2   7   0.0101   0.0051   0.0050  -0.0042   0.0031   0.0024   0.00    1.1
2020/04/05 00:41:00.000   1710696.1779   3046081.0142   5318703.1202   2   7   0.0099   0.0050   0.0049  -0.0041   0.0030   0.0024   0.00    1.3
2020/04/05 00:41:30.000   1710696.1720   3046081.0064   5318703.1188   2   7   0.0098   0.0049   0.0049  -0.0041   0.0030   0.0024   0.00    1.9
2020/04/05 00:42:00.000   1710696.1663   3046080.9988   5318703.1175   2   7   0.0097   0.0049   0.0048  -0.0040   0.0029   0.0024   0.00    1.0
2020/04/05 00:42:30.000   1710696.1574   3046080.9918   5318703.1164   2   7   0.0095   0.0048   0.0047  -0.0040   0.0029   0.0023   0.00    1.1
2020/04/05 00:43:00.000   1710696.1493   3046080.9845   5318703.1152   2   7   0.0094   0.0047   0.0046  -0.0039   0.0028   0.0023   0.00    1.1
2020/04/05 00:43:30.000   1710696.1388   3046080.9783   5318703.1139   2   7   0.0093   0.0047   0.0046  -0.0039   0.0028   0.0023   0.00    1.4
2020/04/05 00:44:00.000   1710696.1284   3046080.9727   5318703.1135   2   7   0.0092   0.0046   0.0045  -0.0038   0.0027   0.0023   0.00    1.1
2020/04/05 00:44:30.000   1710696.1194   3046080.9677   5318703.1134   2   7   0.0091   0.0045   0.0044  -0.0038   0.0027   0.0023   0.00    1.1
2020/04/05 00:45:00.000   1710696.1108   3046080.9626   5318703.1131   2   7   0.0089   0.0045   0.0044  -0.0038   0.0027   0.0023   0.00    2.0
2020/04/05 00:45:30.000   1710696.1023   3046080.9575   5318703.1129   2   7   0.0088   0.0044   0.0043  -0.0037   0.0026   0.0022   0.00    1.4
2020/04/05 00:46:00.000   1710696.0935   3046080.9529   5318703.1138   2   8   0.0087   0.0043   0.0043  -0.0037   0.0026   0.0022   0.00    1.0
2020/04/05 00:46:30.000   1710696.0850   3046080.9483   5318703.1147   2   8   0.0086   0.0043   0.0042  -0.0036   0.0025   0.0022   0.00    2.0
2020/04/05 00:47:00.000   1710696.0765   3046080.9436   5318703.1153   2   8   0.0085   0.0042   0.0041  -0.0036   0.0025   0.0022   0.00    1.8
2020/04/05 00:47:30.000   1710696.0680   3046080.9392   5318703.1165   2   8   0.0084   0.0042   0.0041  -0.0036   0.0025   0.0022   0.00    2.0
2020/04/05 00:48:00.000   1710695.9980   3046080.9640   5318703.0770   1   8   0.0009   0.0014   0.0018   0.0008   0.0005   0.0010   0.00    5.7
2020/04/05 00:48:30.000   1710695.9976   3046080.9574   5318703.1076   1   7   0.0009   0.0015   0.0030   0.0008  -0.0009   0.0011   0.00    5.6
2020/04/05 00:49:00.000   1710695.9961   3046080.9568   5318703.1068   1   7   0.0009   0.0015   0.0030   0.0008  -0.0009   0.0011   0.00    4.8
2020/04/05 00:49:30.000   1710695.9946   3046080.9561   5318703.1061   1   7   0.0009   0.0015   0.0030   0.0008  -0.0008   0.0011   0.00    4.2
2020/04/05 00:50:00.000   1710695.9931   3046080.9553   5318703.1058   1   7   0.0009   0.0015   0.0029   0.0008  -0.0007   0.0011   0.00    3.7
2020/04/05 00:50:30.000   1710695.9915   3046080.9544   5318703.1057   1   7   0.0009   0.0014   0.0029   0.0008  -0.0007   0.0011   0.00    3.2
2020/04/05 00:51:00.000   1710696.0705   3046080.8798   5318703.0855   2   7   0.0079   0.0039   0.0038  -0.0034   0.0023   0.0020   0.00    2.8
2020/04/05 00:51:30.000   1710696.0725   3046080.8713   5318703.0816   2   7   0.0078   0.0038   0.0037  -0.0034   0.0022   0.0020   0.00    2.4
2020/04/05 00:52:00.000   1710696.0655   3046080.8674   5318703.0789   2   7   0.0077   0.0038   0.0037  -0.0034   0.0022   0.0020   0.00    1.0
2020/04/05 00:52:30.000   1710696.0582   3046080.8636   5318703.0764   2   7   0.0077   0.0038   0.0037  -0.0034   0.0022   0.0020   0.00    1.0
2020/04/05 00:53:00.000   1710696.0512   3046080.8597   5318703.0740   2   8   0.0077   0.0038   0.0036  -0.0034   0.0022   0.0020   0.00    1.0
2020/04/05 00:53:30.000   1710696.0440   3046080.8557   5318703.0718   2   7   0.0077   0.0038   0.0036  -0.0034   0.0022   0.0019   0.00    1.2
2020/04/05 00:54:00.000   1710696.0368   3046080.8516   5318703.0702   2   7   0.0076   0.0038   0.0036  -0.0035   0.0021   0.0019   0.00    1.0
2020/04/05 00:54:30.000   1710696.0299   3046080.8476   5318703.0688   2   7   0.0076   0.0038   0.0035  -0.0035   0.0021   0.0019   0.00    1.0
2020/04/05 00:55:00.000   1710696.0237   3046080.8439   5318703.0683   2   7   0.0076   0.0037   0.0035  -0.0035   0.0021   0.0019   0.00    1.1
2020/04/05 00:55:30.000   1710696.0174   3046080.8403   5318703.0678   2   7   0.0076   0.0037   0.0035  -0.0035   0.0021   0.0019   0.00    1.0
2020/04/05 00:56:00.000   1710696.0121   3046080.8369   5318703.0680   2   7   0.0075   0.0037   0.0034  -0.0035   0.0021   0.0019   0.00    1.0
2020/04/05 00:56:30.000   1710696.0070   3046080.8336   5318703.0685   2   7   0.0075   0.0037   0.0034  -0.0035   0.0020   0.0019   0.00    1.1
2020/04/05 00:57:00.000   1710696.0019   3046080.8305   5318703.0693   2   7   0.0075   0.0037   0.0034  -0.0036   0.0020   0.0018   0.00    1.1
2020/04/05 00:57:30.000   1710695.9968   3046080.8273   5318703.0701   2   7   0.0074   0.0037   0.0033  -0.0036   0.0020   0.0018   0.00    1.3
2020/04/05 00:58:00.000   1710695.9917   3046080.8241   5318703.0715   2   7   0.0074   0.0036   0.0033  -0.0036   0.0020   0.0018   0.00    1.1
2020/04/05 00:58:30.000   1710695.9864   3046080.8208   5318703.0731   2   7   0.0074   0.0036   0.0033  -0.0036   0.0019   0.0018   0.00    1.3
2020/04/05 00:59:00.000   1710695.9814   3046080.8173   5318703.0748   2   7   0.0074   0.0036   0.0032  -0.0036   0.0019   0.0018   0.00    1.1
2020/04/05 00:59:30.000   1710695.9766   3046080.8139   5318703.0766   2   7   0.0073   0.0036   0.0032  -0.0036   0.0019   0.0018   0.00    1.0
2020/04/05 01:00:00.000   1710695.9718   3046080.8106   5318703.0786   2   7   0.0073   0.0036   0.0032  -0.0036   0.0019   0.0018   0.00    1.1
2020/04/05 01:00:30.000   1710695.9678   3046080.8075   5318703.0809   2   7   0.0073   0.0036   0.0031  -0.0036   0.0019   0.0018   0.00    1.0
2020/04/05 01:01:00.000   1710695.9645   3046080.8044   5318703.0832   2   7   0.0073   0.0036   0.0031  -0.0036   0.0018   0.0018   0.00    1.2
2020/04/05 01:01:30.000   1710695.9617   3046080.8014   5318703.0854   2   7   0.0072   0.0036   0.0031  -0.0036   0.0018   0.0018   0.00    1.2
2020/04/05 01:02:00.000   1710695.9590   3046080.7983   5318703.0877   2   7   0.0072   0.0035   0.0031  -0.0036   0.0018   0.0018   0.00    1.2
2020/04/05 01:02:30.000   1710695.9567   3046080.7952   5318703.0902   2   7   0.0072   0.0035   0.0030  -0.0036   0.0018   0.0018   0.00    1.1
2020/04/05 01:03:00.000   1710695.9548   3046080.7919   5318703.0926   2   8   0.0071   0.0035   0.0030  -0.0036   0.0018   0.0018   0.00    1.0
2020/04/05 01:03:30.000   1710695.9533   3046080.7887   5318703.0956   2   8   0.0071   0.0035   0.0030  -0.0036   0.0017   0.0018   0.00    1.0
2020/04/05 01:04:00.000   1710695.9521   3046080.7855   5318703.0983   2   8   0.0071   0.0035   0.0030  -0.0036   0.0017   0.0018   0.00    1.0
2020/04/05 01:04:30.000   1710695.9514   3046080.7823   5318703.1015   2   8   0.0071   0.0035   0.0029  -0.0036   0.0017   0.0018   0.00    1.1
2020/04/05 01:05:00.000   1710695.9508   3046080.7791   5318703.1049   2   8   0.0070   0.0035   0.0029  -0.0036   0.0017   0.0018   0.00    1.1
2020/04/05 01:05:30.000   1710695.9509   3046080.7760   5318703.1086   2   8   0.0070   0.0034   0.0029  -0.0036   0.0017   0.0017   0.00    1.1
2020/04/05 01:06:00.000   1710695.9515   3046080.7728   5318703.1125   2   8   0.0070   0.0034   0.0029  -0.0036   0.0016   0.0017   0.00    1.1
2020/04/05 01:06:30.000   1710695.9529   3046080.7696   5318703.1166   2   8   0.0069   0.0034   0.0028  -0.0036   0.0016   0.0017   0.00    1.1
2020/04/05 01:07:00.000   1710695.9545   3046080.7664   5318703.1207   2   8   0.0069   0.0034   0.0028  -0.0036   0.0016   0.0017   0.00    1.0
2020/04/05 01:07:30.000   1710695.9564   3046080.7633   5318703.1249   2   8   0.0069   0.0034   0.0028  -0.0036   0.0016   0.0017   0.00    1.2
2020/04/05 01:08:00.000   1710695.9588   3046080.7597   5318703.1289   2   8   0.0069   0.0034   0.0028  -0.0036   0.0016   0.0017   0.00    1.2
2020/04/05 01:08:30.000   1710695.9617   3046080.7565   5318703.1336   2   8   0.0068   0.0034   0.0027  -0.0036   0.0015   0.0017   0.00    1.2
2020/04/05 01:09:00.000   1710695.9646   3046080.7534   5318703.1384   2   8   0.0068   0.0034   0.0027  -0.0036   0.0015   0.0017   0.00    1.1
2020/04/05 01:09:30.000   1710695.9688   3046080.7501   5318703.1434   2   8   0.0068   0.0033   0.0027  -0.0036   0.0015   0.0017   0.00    1.1
2020/04/05 01:10:00.000   1710695.9732   3046080.7469   5318703.1486   2   8   0.0067   0.0033   0.0027  -0.0036   0.0015   0.0017   0.00    1.2
2020/04/05 01:10:30.000   1710695.9768   3046080.7436   5318703.1531   2   7   0.0067   0.0033   0.0027  -0.0036   0.0015   0.0017   0.00    1.1
2020/04/05 01:11:00.000   1710695.9816   3046080.7401   5318703.1574   2   7   0.0067   0.0033   0.0026  -0.0036   0.0015   0.0018   0.00    1.0
2020/04/05 01:11:30.000   1710695.9870   3046080.7365   5318703.1617   2   7   0.0066   0.0033   0.0026  -0.0036   0.0014   0.0018   0.00    1.1
2020/04/05 01:12:00.000   1710695.9923   3046080.7329   5318703.1661   2   7   0.0066   0.0033   0.0026  -0.0036   0.0014   0.0018   0.00    1.0
2020/04/05 01:12:30.000   1710695.9974   3046080.7295   5318703.1705   2   7   0.0066   0.0033   0.0026  -0.0035   0.0014   0.0018   0.00    1.0
2020/04/05 01:13:00.000   1710696.0030   3046080.7260   5318703.1750   2   7   0.0065   0.0032   0.0026  -0.0035   0.0014   0.0018   0.00    1.0
2020/04/05 01:13:30.000   1710696.0089   3046080.7224   5318703.1794   2   7   0.0065   0.0032   0.0026  -0.0035   0.0014   0.0018   0.00    1.0
2020/04/05 01:14:00.000   1710696.0153   3046080.7186   5318703.1836   2   7   0.0065   0.0032   0.0026  -0.0035   0.0014   0.0018   0.00    1.1
2020/04/05 01:14:30.000   1710696.0218   3046080.7148   5318703.1876   2   7   0.0064   0.0032   0.0025  -0.0035   0.0013   0.0018   0.00    1.0
2020/04/05 01:15:00.000   1710696.0288   3046080.7108   5318703.1918   2   7   0.0064   0.0032   0.0025  -0.0035   0.0013   0.0018   0.00    1.2
2020/04/05 01:15:30.000   1710696.0364   3046080.7065   5318703.1957   2   7   0.0063   0.0032   0.0025  -0.0035   0.0013   0.0018   0.00    1.1
2020/04/05 01:16:00.000   1710696.0443   3046080.7021   5318703.1995   2   7   0.0063   0.0032   0.0025  -0.0034   0.0013   0.0018   0.00    1.2
2020/04/05 01:16:30.000   1710696.0527   3046080.6975   5318703.2033   2   7   0.0063   0.0031   0.0025  -0.0034   0.0013   0.0018   0.00    1.1
2020/04/05 01:17:00.000   1710696.0607   3046080.6930   5318703.2071   2   7   0.0062   0.0031   0.0025  -0.0034   0.0013   0.0018   0.00    1.2
2020/04/05 01:17:30.000   1710696.0688   3046080.6887   5318703.2111   2   7   0.0062   0.0031   0.0025  -0.0034   0.0013   0.0018   0.00    1.1
2020/04/05 01:18:00.000   1710696.0767   3046080.6842   5318703.2148   2   7   0.0061   0.0031   0.0024  -0.0034   0.0013   0.0018   0.00    1.2
2020/04/05 01:18:30.000   1710696.0843   3046080.6800   5318703.2184   2   7   0.0061   0.0031   0.0024  -0.0034   0.0012   0.0018   0.00    1.2
2020/04/05 01:19:00.000   1710696.0916   3046080.6759   5318703.2220   2   7   0.0061   0.0031   0.0024  -0.0033   0.0012   0.0018   0.00    1.2
2020/04/05 01:19:30.000   1710696.0985   3046080.6717   5318703.2252   2   7   0.0060   0.0031   0.0024  -0.0033   0.0012   0.0018   0.00    1.3
2020/04/05 01:20:00.000   1710696.1054   3046080.6678   5318703.2284   2   7   0.0060   0.0030   0.0024  -0.0033   0.0012   0.0018   0.00    1.6
2020/04/05 01:20:30.000   1710696.1118   3046080.6639   5318703.2313   2   7   0.0059   0.0030   0.0024  -0.0033   0.0012   0.0018   0.00    1.1
2020/04/05 01:21:00.000   1710696.1181   3046080.6602   5318703.2340   2   7   0.0059   0.0030   0.0024  -0.0033   0.0012   0.0018   0.00    1.7
2020/04/05 01:21:30.000   1710696.1246   3046080.6565   5318703.2366   2   7   0.0059   0.0030   0.0023  -0.0032   0.0012   0.0018   0.00    1.1
2020/04/05 01:22:00.000   1710696.1307   3046080.6530   5318703.2391   2   7   0.0058   0.0030   0.0023  -0.0032   0.0011   0.0018   0.00    1.3
2020/04/05 01:22:30.000   1710696.1367   3046080.6495   5318703.2415   2   7   0.0058   0.0030   0.0023  -0.0032   0.0011   0.0018   0.00    1.3
2020/04/05 01:23:00.000   1710696.1423   3046080.6461   5318703.2438   2   7   0.0057   0.0030   0.0023  -0.0032   0.0011   0.0018   0.00    1.3
2020/04/05 01:23:30.000   1710696.1478   3046080.6427   5318703.2458   2   7   0.0057   0.0029   0.0023  -0.0031   0.0011   0.0018   0.00    1.5
2020/04/05 01:24:00.000   1710696.1534   3046080.6390   5318703.2477   2   7   0.0056   0.0029   0.0023  -0.0031   0.0011   0.0018   0.00    1.0
2020/04/05 01:24:30.000   1710696.1591   3046080.6355   5318703.2496   2   7   0.0056   0.0029   0.0023  -0.0031   0.0011   0.0018   0.00    2.1
2020/04/05 01:25:00.000   1710696.1642   3046080.6321   5318703.2514   2   7   0.0056   0.0029   0.0022  -0.0031   0.0011   0.0018   0.00    2.1
2020/04/05 01:25:30.000   1710696.1689   3046080.6289   5318703.2531   2   7   0.0055   0.0029   0.0022  -0.0031   0.0011   0.0018   0.00    2.0
2020/04/05 01:26:00.000   1710696.1734   3046080.6257   5318703.2547   2   7   0.0055   0.0029   0.0022  -0.0030   0.0011   0.0018   0.00    2.2
2020/04/05 01:26:30.000   1710696.1783   3046080.6223   5318703.2562   2   7   0.0054   0.0028   0.0022  -0.0030   0.0011   0.0018   0.00    2.1
2020/04/05 01:27:00.000   1710696.1825   3046080.6192   5318703.2576   2   7   0.0054   0.0028   0.0022  -0.0030   0.0010   0.0018   0.00    2.3
2020/04/05 01:27:30.000   1710696.0995   3046080.6384   5318703.2480   1   7   0.0009   0.0011   0.0017   0.0007   0.0009   0.0009   0.00    5.0
2020/04/05 01:28:00.000   1710696.0982   3046080.6369   5318703.2491   1   7   0.0009   0.0011   0.0017   0.0007   0.0009   0.0009   0.00    5.1
2020/04/05 01:28:30.000   1710696.0968   3046080.6354   5318703.2501   1   7   0.0009   0.0011   0.0017   0.0007   0.0009   0.0009   0.00    5.1
2020/04/05 01:29:00.000   1710696.0955   3046080.6338   5318703.2510   1   7   0.0009   0.0011   0.0017   0.0007   0.0009   0.0009   0.00    5.1
2020/04/05 01:29:30.000   1710696.0941   3046080.6321   5318703.2516   1   7   0.0009   0.0011   0.0017   0.0007   0.0009   0.0009   0.00    5.1
2020/04/05 01:30:00.000   1710696.0927   3046080.6304   5318703.2520   1   7   0.0009   0.0011   0.0016   0.0007   0.0009   0.0009   0.00    5.0
2020/04/05 01:30:30.000   1710696.0912   3046080.6287   5318703.2522   1   7   0.0009   0.0010   0.0016   0.0007   0.0009   0.0009   0.00    4.9
2020/04/05 01:31:00.000   1710696.0898   3046080.6270   5318703.2524   1   7   0.0009   0.0010   0.0016   0.0007   0.0009   0.0009   0.00    4.8
2020/04/05 01:31:30.000   1710696.0883   3046080.6253   5318703.2522   1   7   0.0009   0.0010   0.0016   0.0007   0.0009   0.0009   0.00    4.7
2020/04/05 01:32:00.000   1710696.0868   3046080.6236   5318703.2520   1   7   0.0009   0.0010   0.0016   0.0007   0.0009   0.0009   0.00    4.6
2020/04/05 01:32:30.000   1710696.0853   3046080.6220   5318703.2516   1   7   0.0009   0.0010   0.0016   0.0007   0.0009   0.0009   0.00    4.5
2020/04/05 01:33:00.000   1710696.0836   3046080.6201   5318703.2510   1   7   0.0009   0.0010   0.0016   0.0007   0.0009   0.0008   0.00    4.3
2020/04/05 01:33:30.000   1710696.0820   3046080.6182   5318703.2503   1   7   0.0009   0.0010   0.0016   0.0007   0.0009   0.0008   0.00    4.2
2020/04/05 01:34:00.000   1710696.0803   3046080.6163   5318703.2492   1   7   0.0009   0.0010   0.0016   0.0007   0.0009   0.0008   0.00    3.9
2020/04/05 01:34:30.000   1710696.0786   3046080.6143   5318703.2480   1   7   0.0009   0.0010   0.0016   0.0007   0.0009   0.0008   0.00    3.6
2020/04/05 01:35:00.000   1710696.0768   3046080.6124   5318703.2468   1   7   0.0009   0.0010   0.0016   0.0007   0.0009   0.0008   0.00    3.4
2020/04/05 01:35:30.000   1710696.0751   3046080.6103   5318703.2456   1   7   0.0009   0.0010   0.0015   0.0007   0.0009   0.0008   0.00    3.2
2020/04/05 01:36:00.000   1710696.2662   3046080.5557   5318703.2746   2   7   0.0046   0.0026   0.0020  -0.0026   0.0009   0.0016   0.00    2.9
2020/04/05 01:36:30.000   1710696.2709   3046080.5521   5318703.2750   2   7   0.0046   0.0025   0.0020  -0.0025   0.0009   0.0016   0.00    2.1
2020/04/05 01:37:00.000   1710696.2757   3046080.5486   5318703.2755   2   7   0.0045   0.0025   0.0020  -0.0025   0.0009   0.0016   0.00    2.6
2020/04/05 01:37:30.000   1710696.2803   3046080.5452   5318703.2760   2   7   0.0045   0.0025   0.0019  -0.0025   0.0009   0.0016   0.00    1.6
2020/04/05 01:38:00.000   1710696.2841   3046080.5420   5318703.2764   2   7   0.0044   0.0025   0.0019  -0.0025   0.0009   0.0016   0.00    1.5
2020/04/05 01:38:30.000   1710696.2877   3046080.5391   5318703.2767   2   7   0.0044   0.0025   0.0019  -0.0025   0.0009   0.0016   0.00    1.1
2020/04/05 01:39:00.000   1710696.2910   3046080.5363   5318703.2770   2   7   0.0044   0.0025   0.0019  -0.0024   0.0009   0.0015   0.00    1.2
2020/04/05 01:39:30.000   1710696.2944   3046080.5336   5318703.2775   2   7   0.0043   0.0025   0.0019  -0.0024   0.0009   0.0015   0.00    1.9
2020/04/05 01:40:00.000   1710696.2978   3046080.5310   5318703.2780   2   7   0.0043   0.0024   0.0019  -0.0024   0.0009   0.0015   0.00    1.5
2020/04/05 01:40:30.000   1710696.3009   3046080.5287   5318703.2785   2   7   0.0042   0.0024   0.0019  -0.0024   0.0009   0.0015   0.00    1.8
2020/04/05 01:41:00.000   1710696.3043   3046080.5263   5318703.2791   2   7   0.0042   0.0024   0.0019  -0.0023   0.0008   0.0015   0.00    1.4
2020/04/05 01:41:30.000   1710696.3079   3046080.5239   5318703.2798   2   7   0.0042   0.0024   0.0019  -0.0023   0.0008   0.0015   0.00    1.6
2020/04/05 01:42:00.000   1710696.3110   3046080.5219   5318703.2806   2   7   0.0041   0.0024   0.0018  -0.0023   0.0008   0.0015   0.00    1.4
2020/04/05 01:42:30.000   1710696.3138   3046080.5200   5318703.2814   2   7   0.0041   0.0024   0.0018  -0.0023   0.0008   0.0015   0.00    1.5
2020/04/05 01:43:00.000   1710696.3169   3046080.5180   5318703.2822   2   7   0.0041   0.0024   0.0018  -0.0023   0.0008   0.0015   0.00    1.3
2020/04/05 01:43:30.000   1710696.3201   3046080.5161   5318703.2831   2   8   0.0040   0.0023   0.0018  -0.0022   0.0008   0.0015   0.00    1.0
2020/04/05 01:44:00.000   1710696.3234   3046080.5141   5318703.2842   2   8   0.0040   0.0023   0.0018  -0.0022   0.0008   0.0015   0.00    1.0
2020/04/05 01:44:30.000   1710696.3266   3046080.5121   5318703.2854   2   8   0.0040   0.0023   0.0018  -0.0022   0.0008   0.0014   0.00    1.1
2020/04/05 01:45:00.000   1710696.3293   3046080.5103   5318703.2865   2   8   0.0039   0.0023   0.0018  -0.0022   0.0008   0.0014   0.00    1.1
2020/04/05 01:45:30.000   1710696.3319   3046080.5087   5318703.2877   2   8   0.0039   0.0023   0.0018  -0.0022   0.0008   0.0014   0.00    1.4
2020/04/05 01:46:00.000   1710696.3346   3046080.5071   5318703.2889   2   8   0.0039   0.0023   0.0018  -0.0021   0.0008   0.0014   0.00    1.1
2020/04/05 01:46:30.000   1710696.3376   3046080.5055   5318703.2901   2   8   0.0038   0.0023   0.0018  -0.0021   0.0008   0.0014   0.00    1.0
2020/04/05 01:47:00.000   1710696.3404   3046080.5040   5318703.2911   2   8   0.0038   0.0023   0.0018  -0.0021   0.0008   0.0014   0.00    1.2
2020/04/05 01:47:30.000   1710696.3433   3046080.5026   5318703.2922   2   8   0.0038   0.0022   0.0017  -0.0021   0.0008   0.0014   0.00    1.1
2020/04/05 01:48:00.000   1710696.3462   3046080.5012   5318703.2934   2   8   0.0037   0.0022   0.0017  -0.0021   0.0008   0.0014   0.00    1.2
2020/04/05 01:48:30.000   1710696.3489   3046080.4999   5318703.2944   2   8   0.0037   0.0022   0.0017  -0.0020   0.0008   0.0014   0.00    1.1
2020/04/05 01:49:00.000   1710696.3514   3046080.4988   5318703.2955   2   8   0.0037   0.0022   0.0017  -0.0020   0.0008   0.0014   0.00    1.2
2020/04/05 01:49:30.000   1710696.3533   3046080.4981   5318703.2964   2   8   0.0036   0.0022   0.0017  -0.0020   0.0008   0.0014   0.00    1.2
2020/04/05 01:50:00.000   1710696.3554   3046080.4973   5318703.2974   2   8   0.0036   0.0022   0.0017  -0.0020   0.0008   0.0014   0.00    1.4
2020/04/05 01:50:30.000   1710696.3575   3046080.4966   5318703.2983   2   8   0.0036   0.0022   0.0017  -0.0020   0.0008   0.0013   0.00    1.1
2020/04/05 01:51:00.000   1710696.3600   3046080.4958   5318703.2994   2   8   0.0035   0.0022   0.0017  -0.0019   0.0008   0.0013   0.00    1.1
2020/04/05 01:51:30.000   1710696.3625   3046080.4950   5318703.3005   2   8   0.0035   0.0022   0.0017  -0.0019   0.0008   0.0013   0.00    1.1
2020/04/05 01:52:00.000   1710696.3651   3046080.4941   5318703.3015   2   8   0.0035   0.0021   0.0017  -0.0019   0.0008   0.0013   0.00    1.1
2020/04/05 01:52:30.000   1710696.3674   3046080.4933   5318703.3025   2   8   0.0035   0.0021   0.0017  -0.0019   0.0008   0.0013   0.00    1.1
2020/04/05 01:53:00.000   1710696.3697   3046080.4927   5318703.3036   2   8   0.0034   0.0021   0.0016  -0.0019   0.0007   0.0013   0.00    1.1
2020/04/05 01:53:30.000   1710696.3722   3046080.4921   5318703.3047   2   8   0.0034   0.0021   0.0016  -0.0019   0.0007   0.0013   0.00    1.1
2020/04/05 01:54:00.000   1710696.3752   3046080.4914   5318703.3060   2   8   0.0034   0.0021   0.0016  -0.0018   0.0007   0.0013   0.00    1.4
2020/04/05 01:54:30.000   1710696.3782   3046080.4908   5318703.3074   2   8   0.0034   0.0021   0.0016  -0.0018   0.0007   0.0013   0.00    1.1
2020/04/05 01:55:00.000   1710696.3813   3046080.4900   5318703.3089   2   8   0.0033   0.0021   0.0016  -0.0018   0.0007   0.0013   0.00    1.1
2020/04/05 01:55:30.000   1710696.3845   3046080.4891   5318703.3103   2   8   0.0033   0.0021   0.0016  -0.0018   0.0007   0.0013   0.00    1.0
2020/04/05 01:56:00.000   1710696.3878   3046080.4882   5318703.3118   2   8   0.0033   0.0021   0.0016  -0.0018   0.0007   0.0013   0.00    1.1
2020/04/05 01:56:30.000   1710696.3911   3046080.4874   5318703.3133   2   8   0.0033   0.0020   0.0016  -0.0018   0.0007   0.0013   0.00    1.1
2020/04/05 01:57:00.000   1710696.3946   3046080.4866   5318703.3149   2   8   0.0032   0.0020   0.0016  -0.0017   0.0007   0.0012   0.00    1.2
2020/04/05 01:57:30.000   1710696.3983   3046080.4856   5318703.3166   2   8   0.0032   0.0020   0.0016  -0.0017   0.0007   0.0012   0.00    1.2
2020/04/05 01:58:00.000   1710696.4022   3046080.4847   5318703.3185   2   8   0.0032   0.0020   0.0016  -0.0017   0.0007   0.0012   0.00    1.2
2020/04/05 01:58:30.000   1710696.4062   3046080.4839   5318703.3204   2   8   0.0032   0.0020   0.0016  -0.0017   0.0007   0.0012   0.00    1.4
2020/04/05 01:59:00.000   1710696.4103   3046080.4831   5318703.3223   2   8   0.0031   0.0020   0.0016  -0.0017   0.0007   0.0012   0.00    1.2
2020/04/05 01:59:30.000   1710696.4143   3046080.4823   5318703.3243   2   8   0.0031   0.0020   0.0015  -0.0017   0.0007   0.0012   0.00    1.4
2020/04/05 02:00:00.000   1710696.4185   3046080.4814   5318703.3265   2   8   0.0031   0.0020   0.0015  -0.0016   0.0007   0.0012   0.00    1.3
2020/04/05 02:00:30.000   1710696.4228   3046080.4804   5318703.3287   2   8   0.0031   0.0020   0.0015  -0.0016   0.0007   0.0012   0.00    1.0
2020/04/05 02:01:00.000   1710696.4271   3046080.4796   5318703.3310   2   8   0.0030   0.0020   0.0015  -0.0016   0.0007   0.0012   0.00    1.5
2020/04/05 02:01:30.000   1710696.4313   3046080.4788   5318703.3334   2   8   0.0030   0.0020   0.0015  -0.0016   0.0007   0.0012   0.00    1.3
2020/04/05 02:02:00.000   1710696.4359   3046080.4779   5318703.3359   2   8   0.0030   0.0019   0.0015  -0.0016   0.0007   0.0012   0.00    1.5
2020/04/05 02:02:30.000   1710696.4402   3046080.4771   5318703.3386   2   8   0.0030   0.0019   0.0015  -0.0016   0.0007   0.0012   0.00    1.4
2020/04/05 02:03:00.000   1710696.4446   3046080.4764   5318703.3413   2   8   0.0030   0.0019   0.0015  -0.0016   0.0007   0.0012   0.00    1.1
2020/04/05 02:03:30.000   1710696.4489   3046080.4757   5318703.3443   2   8   0.0029   0.0019   0.0015  -0.0015   0.0007   0.0012   0.00    1.5
2020/04/05 02:04:00.000   1710696.4531   3046080.4750   5318703.3471   2   8   0.0029   0.0019   0.0015  -0.0015   0.0007   0.0012   0.00    1.3
2020/04/05 02:04:30.000   1710696.4574   3046080.4742   5318703.3500   2   8   0.0029   0.0019   0.0015  -0.0015   0.0007   0.0011   0.00    1.5
2020/04/05 02:05:00.000   1710696.4619   3046080.4733   5318703.3528   2   8   0.0029   0.0019   0.0015  -0.0015   0.0007   0.0011   0.00    1.1
2020/04/05 02:05:30.000   1710696.4663   3046080.4724   5318703.3557   2   8   0.0029   0.0019   0.0015  -0.0015   0.0007   0.0011   0.00    1.3
2020/04/05 02:06:00.000   1710696.4707   3046080.4715   5318703.3588   2   8   0.0028   0.0019   0.0015  -0.0015   0.0007   0.0011   0.00    1.2
2020/04/05 02:06:30.000   1710696.4754   3046080.4705   5318703.3618   2   8   0.0028   0.0019   0.0015  -0.0015   0.0007   0.0011   0.00    1.4
2020/04/05 02:07:00.000   1710696.4802   3046080.4695   5318703.3649   2   9   0.0028   0.0019   0.0014  -0.0014   0.0007   0.0011   0.00    1.0
2020/04/05 02:07:30.000   1710696.4850   3046080.4684   5318703.3679   2   9   0.0028   0.0018   0.0014  -0.0014   0.0007   0.0011   0.00    1.0
2020/04/05 02:08:00.000   1710696.4897   3046080.4672   5318703.3710   2   9   0.0028   0.0018   0.0014  -0.0014   0.0007   0.0011   0.00    1.0
2020/04/05 02:08:30.000   1710696.4943   3046080.4661   5318703.3741   2   9   0.0027   0.0018   0.0014  -0.0014   0.0007   0.0011   0.00    1.0
2020/04/05 02:09:00.000   1710696.4989   3046080.4649   5318703.3772   2   9   0.0027   0.0018   0.0014  -0.0014   0.0007   0.0011   0.00    1.0
2020/04/05 02:09:30.000   1710696.5035   3046080.4625   5318703.3778   2   8   0.0027   0.0018   0.0014  -0.0014   0.0007   0.0011   0.00    1.0
2020/04/05 02:10:00.000   1710696.5081   3046080.4601   5318703.3784   2   8   0.0027   0.0018   0.0014  -0.0014   0.0007   0.0011   0.00    1.0
2020/04/05 02:10:30.000   1710696.5125   3046080.4578   5318703.3791   2   8   0.0027   0.0018   0.0014  -0.0014   0.0007   0.0011   0.00    1.0
2020/04/05 02:11:00.000   1710696.5168   3046080.4556   5318703.3799   2   8   0.0027   0.0018   0.0014  -0.0013   0.0006   0.0011   0.00    1.0
2020/04/05 02:11:30.000   1710696.5210   3046080.4534   5318703.3806   2   8   0.0026   0.0018   0.0014  -0.0013   0.0006   0.0011   0.00    1.0
2020/04/05 02:12:00.000   1710696.5254   3046080.4511   5318703.3814   2   8   0.0026   0.0018   0.0014  -0.0013   0.0006   0.0011   0.00    1.0
2020/04/05 02:12:30.000   1710696.5296   3046080.4488   5318703.3822   2   8   0.0026   0.0018   0.0014  -0.0013   0.0006   0.0011   0.00    1.0
2020/04/05 02:13:00.000   1710696.5335   3046080.4466   5318703.3830   2   8   0.0026   0.0018   0.0014  -0.0013   0.0006   0.0011   0.00    1.0
2020/04/05 02:13:30.000   1710696.5375   3046080.4445   5318703.3838   2   8   0.0026   0.0018   0.0014  -0.0013   0.0006   0.0011   0.00    1.0
2020/04/05 02:14:00.000   1710696.5413   3046080.4423   5318703.3845   2   8   0.0026   0.0017   0.0014  -0.0013   0.0006   0.0010   0.00    1.1
2020/04/05 02:14:30.000   1710696.5450   3046080.4401   5318703.3852   2   8   0.0025   0.0017   0.0014  -0.0013   0.0006   0.0010   0.00    1.0
2020/04/05 02:15:00.000   1710696.5484   3046080.4380   5318703.3859   2   8   0.0025   0.0017   0.0014  -0.0013   0.0006   0.0010   0.00    1.0
2020/04/05 02:15:30.000   1710696.5518   3046080.4360   5318703.3866   2   8   0.0025   0.0017   0.0014  -0.0012   0.0006   0.0010   0.00    1.0
2020/04/05 02:16:00.000   1710696.5549   3046080.4342   5318703.3874   2   8   0.0025   0.0017   0.0014  -0.0012   0.0006   0.0010   0.00    1.0
2020/04/05 02:16:30.000   1710696.5579   3046080.4325   5318703.3881   2   8   0.0025   0.0017   0.0014  -0.0012   0.0006   0.0010   0.00    1.1
2020/04/05 02:17:00.000   1710696.5607   3046080.4309   5318703.3889   2   8   0.0025   0.0017   0.0014  -0.0012   0.0006   0.0010   0.00    1.0
2020/04/05 02:17:30.000   1710696.5633   3046080.4294   5318703.3895   2   8   0.0025   0.0017   0.0014  -0.0012   0.0006   0.0010   0.00    1.0
2020/04/05 02:18:00.000   1710696.5655   3046080.4282   5318703.3902   2   8   0.0025   0.0017   0.0013  -0.0012   0.0006   0.0010   0.00    1.1
2020/04/05 02:18:30.000   1710696.5677   3046080.4271   5318703.3910   2   8   0.0024   0.0017   0.0013  -0.0012   0.0006   0.0010   0.00    1.0
2020/04/05 02:19:00.000   1710696.5700   3046080.4259   5318703.3919   2   8   0.0024   0.0017   0.0013  -0.0012   0.0006   0.0010   0.00    1.1
2020/04/05 02:19:30.000   1710696.5721   3046080.4248   5318703.3927   2   8   0.0024   0.0017   0.0013  -0.0012   0.0006   0.0010   0.00    1.0
2020/04/05 02:20:00.000   1710696.5742   3046080.4238   5318703.3934   2   8   0.0024   0.0017   0.0013  -0.0011   0.0006   0.0010   0.00    1.0
2020/04/05 02:20:30.000   1710696.5762   3046080.4228   5318703.3942   2   8   0.0024   0.0017   0.0013  -0.0011   0.0006   0.0010   0.00    1.1
2020/04/05 02:21:00.000   1710696.5781   3046080.4220   5318703.3950   2   8   0.0024   0.0017   0.0013  -0.0011   0.0006   0.0010   0.00    1.1
2020/04/05 02:21:30.000   1710696.5800   3046080.4212   5318703.3957   2   8   0.0024   0.0016   0.0013  -0.0011   0.0006   0.0010   0.00    1.0
2020/04/05 02:22:00.000   1710696.5817   3046080.4205   5318703.3965   2   8   0.0023   0.0016   0.0013  -0.0011   0.0006   0.0010   0.00    1.1
2020/04/05 02:22:30.000   1710696.5834   3046080.4200   5318703.3972   2   8   0.0023   0.0016   0.0013  -0.0011   0.0006   0.0010   0.00    1.1
2020/04/05 02:23:00.000   1710696.5850   3046080.4195   5318703.3978   2   8   0.0023   0.0016   0.0013  -0.0011   0.0006   0.0010   0.00    1.0
2020/04/05 02:23:30.000   1710696.5865   3046080.4191   5318703.3984   2   8   0.0023   0.0016   0.0013  -0.0011   0.0006   0.0010   0.00    1.1
2020/04/05 02:24:00.000   1710696.5880   3046080.4186   5318703.3990   2   8   0.0023   0.0016   0.0013  -0.0011   0.0006   0.0010   0.00    1.0
2020/04/05 02:24:30.000   1710696.5895   3046080.4182   5318703.3995   2   8   0.0023   0.0016   0.0013  -0.0011   0.0006   0.0010   0.00    1.0
2020/04/05 02:25:00.000   1710696.5908   3046080.4179   5318703.4000   2   8   0.0023   0.0016   0.0013  -0.0010   0.0006   0.0010   0.00    1.0
2020/04/05 02:25:30.000   1710696.5920   3046080.4176   5318703.4005   2   8   0.0023   0.0016   0.0013  -0.0010   0.0006   0.0010   0.00    1.0
2020/04/05 02:26:00.000   1710696.5933   3046080.4172   5318703.4010   2   8   0.0023   0.0016   0.0013  -0.0010   0.0006   0.0010   0.00    1.1
2020/04/05 02:26:30.000   1710696.5946   3046080.4167   5318703.4015   2   8   0.0022   0.0016   0.0013  -0.0010   0.0006   0.0010   0.00    1.0
2020/04/05 02:27:00.000   1710696.5957   3046080.4162   5318703.4018   2   7   0.0022   0.0016   0.0013  -0.0010   0.0006   0.0010   0.00    1.1
2020/04/05 02:27:30.000   1710696.5968   3046080.4156   5318703.4022   2   7   0.0022   0.0016   0.0013  -0.0010   0.0006   0.0009   0.00    1.0
2020/04/05 02:28:00.000   1710696.5980   3046080.4150   5318703.4026   2   7   0.0022   0.0016   0.0013  -0.0010   0.0006   0.0009   0.00    1.0
2020/04/05 02:28:30.000   1710696.5994   3046080.4143   5318703.4030   2   7   0.0022   0.0016   0.0013  -0.0010   0.0006   0.0009   0.00    1.1
2020/04/05 02:29:00.000   1710696.6007   3046080.4135   5318703.4034   2   7   0.0022   0.0016   0.0013  -0.0010   0.0006   0.0009   0.00    1.1
2020/04/05 02:29:30.000   1710696.6020   3046080.4128   5318703.4038   2   7   0.0022   0.0015   0.0013  -0.0010   0.0006   0.0009   0.00    1.0
2020/04/05 02:30:00.000   1710696.6034   3046080.4119   5318703.4042   2   7   0.0022   0.0015   0.0013  -0.0009   0.0006   0.0009   0.00    1.2
2020/04/05 02:30:30.000   1710696.6048   3046080.4110   5318703.4047   2   7   0.0022   0.0015   0.0013  -0.0009   0.0006   0.0009   0.00    1.2
2020/04/05 02:31:00.000   1710696.6061   3046080.4101   5318703.4051   2   7   0.0022   0.0015   0.0013  -0.0009   0.0006   0.0009   0.00    1.1
2020/04/05 02:31:30.000   1710696.6076   3046080.4091   5318703.4056   2   7   0.0022   0.0015   0.0013  -0.0009   0.0006   0.0009   0.00    1.1
2020/04/05 02:32:00.000   1710696.6092   3046080.4081   5318703.4061   2   7   0.0022   0.0015   0.0013  -0.0009   0.0006   0.0009   0.00    1.0
2020/04/05 02:32:30.000   1710696.6107   3046080.4070   5318703.4067   2   7   0.0021   0.0015   0.0013  -0.0009   0.0006   0.0009   0.00    1.1
2020/04/05 02:33:00.000   1710696.6122   3046080.4061   5318703.4072   2   7   0.0021   0.0015   0.0012  -0.0009   0.0006   0.0009   0.00    1.1
2020/04/05 02:33:30.000   1710696.6137   3046080.4052   5318703.4078   2   7   0.0021   0.0015   0.0012  -0.0009   0.0006   0.0009   0.00    1.3
2020/04/05 02:34:00.000   1710696.6152   3046080.4043   5318703.4085   2   7   0.0021   0.0015   0.0012  -0.0009   0.0006   0.0009   0.00    1.3
2020/04/05 02:34:30.000   1710696.6167   3046080.4033   5318703.4091   2   7   0.0021   0.0015   0.0012  -0.0009   0.0006   0.0009   0.00    1.2
2020/04/05 02:35:00.000   1710696.6182   3046080.4024   5318703.4099   2   7   0.0021   0.0015   0.0012  -0.0009   0.0006   0.0009   0.00    1.2
2020/04/05 02:35:30.000   1710696.6196   3046080.4016   5318703.4105   2   7   0.0021   0.0015   0.0012  -0.0008   0.0006   0.0009   0.00    1.1
2020/04/05 02:36:00.000   1710696.6210   3046080.4007   5318703.4113   2   8   0.0021   0.0015   0.0012  -0.0008   0.0006   0.0009   0.00    1.0
2020/04/05 02:36:30.000   1710696.6225   3046080.3998   5318703.4120   2   8   0.0021   0.0015   0.0012  -0.0008   0.0006   0.0009   0.00    1.0
2020/04/05 02:37:00.000   1710696.6238   3046080.3990   5318703.4127   2   8   0.0021   0.0015   0.0012  -0.0008   0.0006   0.0009   0.00    1.0
2020/04/05 02:37:30.000   1710696.6253   3046080.3982   5318703.4135   2   8   0.0021   0.0015   0.0012  -0.0008   0.0006   0.0009   0.00    1.0
2020/04/05 02:38:00.000   1710696.6267   3046080.3974   5318703.4144   2   8   0.0021   0.0015   0.0012  -0.0008   0.0006   0.0009   0.00    1.0
2020/04/05 02:38:30.000   1710696.6281   3046080.3966   5318703.4152   2   8   0.0021   0.0015   0.0012  -0.0008   0.0006   0.0009   0.00    1.0
2020/04/05 02:39:00.000   1710696.6295   3046080.3958   5318703.4160   2   8   0.0020   0.0015   0.0012  -0.0008   0.0006   0.0009   0.00    1.0
2020/04/05 02:39:30.000   1710696.6309   3046080.3951   5318703.4168   2   8   0.0020   0.0015   0.0012  -0.0008   0.0006   0.0009   0.00    1.0
2020/04/05 02:40:00.000   1710696.6321   3046080.3944   5318703.4176   2   8   0.0020   0.0014   0.0012  -0.0008   0.0006   0.0009   0.00    1.3
2020/04/05 02:40:30.000   1710696.6334   3046080.3936   5318703.4185   2   8   0.0020   0.0014   0.0012  -0.0008   0.0006   0.0009   0.00    1.0
2020/04/05 02:41:00.000   1710696.6345   3046080.3930   5318703.4193   2   8   0.0020   0.0014   0.0012  -0.0007   0.0006   0.0009   0.00    1.0
2020/04/05 02:41:30.000   1710696.6356   3046080.3924   5318703.4202   2   8   0.0020   0.0014   0.0012  -0.0007   0.0006   0.0009   0.00    1.0
2020/04/05 02:42:00.000   1710696.6367   3046080.3918   5318703.4212   2   8   0.0020   0.0014   0.0012  -0.0007   0.0006   0.0009   0.00    1.0
2020/04/05 02:42:30.000   1710696.6378   3046080.3912   5318703.4222   2   8   0.0020   0.0014   0.0012  -0.0007   0.0006   0.0009   0.00    1.0
2020/04/05 02:43:00.000   1710696.6389   3046080.3906   5318703.4233   2   8   0.0020   0.0014   0.0012  -0.0007   0.0006   0.0009   0.00    1.0
2020/04/05 02:43:30.000   1710696.6400   3046080.3900   5318703.4244   2   8   0.0020   0.0014   0.0012  -0.0007   0.0006   0.0009   0.00    1.0
2020/04/05 02:44:00.000   1710696.6410   3046080.3894   5318703.4255   2   8   0.0020   0.0014   0.0012  -0.0007   0.0006   0.0009   0.00    1.3
2020/04/05 02:44:30.000   1710696.6421   3046080.3887   5318703.4267   2   8   0.0020   0.0014   0.0012  -0.0007   0.0006   0.0009   0.00    1.0
2020/04/05 02:45:00.000   1710696.6433   3046080.3881   5318703.4279   2   8   0.0020   0.0014   0.0012  -0.0007   0.0006   0.0009   0.00    1.0
2020/04/05 02:45:30.000   1710696.6444   3046080.3875   5318703.4291   2   8   0.0020   0.0014   0.0012  -0.0007   0.0006   0.0009   0.00    1.0
2020/04/05 02:46:00.000   1710696.6454   3046080.3870   5318703.4303   2   8   0.0020   0.0014   0.0012  -0.0007   0.0006   0.0009   0.00    1.0
2020/04/05 02:46:30.000   1710696.6463   3046080.3865   5318703.4314   2   8   0.0020   0.0014   0.0012  -0.0007   0.0006   0.0009   0.00    1.0
2020/04/05 02:47:00.000   1710696.6472   3046080.3860   5318703.4325   2   8   0.0019   0.0014   0.0012  -0.0006   0.0006   0.0009   0.00    1.0
2020/04/05 02:47:30.000   1710696.6480   3046080.3856   5318703.4337   2   8   0.0019   0.0014   0.0012  -0.0006   0.0006   0.0009   0.00    1.0
2020/04/05 02:48:00.000   1710696.6488   3046080.3852   5318703.4348   2   8   0.0019   0.0014   0.0012  -0.0006   0.0006   0.0009   0.00    1.0
2020/04/05 02:48:30.000   1710696.6496   3046080.3848   5318703.4359   2   8   0.0019   0.0014   0.0012  -0.0006   0.0006   0.0009   0.00    1.2
2020/04/05 02:49:00.000   1710696.6504   3046080.3844   5318703.4371   2   8   0.0019   0.0014   0.0012  -0.0006   0.0006   0.0009   0.00    1.0
2020/04/05 02:49:30.000   1710696.6512   3046080.3840   5318703.4382   2   8   0.0019   0.0014   0.0012  -0.0006   0.0006   0.0009   0.00    1.1
2020/04/05 02:50:00.000   1710696.6520   3046080.3836   5318703.4394   2   8   0.0019   0.0014   0.0012  -0.0006   0.0006   0.0009   0.00    1.0
2020/04/05 02:50:30.000   1710696.6527   3046080.3833   5318703.4405   2   8   0.0019   0.0014   0.0012  -0.0006   0.0006   0.0009   0.00    1.0
2020/04/05 02:51:00.000   1710696.6534   3046080.3831   5318703.4416   2   8   0.0019   0.0014   0.0012  -0.0006   0.0006   0.0009   0.00    1.0
2020/04/05 02:51:30.000   1710696.6539   3046080.3829   5318703.4427   2   8   0.0019   0.0013   0.0012  -0.0006   0.0006   0.0009   0.00    1.1
2020/04/05 02:52:00.000   1710696.6544   3046080.3828   5318703.4438   2   8   0.0019   0.0013   0.0012  -0.0006   0.0006   0.0009   0.00    1.0
2020/04/05 02:52:30.000   1710696.6548   3046080.3827   5318703.4449   2   8   0.0019   0.0013   0.0012  -0.0006   0.0006   0.0009   0.00    1.1
2020/04/05 02:53:00.000   1710696.6550   3046080.3828   5318703.4458   2   8   0.0019   0.0013   0.0012  -0.0006   0.0006   0.0009   0.00    1.1
2020/04/05 02:53:30.000   1710696.6552   3046080.3828   5318703.4468   2   8   0.0019   0.0013   0.0012  -0.0005   0.0006   0.0009   0.00    1.3
2020/04/05 02:54:00.000   1710696.6552   3046080.3829   5318703.4477   2   8   0.0019   0.0013   0.0012  -0.0005   0.0006   0.0009   0.00    1.2
2020/04/05 02:54:30.000   1710696.6553   3046080.3830   5318703.4486   2   8   0.0019   0.0013   0.0012  -0.0005   0.0006   0.0009   0.00    1.1
2020/04/05 02:55:00.000   1710696.6553   3046080.3830   5318703.4495   2   8   0.0019   0.0013   0.0012  -0.0005   0.0006   0.0009   0.00    1.2
2020/04/05 02:55:30.000   1710696.6553   3046080.3830   5318703.4505   2   8   0.0019   0.0013   0.0011  -0.0005   0.0006   0.0009   0.00    1.1
2020/04/05 02:56:00.000   1710696.6554   3046080.3830   5318703.4513   2   8   0.0019   0.0013   0.0011  -0.0005   0.0006   0.0009   0.00    1.0
2020/04/05 02:56:30.000   1710696.6555   3046080.3829   5318703.4522   2   8   0.0019   0.0013   0.0011  -0.0005   0.0006   0.0009   0.00    1.2
2020/04/05 02:57:00.000   1710696.6547   3046080.3830   5318703.4531   2   7   0.0019   0.0013   0.0011  -0.0005   0.0006   0.0009   0.00    1.2
2020/04/05 02:57:30.000   1710696.6541   3046080.3829   5318703.4540   2   7   0.0018   0.0013   0.0011  -0.0005   0.0006   0.0009   0.00    1.3
2020/04/05 02:58:00.000   1710696.6533   3046080.3829   5318703.4549   2   7   0.0018   0.0013   0.0011  -0.0005   0.0006   0.0009   0.00    1.2
2020/04/05 02:58:30.000   1710696.6526   3046080.3823   5318703.4544   2   6   0.0018   0.0013   0.0011  -0.0005   0.0006   0.0009   0.00    1.1
2020/04/05 02:59:00.000   1710696.6518   3046080.3817   5318703.4538   2   6   0.0018   0.0013   0.0011  -0.0005   0.0006   0.0009   0.00    1.2
2020/04/05 02:59:30.000   1710696.6512   3046080.3811   5318703.4533   2   5   0.0018   0.0013   0.0011  -0.0005   0.0006   0.0009   0.00    1.4
2020/04/05 03:00:00.000   1710696.6506   3046080.3805   5318703.4527   2   5   0.0018   0.0013   0.0011  -0.0005   0.0006   0.0009   0.00    1.3
2020/04/05 03:00:30.000   1710696.6500   3046080.3799   5318703.4521   2   5   0.0018   0.0013   0.0011  -0.0005   0.0006   0.0009   0.00    1.3
2020/04/05 03:01:00.000   1710696.6494   3046080.3792   5318703.4516   2   5   0.0018   0.0013   0.0011  -0.0005   0.0006   0.0009   0.00    1.3
2020/04/05 03:01:30.000   1710696.6489   3046080.3785   5318703.4510   2   5   0.0018   0.0013   0.0011  -0.0004   0.0006   0.0009   0.00    1.3
2020/04/05 03:02:00.000   1710696.6484   3046080.3778   5318703.4505   2   5   0.0018   0.0013   0.0011  -0.0004   0.0006   0.0009   0.00    1.3
2020/04/05 03:02:30.000   1710696.6478   3046080.3772   5318703.4499   2   5   0.0018   0.0013   0.0011  -0.0004   0.0006   0.0009   0.00    1.3
2020/04/05 03:03:00.000   1710696.6472   3046080.3765   5318703.4493   2   5   0.0018   0.0013   0.0011  -0.0004   0.0006   0.0009   0.00    1.3
2020/04/05 03:03:30.000   1710696.6465   3046080.3759   5318703.4487   2   5   0.0018   0.0013   0.0011  -0.0004   0.0006   0.0009   0.00    1.4
2020/04/05 03:04:00.000   1710696.6458   3046080.3753   5318703.4480   2   5   0.0018   0.0013   0.0011  -0.0004   0.0006   0.0008   0.00    1.4
2020/04/05 03:04:30.000   1710696.6451   3046080.3746   5318703.4473   2   5   0.0018   0.0013   0.0011  -0.0004   0.0006   0.0008   0.00    1.4
2020/04/05 03:05:00.000   1710696.6444   3046080.3740   5318703.4466   2   5   0.0018   0.0012   0.0011  -0.0004   0.0006   0.0008   0.00    1.4
2020/04/05 03:05:30.000   1710696.6436   3046080.3734   5318703.4459   2   5   0.0018   0.0012   0.0011  -0.0004   0.0006   0.0008   0.00    1.4
2020/04/05 03:06:00.000   1710696.6429   3046080.3728   5318703.4452   2   5   0.0018   0.0012   0.0011  -0.0004   0.0006   0.0008   0.00    1.4
2020/04/05 03:06:30.000   1710696.6421   3046080.3722   5318703.4445   2   5   0.0018   0.0012   0.0011  -0.0004   0.0006   0.0008   0.00    1.4
2020/04/05 03:07:00.000   1710696.6415   3046080.3716   5318703.4438   2   5   0.0018   0.0012   0.0011  -0.0004   0.0006   0.0008   0.00    1.4
2020/04/05 03:07:30.000   1710696.6408   3046080.3709   5318703.4432   2   5   0.0018   0.0012   0.0011  -0.0004   0.0006   0.0008   0.00    1.4
2020/04/05 03:08:00.000   1710696.6402   3046080.3702   5318703.4426   2   5   0.0018   0.0012   0.0011  -0.0004   0.0006   0.0008   0.00    1.4
2020/04/05 03:08:30.000   1710696.6397   3046080.3695   5318703.4420   2   5   0.0018   0.0012   0.0011  -0.0004   0.0006   0.0008   0.00    1.4
2020/04/05 03:09:00.000   1710696.6392   3046080.3688   5318703.4415   2   5   0.0018   0.0012   0.0011  -0.0004   0.0006   0.0008   0.00    1.4
2020/04/05 03:09:30.000   1710696.6388   3046080.3680   5318703.4409   2   5   0.0018   0.0012   0.0011  -0.0004   0.0006   0.0008   0.00    1.4
2020/04/05 03:10:00.000   1710696.6383   3046080.3673   5318703.4404   2   5   0.0018   0.0012   0.0011  -0.0004   0.0006   0.0008   0.00    1.4
2020/04/05 03:10:30.000   1710696.6378   3046080.3666   5318703.4399   2   5   0.0018   0.0012   0.0011  -0.0004   0.0006   0.0008   0.00    1.3
2020/04/05 03:11:00.000   1710696.6373   3046080.3658   5318703.4393   2   5   0.0018   0.0012   0.0011  -0.0004   0.0006   0.0008   0.00    1.3
2020/04/05 03:11:30.000   1710696.6369   3046080.3650   5318703.4388   2   5   0.0018   0.0012   0.0011  -0.0004   0.0006   0.0008   0.00    1.2
2020/04/05 03:12:00.000   1710696.6365   3046080.3642   5318703.4383   2   5   0.0018   0.0012   0.0011  -0.0003   0.0006   0.0008   0.00    1.2
2020/04/05 03:12:30.000   1710696.6362   3046080.3633   5318703.4379   2   5   0.0018   0.0012   0.0011  -0.0003   0.0006   0.0008   0.00    1.1
2020/04/05 03:13:00.000   1710696.6359   3046080.3625   5318703.4375   2   5   0.0018   0.0012   0.0011  -0.0003   0.0006   0.0008   0.00    1.1
2020/04/05 03:13:30.000   1710696.6356   3046080.3617   5318703.4371   2   5   0.0018   0.0012   0.0011  -0.0003   0.0006   0.0008   0.00    1.1
2020/04/05 03:14:00.000   1710696.6353   3046080.3609   5318703.4367   2   5   0.0018   0.0012   0.0011  -0.0003   0.0006   0.0008   0.00    1.0
2020/04/05 03:14:30.000   1710696.6350   3046080.3601   5318703.4363   2   5   0.0018   0.0012   0.0011  -0.0003   0.0006   0.0008   0.00    1.0
2020/04/05 03:15:00.000   1710696.6347   3046080.3593   5318703.4359   2   5   0.0018   0.0012   0.0011  -0.0003   0.0006   0.0008   0.00    1.0
2020/04/05 03:15:30.000   1710696.6344   3046080.3584   5318703.4355   2   5   0.0018   0.0012   0.0011  -0.0003   0.0006   0.0008   0.00    1.1
2020/04/05 03:16:00.000   1710696.6341   3046080.3576   5318703.4351   2   5   0.0018   0.0012   0.0011  -0.0003   0.0006   0.0008   0.00    1.1
2020/04/05 03:16:30.000   1710696.6338   3046080.3567   5318703.4347   2   5   0.0018   0.0012   0.0011  -0.0003   0.0006   0.0008   0.00    1.1
2020/04/05 03:17:00.000   1710696.6335   3046080.3559   5318703.4343   2   5   0.0018   0.0012   0.0011  -0.0003   0.0006   0.0008   0.00    1.1
2020/04/05 03:17:30.000   1710696.6333   3046080.3549   5318703.4339   2   5   0.0018   0.0012   0.0011  -0.0003   0.0006   0.0008   0.00    1.2
2020/04/05 03:18:00.000   1710696.6331   3046080.3540   5318703.4336   2   5   0.0018   0.0012   0.0011  -0.0003   0.0006   0.0008   0.00    1.2
2020/04/05 03:18:30.000   1710696.6329   3046080.3531   5318703.4332   2   5   0.0018   0.0012   0.0011  -0.0003   0.0006   0.0008   0.00    1.2
2020/04/05 03:19:00.000   1710696.6327   3046080.3521   5318703.4329   2   5   0.0018   0.0012   0.0011  -0.0003   0.0006   0.0008   0.00    1.2
2020/04/05 03:19:30.000   1710696.6325   3046080.3511   5318703.4326   2   5   0.0018   0.0012   0.0011  -0.0003   0.0006   0.0008   0.00    1.2
2020/04/05 03:20:00.000   1710696.6325   3046080.3500   5318703.4324   2   5   0.0018   0.0012   0.0011  -0.0003   0.0006   0.0008   0.00    1.2
2020/04/05 03:20:30.000   1710696.6323   3046080.3489   5318703.4321   2   5   0.0018   0.0012   0.0011  -0.0003   0.0006   0.0008   0.00    1.2
2020/04/05 03:21:00.000   1710696.6322   3046080.3478   5318703.4318   2   5   0.0018   0.0012   0.0011  -0.0003   0.0006   0.0008   0.00    1.2
2020/04/05 03:21:30.000   1710696.6321   3046080.3468   5318703.4315   2   5   0.0018   0.0011   0.0011  -0.0003   0.0006   0.0008   0.00    1.2
