% program   : RTKPOST ver.2.4.3 b34
% inp file  : C:\Users\89231\Documents\Учеба\Диссертация\Данные\Вашингтон 10-11.01.19\11.01.19\godn0110.19o
% inp file  : C:\Users\89231\Documents\Учеба\Диссертация\Данные\Вашингтон 10-11.01.19\11.01.19\mrc10110.19o
% inp file  : C:\Users\89231\Documents\Учеба\Диссертация\Данные\Вашингтон 10-11.01.19\11.01.19\GODN00USA_R_20190110000_01D_GN.rnx
% inp file  : C:\Users\89231\Documents\Учеба\Диссертация\Данные\Вашингтон 10-11.01.19\11.01.19\igs20355.sp3
% obs start : 2019/01/11 00:00:00.0 GPST (week2035 432000.0s)
% obs end   : 2019/01/11 23:59:30.0 GPST (week2035 518370.0s)
% pos mode  : Static
% freqs     : L1+2
% solution  : Forward
% elev mask : 15.0 deg
% dynamics  : off
% tidecorr  : off
% ionos opt : Broadcast
% tropo opt : Saastamoinen
% ephemeris : Precise
% navi sys  : GPS
% amb res   : Fix and Hold
% val thres : 3.0
% antenna1  :                       ( 0.0000  0.0000  0.0083)
% antenna2  :                       ( 0.0000  0.0000  0.0083)
% ref pos   :  1092811.8211  -4877221.9770   3948968.1142
%
% (x/y/z-ecef=WGS84,Q=1:fix,2:float,3:sbas,4:dgps,5:single,6:ppp,ns=# of satellites)
%  GPST                      x-ecef(m)      y-ecef(m)      z-ecef(m)   Q  ns   sdx(m)   sdy(m)   sdz(m)  sdxy(m)  sdyz(m)  sdzx(m) age(s)  ratio
2019/01/11 02:03:00.000   1130760.7705  -4831298.6167   3994155.1338   1   8   0.0043   0.0098   0.0096  -0.0034  -0.0081   0.0039   0.00    4.8
2019/01/11 02:03:30.000   1130760.7708  -4831298.6190   3994155.1400   1   8   0.0030   0.0069   0.0068  -0.0024  -0.0057   0.0028   0.00    4.3
2019/01/11 02:04:00.000   1130760.7710  -4831298.6207   3994155.1418   1   8   0.0025   0.0057   0.0056  -0.0020  -0.0047   0.0023   0.00    4.2
2019/01/11 02:04:30.000   1130760.7706  -4831298.6210   3994155.1422   1   8   0.0021   0.0049   0.0048  -0.0017  -0.0041   0.0020   0.00    4.1
2019/01/11 02:05:00.000   1130760.7710  -4831298.6223   3994155.1437   1   8   0.0019   0.0044   0.0043  -0.0015  -0.0036   0.0018   0.00    4.2
2019/01/11 02:05:30.000   1130760.7713  -4831298.6240   3994155.1460   1   8   0.0017   0.0040   0.0040  -0.0014  -0.0033   0.0016   0.00    4.1
2019/01/11 02:06:00.000   1130760.7715  -4831298.6249   3994155.1470   1   8   0.0016   0.0037   0.0037  -0.0013  -0.0031   0.0015   0.00    4.2
2019/01/11 02:06:30.000   1130760.7713  -4831298.6253   3994155.1476   1   8   0.0015   0.0035   0.0034  -0.0012  -0.0029   0.0014   0.00    4.5
2019/01/11 02:07:00.000   1130760.7714  -4831298.6262   3994155.1486   1   8   0.0014   0.0033   0.0032  -0.0011  -0.0027   0.0013   0.00    4.8
2019/01/11 02:07:30.000   1130760.7715  -4831298.6268   3994155.1493   1   8   0.0013   0.0031   0.0031  -0.0011  -0.0026   0.0012   0.00    5.6
2019/01/11 02:08:00.000   1130760.7714  -4831298.6270   3994155.1499   1   8   0.0013   0.0030   0.0029  -0.0010  -0.0025   0.0012   0.00   13.6
2019/01/11 02:08:30.000   1130760.7711  -4831298.6267   3994155.1500   1   8   0.0012   0.0028   0.0028  -0.0010  -0.0024   0.0011   0.00   20.3
2019/01/11 02:09:00.000   1130760.7709  -4831298.6266   3994155.1504   1   8   0.0012   0.0027   0.0027  -0.0010  -0.0023   0.0011   0.00   26.7
2019/01/11 02:09:30.000   1130760.7707  -4831298.6263   3994155.1507   1   8   0.0011   0.0026   0.0026  -0.0009  -0.0022   0.0010   0.00   33.0
2019/01/11 02:10:00.000   1130760.7708  -4831298.6262   3994155.1511   1   8   0.0011   0.0025   0.0025  -0.0009  -0.0021   0.0010   0.00   38.2
2019/01/11 02:10:30.000   1130760.7708  -4831298.6262   3994155.1517   1   8   0.0011   0.0025   0.0025  -0.0009  -0.0021   0.0010   0.00   43.4
2019/01/11 02:11:00.000   1130760.7707  -4831298.6263   3994155.1521   1   8   0.0010   0.0024   0.0024  -0.0008  -0.0020   0.0009   0.00   48.5
2019/01/11 02:11:30.000   1130760.7707  -4831298.6261   3994155.1525   1   8   0.0010   0.0023   0.0023  -0.0008  -0.0020   0.0009   0.00   52.4
2019/01/11 02:12:00.000   1130760.7706  -4831298.6256   3994155.1524   1   8   0.0010   0.0023   0.0023  -0.0008  -0.0019   0.0009   0.00   56.8
2019/01/11 02:12:30.000   1130760.7706  -4831298.6253   3994155.1525   1   8   0.0010   0.0022   0.0022  -0.0008  -0.0019   0.0009   0.00   61.9
2019/01/11 02:13:00.000   1130760.7707  -4831298.6251   3994155.1528   1   8   0.0009   0.0022   0.0022  -0.0008  -0.0018   0.0008   0.00   67.1
2019/01/11 02:13:30.000   1130760.7709  -4831298.6251   3994155.1533   1   8   0.0009   0.0021   0.0021  -0.0007  -0.0018   0.0008   0.00   72.7
2019/01/11 02:14:00.000   1130760.7710  -4831298.6250   3994155.1537   1   8   0.0009   0.0021   0.0021  -0.0007  -0.0018   0.0008   0.00   78.7
2019/01/11 02:14:30.000   1130760.7710  -4831298.6244   3994155.1535   1   8   0.0009   0.0020   0.0020  -0.0007  -0.0017   0.0008   0.00   85.5
2019/01/11 02:15:00.000   1130760.7710  -4831298.6238   3994155.1533   1   8   0.0009   0.0020   0.0020  -0.0007  -0.0017   0.0008   0.00   93.0
2019/01/11 02:15:30.000   1130760.7710  -4831298.6235   3994155.1534   1   8   0.0008   0.0020   0.0020  -0.0007  -0.0017   0.0008   0.00  100.2
2019/01/11 02:16:00.000   1130760.7711  -4831298.6233   3994155.1533   1   8   0.0008   0.0019   0.0019  -0.0007  -0.0016   0.0007   0.00  107.5
2019/01/11 02:16:30.000   1130760.7713  -4831298.6230   3994155.1534   1   8   0.0008   0.0019   0.0019  -0.0007  -0.0016   0.0007   0.00  112.2
2019/01/11 02:17:00.000   1130760.7715  -4831298.6229   3994155.1535   1   8   0.0008   0.0019   0.0019  -0.0007  -0.0016   0.0007   0.00  115.1
2019/01/11 02:17:30.000   1130760.7716  -4831298.6226   3994155.1535   1   8   0.0008   0.0018   0.0019  -0.0006  -0.0016   0.0007   0.00  120.8
2019/01/11 02:18:00.000   1130760.7716  -4831298.6219   3994155.1529   1   8   0.0008   0.0018   0.0018  -0.0006  -0.0015   0.0007   0.00  127.6
2019/01/11 02:18:30.000   1130760.7717  -4831298.6213   3994155.1526   1   8   0.0008   0.0018   0.0018  -0.0006  -0.0015   0.0007   0.00  135.3
2019/01/11 02:19:00.000   1130760.7718  -4831298.6208   3994155.1523   1   8   0.0008   0.0018   0.0018  -0.0006  -0.0015   0.0007   0.00  142.2
2019/01/11 02:19:30.000   1130760.7719  -4831298.6202   3994155.1519   1   8   0.0007   0.0017   0.0018  -0.0006  -0.0015   0.0007   0.00  150.0
2019/01/11 02:20:00.000   1130760.7719  -4831298.6194   3994155.1512   1   8   0.0007   0.0017   0.0017  -0.0006  -0.0015   0.0006   0.00  158.4
2019/01/11 02:20:30.000   1130760.7719  -4831298.6187   3994155.1507   1   8   0.0007   0.0017   0.0017  -0.0006  -0.0014   0.0006   0.00  166.5
2019/01/11 02:21:00.000   1130760.7719  -4831298.6181   3994155.1502   1   8   0.0007   0.0017   0.0017  -0.0006  -0.0014   0.0006   0.00  174.5
2019/01/11 02:21:30.000   1130760.7719  -4831298.6177   3994155.1499   1   8   0.0007   0.0017   0.0017  -0.0006  -0.0014   0.0006   0.00  182.6
2019/01/11 02:22:00.000   1130760.7719  -4831298.6174   3994155.1497   1   8   0.0007   0.0016   0.0017  -0.0006  -0.0014   0.0006   0.00  189.9
2019/01/11 02:22:30.000   1130760.7720  -4831298.6171   3994155.1494   1   8   0.0007   0.0016   0.0016  -0.0006  -0.0014   0.0006   0.00  195.0
2019/01/11 02:23:00.000   1130760.7720  -4831298.6167   3994155.1492   1   8   0.0007   0.0016   0.0016  -0.0006  -0.0014   0.0006   0.00  200.3
2019/01/11 02:23:30.000   1130760.7721  -4831298.6164   3994155.1490   1   8   0.0007   0.0016   0.0016  -0.0006  -0.0014   0.0006   0.00  208.8
2019/01/11 02:24:00.000   1130760.7722  -4831298.6160   3994155.1488   1   8   0.0007   0.0016   0.0016  -0.0006  -0.0013   0.0006   0.00  217.4
2019/01/11 02:24:30.000   1130760.7723  -4831298.6155   3994155.1485   1   8   0.0007   0.0016   0.0016  -0.0006  -0.0013   0.0006   0.00  231.6
2019/01/11 02:25:00.000   1130760.7723  -4831298.6150   3994155.1481   1   8   0.0007   0.0015   0.0016  -0.0005  -0.0013   0.0006   0.00  237.8
2019/01/11 02:25:30.000   1130760.7722  -4831298.6145   3994155.1475   1   8   0.0007   0.0015   0.0015  -0.0005  -0.0013   0.0006   0.00  240.2
2019/01/11 02:26:00.000   1130760.7722  -4831298.6141   3994155.1473   1   8   0.0006   0.0015   0.0015  -0.0005  -0.0013   0.0005   0.00  247.2
2019/01/11 02:26:30.000   1130760.7721  -4831298.6137   3994155.1469   1   8   0.0006   0.0015   0.0015  -0.0005  -0.0013   0.0005   0.00  255.9
2019/01/11 02:27:00.000   1130760.7721  -4831298.6132   3994155.1464   1   8   0.0006   0.0015   0.0015  -0.0005  -0.0013   0.0005   0.00  265.0
2019/01/11 02:27:30.000   1130760.7721  -4831298.6128   3994155.1461   1   8   0.0006   0.0015   0.0015  -0.0005  -0.0013   0.0005   0.00  276.6
2019/01/11 02:28:00.000   1130760.7720  -4831298.6123   3994155.1457   1   8   0.0006   0.0015   0.0015  -0.0005  -0.0013   0.0005   0.00  289.2
2019/01/11 02:28:30.000   1130760.7720  -4831298.6118   3994155.1453   1   8   0.0006   0.0015   0.0015  -0.0005  -0.0012   0.0005   0.00  297.1
2019/01/11 02:29:00.000   1130760.7718  -4831298.6113   3994155.1447   1   8   0.0006   0.0014   0.0015  -0.0005  -0.0012   0.0005   0.00  306.4
2019/01/11 02:29:30.000   1130760.7717  -4831298.6108   3994155.1441   1   8   0.0006   0.0014   0.0014  -0.0005  -0.0012   0.0005   0.00  314.0
2019/01/11 02:30:00.000   1130760.7716  -4831298.6102   3994155.1436   1   8   0.0006   0.0014   0.0014  -0.0005  -0.0012   0.0005   0.00  329.5
2019/01/11 02:30:30.000   1130760.7715  -4831298.6097   3994155.1430   1   8   0.0006   0.0014   0.0014  -0.0005  -0.0012   0.0005   0.00  344.8
2019/01/11 02:31:00.000   1130760.7713  -4831298.6092   3994155.1426   1   8   0.0006   0.0014   0.0014  -0.0005  -0.0012   0.0005   0.00  361.0
2019/01/11 02:31:30.000   1130760.7712  -4831298.6086   3994155.1421   1   8   0.0006   0.0014   0.0014  -0.0005  -0.0012   0.0005   0.00  377.8
2019/01/11 02:32:00.000   1130760.7711  -4831298.6082   3994155.1418   1   8   0.0006   0.0014   0.0014  -0.0005  -0.0012   0.0005   0.00  394.4
2019/01/11 02:32:30.000   1130760.7711  -4831298.6077   3994155.1412   1   8   0.0006   0.0014   0.0014  -0.0005  -0.0012   0.0005   0.00  410.1
2019/01/11 02:33:00.000   1130760.7710  -4831298.6073   3994155.1409   1   8   0.0006   0.0014   0.0014  -0.0005  -0.0012   0.0005   0.00  430.4
2019/01/11 02:33:30.000   1130760.7709  -4831298.6069   3994155.1406   1   8   0.0006   0.0014   0.0014  -0.0005  -0.0012   0.0005   0.00  447.2
2019/01/11 02:34:00.000   1130760.7709  -4831298.6066   3994155.1404   1   8   0.0006   0.0014   0.0014  -0.0005  -0.0012   0.0005   0.00  461.3
2019/01/11 02:34:30.000   1130760.7707  -4831298.6062   3994155.1400   1   8   0.0006   0.0013   0.0014  -0.0005  -0.0011   0.0005   0.00  473.2
2019/01/11 02:35:00.000   1130760.7706  -4831298.6057   3994155.1397   1   8   0.0006   0.0013   0.0013  -0.0005  -0.0011   0.0005   0.00  478.0
2019/01/11 02:35:30.000   1130760.7705  -4831298.6054   3994155.1395   1   8   0.0006   0.0013   0.0013  -0.0005  -0.0011   0.0005   0.00  494.8
2019/01/11 02:36:00.000   1130760.7704  -4831298.6051   3994155.1393   1   8   0.0006   0.0013   0.0013  -0.0005  -0.0011   0.0005   0.00  519.7
2019/01/11 02:36:30.000   1130760.7703  -4831298.6048   3994155.1390   1   8   0.0006   0.0013   0.0013  -0.0005  -0.0011   0.0004   0.00  544.1
2019/01/11 02:37:00.000   1130760.7702  -4831298.6046   3994155.1389   1   8   0.0006   0.0013   0.0013  -0.0005  -0.0011   0.0004   0.00  568.8
2019/01/11 02:37:30.000   1130760.7700  -4831298.6042   3994155.1384   1   8   0.0005   0.0013   0.0013  -0.0005  -0.0011   0.0004   0.00  593.6
2019/01/11 02:38:00.000   1130760.7698  -4831298.6038   3994155.1378   1   8   0.0005   0.0013   0.0013  -0.0005  -0.0011   0.0004   0.00  611.9
2019/01/11 02:38:30.000   1130760.7694  -4831298.6031   3994155.1369   1   8   0.0005   0.0013   0.0013  -0.0005  -0.0011   0.0004   0.00  606.1
2019/01/11 02:39:00.000   1130760.7691  -4831298.6027   3994155.1361   1   8   0.0005   0.0013   0.0013  -0.0005  -0.0011   0.0004   0.00  601.7
2019/01/11 02:39:30.000   1130760.7690  -4831298.6025   3994155.1357   1   8   0.0005   0.0013   0.0013  -0.0005  -0.0011   0.0004   0.00  616.7
2019/01/11 02:40:00.000   1130760.7689  -4831298.6024   3994155.1353   1   8   0.0005   0.0013   0.0013  -0.0005  -0.0011   0.0004   0.00  636.1
2019/01/11 02:40:30.000   1130760.7688  -4831298.6022   3994155.1348   1   8   0.0005   0.0013   0.0013  -0.0005  -0.0011   0.0004   0.00  653.7
2019/01/11 02:41:00.000   1130760.7687  -4831298.6022   3994155.1346   1   8   0.0005   0.0013   0.0012  -0.0005  -0.0011   0.0004   0.00  682.7
2019/01/11 02:41:30.000   1130760.7686  -4831298.6022   3994155.1344   1   8   0.0005   0.0012   0.0012  -0.0005  -0.0011   0.0004   0.00  700.7
2019/01/11 02:42:00.000   1130760.7686  -4831298.6022   3994155.1340   1   8   0.0005   0.0012   0.0012  -0.0005  -0.0011   0.0004   0.00  707.7
2019/01/11 02:42:30.000   1130760.7684  -4831298.6021   3994155.1335   1   8   0.0005   0.0012   0.0012  -0.0005  -0.0011   0.0004   0.00  707.7
2019/01/11 02:43:00.000   1130760.7683  -4831298.6021   3994155.1329   1   8   0.0005   0.0012   0.0012  -0.0004  -0.0010   0.0004   0.00  708.4
2019/01/11 02:43:30.000   1130760.7682  -4831298.6021   3994155.1324   1   8   0.0005   0.0012   0.0012  -0.0004  -0.0010   0.0004   0.00  702.9
2019/01/11 02:44:00.000   1130760.7681  -4831298.6021   3994155.1319   1   8   0.0005   0.0012   0.0012  -0.0004  -0.0010   0.0004   0.00  687.3
2019/01/11 02:44:30.000   1130760.7679  -4831298.6021   3994155.1312   1   8   0.0005   0.0012   0.0012  -0.0004  -0.0010   0.0004   0.00  666.4
2019/01/11 02:45:00.000   1130760.7678  -4831298.6021   3994155.1305   1   8   0.0005   0.0012   0.0012  -0.0004  -0.0010   0.0004   0.00  643.9
2019/01/11 02:45:30.000   1130760.7676  -4831298.6021   3994155.1298   1   8   0.0005   0.0012   0.0012  -0.0004  -0.0010   0.0004   0.00  618.0
2019/01/11 02:46:00.000   1130760.7674  -4831298.6021   3994155.1292   1   8   0.0005   0.0012   0.0012  -0.0004  -0.0010   0.0004   0.00  603.2
2019/01/11 02:46:30.000   1130760.7671  -4831298.6020   3994155.1284   1   8   0.0005   0.0012   0.0012  -0.0004  -0.0010   0.0004   0.00  579.6
2019/01/11 02:47:00.000   1130760.7669  -4831298.6019   3994155.1277   1   8   0.0005   0.0012   0.0012  -0.0004  -0.0010   0.0004   0.00  556.7
2019/01/11 02:47:30.000   1130760.7668  -4831298.6019   3994155.1272   1   8   0.0005   0.0012   0.0012  -0.0004  -0.0010   0.0004   0.00  533.8
2019/01/11 02:48:00.000   1130760.7669  -4831298.6021   3994155.1269   1   8   0.0005   0.0012   0.0012  -0.0004  -0.0010   0.0004   0.00  515.5
2019/01/11 02:48:30.000   1130760.7669  -4831298.6024   3994155.1268   1   8   0.0005   0.0012   0.0012  -0.0004  -0.0010   0.0004   0.00  502.4
2019/01/11 02:49:00.000   1130760.7670  -4831298.6026   3994155.1267   1   8   0.0005   0.0012   0.0011  -0.0004  -0.0010   0.0004   0.00  489.4
2019/01/11 02:49:30.000   1130760.7670  -4831298.6027   3994155.1265   1   8   0.0005   0.0012   0.0011  -0.0004  -0.0010   0.0004   0.00  475.5
2019/01/11 02:50:00.000   1130760.7669  -4831298.6028   3994155.1264   1   8   0.0005   0.0012   0.0011  -0.0004  -0.0010   0.0004   0.00  468.7
2019/01/11 02:50:30.000   1130760.7669  -4831298.6029   3994155.1264   1   8   0.0005   0.0011   0.0011  -0.0004  -0.0010   0.0004   0.00  469.2
2019/01/11 02:51:00.000   1130760.7668  -4831298.6030   3994155.1264   1   8   0.0005   0.0011   0.0011  -0.0004  -0.0010   0.0004   0.00  472.9
2019/01/11 02:51:30.000   1130760.7668  -4831298.6031   3994155.1265   1   8   0.0005   0.0011   0.0011  -0.0004  -0.0010   0.0004   0.00  481.4
2019/01/11 02:52:00.000   1130760.7667  -4831298.6033   3994155.1267   1   8   0.0005   0.0011   0.0011  -0.0004  -0.0010   0.0004   0.00  494.1
2019/01/11 02:52:30.000   1130760.7667  -4831298.6035   3994155.1269   1   8   0.0005   0.0011   0.0011  -0.0004  -0.0010   0.0004   0.00  512.3
2019/01/11 02:53:00.000   1130760.7668  -4831298.6037   3994155.1273   1   8   0.0005   0.0011   0.0011  -0.0004  -0.0010   0.0004   0.00  533.8
2019/01/11 02:53:30.000   1130760.7668  -4831298.6040   3994155.1277   1   8   0.0005   0.0011   0.0011  -0.0004  -0.0010   0.0004   0.00  559.7
2019/01/11 02:54:00.000   1130760.7669  -4831298.6042   3994155.1282   1   8   0.0005   0.0011   0.0011  -0.0004  -0.0010   0.0004   0.00  585.7
2019/01/11 02:54:30.000   1130760.7670  -4831298.6045   3994155.1287   1   8   0.0005   0.0011   0.0011  -0.0004  -0.0009   0.0004   0.00  616.2
2019/01/11 02:55:00.000   1130760.7672  -4831298.6048   3994155.1293   1   8   0.0005   0.0011   0.0011  -0.0004  -0.0009   0.0004   0.00  645.1
2019/01/11 02:55:30.000   1130760.7673  -4831298.6051   3994155.1299   1   8   0.0005   0.0011   0.0011  -0.0004  -0.0009   0.0004   0.00  683.3
2019/01/11 02:56:00.000   1130760.7675  -4831298.6054   3994155.1306   1   8   0.0005   0.0011   0.0011  -0.0004  -0.0009   0.0004   0.00  720.2
2019/01/11 02:56:30.000   1130760.7676  -4831298.6057   3994155.1312   1   8   0.0005   0.0011   0.0011  -0.0004  -0.0009   0.0003   0.00  757.0
2019/01/11 02:57:00.000   1130760.7678  -4831298.6059   3994155.1319   1   8   0.0005   0.0011   0.0011  -0.0004  -0.0009   0.0003   0.00  793.1
2019/01/11 02:57:30.000   1130760.7679  -4831298.6062   3994155.1325   1   8   0.0005   0.0011   0.0011  -0.0004  -0.0009   0.0003   0.00  836.9
2019/01/11 02:58:00.000   1130760.7680  -4831298.6064   3994155.1332   1   8   0.0005   0.0011   0.0011  -0.0004  -0.0009   0.0003   0.00  886.2
2019/01/11 02:58:30.000   1130760.7682  -4831298.6066   3994155.1339   1   8   0.0005   0.0011   0.0010  -0.0004  -0.0009   0.0003   0.00  942.6
2019/01/11 02:59:00.000   1130760.7684  -4831298.6069   3994155.1346   1   8   0.0005   0.0011   0.0010  -0.0004  -0.0009   0.0003   0.00  999.9
2019/01/11 02:59:30.000   1130760.7685  -4831298.6072   3994155.1355   1   8   0.0005   0.0011   0.0010  -0.0004  -0.0009   0.0003   0.00  999.9
2019/01/11 03:00:00.000   1130760.7688  -4831298.6075   3994155.1363   1   8   0.0005   0.0011   0.0010  -0.0004  -0.0009   0.0003   0.00  999.9
2019/01/11 03:00:30.000   1130760.7689  -4831298.6079   3994155.1373   1   8   0.0005   0.0011   0.0010  -0.0004  -0.0009   0.0003   0.00  999.9
2019/01/11 03:01:00.000   1130760.7691  -4831298.6083   3994155.1382   1   8   0.0005   0.0011   0.0010  -0.0004  -0.0009   0.0003   0.00  999.9
2019/01/11 03:01:30.000   1130760.7693  -4831298.6087   3994155.1392   1   8   0.0005   0.0011   0.0010  -0.0004  -0.0009   0.0003   0.00  999.9
2019/01/11 03:02:00.000   1130760.7695  -4831298.6091   3994155.1402   1   8   0.0005   0.0011   0.0010  -0.0004  -0.0009   0.0003   0.00  999.9
2019/01/11 03:02:30.000   1130760.7696  -4831298.6095   3994155.1412   1   8   0.0005   0.0011   0.0010  -0.0004  -0.0009   0.0003   0.00  999.9
2019/01/11 03:03:00.000   1130760.7698  -4831298.6100   3994155.1423   1   8   0.0005   0.0010   0.0010  -0.0004  -0.0009   0.0003   0.00  999.9
2019/01/11 03:03:30.000   1130760.7699  -4831298.6104   3994155.1433   1   8   0.0005   0.0010   0.0010  -0.0004  -0.0009   0.0003   0.00  999.9
2019/01/11 03:04:00.000   1130760.7701  -4831298.6109   3994155.1444   1   8   0.0005   0.0010   0.0010  -0.0004  -0.0009   0.0003   0.00  985.3
2019/01/11 03:04:30.000   1130760.7702  -4831298.6113   3994155.1454   1   8   0.0005   0.0010   0.0010  -0.0004  -0.0009   0.0003   0.00  923.9
2019/01/11 03:05:00.000   1130760.7703  -4831298.6117   3994155.1463   1   8   0.0004   0.0010   0.0010  -0.0004  -0.0009   0.0003   0.00  858.9
2019/01/11 03:05:30.000   1130760.7704  -4831298.6121   3994155.1472   1   8   0.0004   0.0010   0.0010  -0.0004  -0.0009   0.0003   0.00  796.0
2019/01/11 03:06:00.000   1130760.7705  -4831298.6124   3994155.1480   1   8   0.0004   0.0010   0.0010  -0.0004  -0.0009   0.0003   0.00  742.3
2019/01/11 03:06:30.000   1130760.7706  -4831298.6128   3994155.1488   1   8   0.0004   0.0010   0.0010  -0.0004  -0.0009   0.0003   0.00  700.0
2019/01/11 03:07:00.000   1130760.7707  -4831298.6132   3994155.1495   1   8   0.0004   0.0010   0.0010  -0.0004  -0.0009   0.0003   0.00  661.7
2019/01/11 03:07:30.000   1130760.7708  -4831298.6135   3994155.1502   1   8   0.0004   0.0010   0.0010  -0.0004  -0.0009   0.0003   0.00  631.9
2019/01/11 03:08:00.000   1130760.7709  -4831298.6139   3994155.1509   1   8   0.0004   0.0010   0.0010  -0.0004  -0.0008   0.0003   0.00  598.6
2019/01/11 03:08:30.000   1130760.7710  -4831298.6142   3994155.1515   1   8   0.0004   0.0010   0.0010  -0.0004  -0.0008   0.0003   0.00  577.3
2019/01/11 03:09:00.000   1130760.7710  -4831298.6145   3994155.1520   1   8   0.0004   0.0010   0.0010  -0.0004  -0.0008   0.0003   0.00  567.1
2019/01/11 03:09:30.000   1130760.7711  -4831298.6149   3994155.1525   1   8   0.0004   0.0010   0.0010  -0.0004  -0.0008   0.0003   0.00  553.1
2019/01/11 03:10:00.000   1130760.7713  -4831298.6152   3994155.1529   1   8   0.0004   0.0010   0.0009  -0.0004  -0.0008   0.0003   0.00  546.0
2019/01/11 03:10:30.000   1130760.7714  -4831298.6155   3994155.1532   1   8   0.0004   0.0010   0.0009  -0.0004  -0.0008   0.0003   0.00  545.0
2019/01/11 03:11:00.000   1130760.7715  -4831298.6157   3994155.1535   1   8   0.0004   0.0010   0.0009  -0.0004  -0.0008   0.0003   0.00  543.9
2019/01/11 03:11:30.000   1130760.7715  -4831298.6157   3994155.1515   2   9   0.0005   0.0011   0.0010  -0.0004  -0.0009   0.0003   0.00    1.4
2019/01/11 03:12:00.000   1130760.7716  -4831298.6160   3994155.1517   2   9   0.0005   0.0011   0.0010  -0.0004  -0.0009   0.0003   0.00    1.5
2019/01/11 03:12:30.000   1130760.7717  -4831298.6162   3994155.1520   2   9   0.0005   0.0011   0.0010  -0.0004  -0.0009   0.0003   0.00    1.6
2019/01/11 03:13:00.000   1130760.7718  -4831298.6164   3994155.1521   2   9   0.0005   0.0011   0.0010  -0.0004  -0.0009   0.0003   0.00    1.8
2019/01/11 03:13:30.000   1130760.7719  -4831298.6167   3994155.1523   2   9   0.0005   0.0011   0.0010  -0.0004  -0.0009   0.0003   0.00    1.9
2019/01/11 03:14:00.000   1130760.7720  -4831298.6170   3994155.1525   2   9   0.0005   0.0010   0.0010  -0.0004  -0.0009   0.0003   0.00    2.0
2019/01/11 03:14:30.000   1130760.7721  -4831298.6173   3994155.1527   2   9   0.0005   0.0010   0.0010  -0.0004  -0.0009   0.0003   0.00    2.1
2019/01/11 03:15:00.000   1130760.7722  -4831298.6175   3994155.1528   2   9   0.0005   0.0010   0.0010  -0.0004  -0.0009   0.0003   0.00    2.3
2019/01/11 03:15:30.000   1130760.7724  -4831298.6178   3994155.1530   2   9   0.0005   0.0010   0.0010  -0.0004  -0.0009   0.0003   0.00    2.5
2019/01/11 03:16:00.000   1130760.7725  -4831298.6182   3994155.1532   2   9   0.0005   0.0010   0.0010  -0.0004  -0.0009   0.0003   0.00    2.6
2019/01/11 03:16:30.000   1130760.7726  -4831298.6185   3994155.1534   2   9   0.0005   0.0010   0.0010  -0.0004  -0.0009   0.0003   0.00    2.9
2019/01/11 03:17:00.000   1130760.7734  -4831298.6181   3994155.1547   1   9   0.0004   0.0009   0.0009  -0.0004  -0.0008   0.0003   0.00    3.2
2019/01/11 03:17:30.000   1130760.7727  -4831298.6188   3994155.1534   2   9   0.0005   0.0010   0.0010  -0.0004  -0.0009   0.0003   0.00    1.3
2019/01/11 03:18:00.000   1130760.7728  -4831298.6188   3994155.1534   2   9   0.0005   0.0010   0.0010  -0.0004  -0.0009   0.0003   0.00    1.6
2019/01/11 03:18:30.000   1130760.7728  -4831298.6188   3994155.1534   2   9   0.0005   0.0010   0.0010  -0.0004  -0.0009   0.0003   0.00    1.9
2019/01/11 03:19:00.000   1130760.7729  -4831298.6189   3994155.1534   2   9   0.0005   0.0010   0.0010  -0.0004  -0.0009   0.0003   0.00    2.2
2019/01/11 03:19:30.000   1130760.7729  -4831298.6189   3994155.1533   2   9   0.0005   0.0010   0.0010  -0.0004  -0.0008   0.0003   0.00    2.4
2019/01/11 03:20:00.000   1130760.7730  -4831298.6189   3994155.1533   2   9   0.0005   0.0010   0.0010  -0.0004  -0.0008   0.0003   0.00    2.7
2019/01/11 03:20:30.000   1130760.7730  -4831298.6188   3994155.1532   2   9   0.0005   0.0010   0.0010  -0.0004  -0.0008   0.0003   0.00    2.9
2019/01/11 03:21:00.000   1130760.7743  -4831298.6185   3994155.1555   1   9   0.0004   0.0009   0.0008  -0.0004  -0.0008   0.0003   0.00    3.1
2019/01/11 03:21:30.000   1130760.7744  -4831298.6187   3994155.1555   1   9   0.0004   0.0009   0.0008  -0.0004  -0.0008   0.0003   0.00    3.4
2019/01/11 03:22:00.000   1130760.7744  -4831298.6188   3994155.1555   1   9   0.0004   0.0009   0.0008  -0.0004  -0.0007   0.0003   0.00    3.6
2019/01/11 03:22:30.000   1130760.7745  -4831298.6188   3994155.1555   1   9   0.0004   0.0009   0.0008  -0.0004  -0.0007   0.0003   0.00    3.7
2019/01/11 03:23:00.000   1130760.7746  -4831298.6189   3994155.1554   1   9   0.0004   0.0009   0.0008  -0.0004  -0.0007   0.0003   0.00    3.8
2019/01/11 03:23:30.000   1130760.7747  -4831298.6191   3994155.1554   1   9   0.0004   0.0009   0.0008  -0.0004  -0.0007   0.0003   0.00    3.8
2019/01/11 03:24:00.000   1130760.7748  -4831298.6191   3994155.1553   1   9   0.0004   0.0009   0.0008  -0.0004  -0.0007   0.0003   0.00    3.9
2019/01/11 03:24:30.000   1130760.7750  -4831298.6192   3994155.1553   1   9   0.0004   0.0009   0.0008  -0.0004  -0.0007   0.0003   0.00    4.0
2019/01/11 03:25:00.000   1130760.7751  -4831298.6192   3994155.1552   1   9   0.0004   0.0009   0.0008  -0.0004  -0.0007   0.0003   0.00    4.0
2019/01/11 03:25:30.000   1130760.7752  -4831298.6192   3994155.1551   1   9   0.0004   0.0009   0.0008  -0.0004  -0.0007   0.0003   0.00    4.0
2019/01/11 03:26:00.000   1130760.7754  -4831298.6192   3994155.1551   1   9   0.0004   0.0009   0.0008  -0.0004  -0.0007   0.0003   0.00    5.8
2019/01/11 03:26:30.000   1130760.7756  -4831298.6193   3994155.1551   1   9   0.0004   0.0009   0.0008  -0.0004  -0.0007   0.0003   0.00    7.4
2019/01/11 03:27:00.000   1130760.7757  -4831298.6192   3994155.1549   1   9   0.0004   0.0009   0.0008  -0.0004  -0.0007   0.0003   0.00    8.9
2019/01/11 03:27:30.000   1130760.7758  -4831298.6191   3994155.1547   1   9   0.0004   0.0009   0.0008  -0.0004  -0.0007   0.0003   0.00   10.4
2019/01/11 03:28:00.000   1130760.7759  -4831298.6190   3994155.1546   1   9   0.0004   0.0009   0.0008  -0.0004  -0.0007   0.0003   0.00   11.9
2019/01/11 03:28:30.000   1130760.7760  -4831298.6188   3994155.1543   1   9   0.0004   0.0009   0.0008  -0.0004  -0.0007   0.0003   0.00   13.3
2019/01/11 03:29:00.000   1130760.7762  -4831298.6185   3994155.1540   1   9   0.0004   0.0009   0.0008  -0.0004  -0.0007   0.0003   0.00   14.6
2019/01/11 03:29:30.000   1130760.7763  -4831298.6183   3994155.1536   1   9   0.0004   0.0009   0.0008  -0.0004  -0.0007   0.0003   0.00   15.9
2019/01/11 03:30:00.000   1130760.7764  -4831298.6180   3994155.1532   1   9   0.0004   0.0009   0.0008  -0.0004  -0.0007   0.0003   0.00   17.1
2019/01/11 03:30:30.000   1130760.7766  -4831298.6177   3994155.1529   1   9   0.0004   0.0009   0.0008  -0.0004  -0.0007   0.0003   0.00   18.1
2019/01/11 03:31:00.000   1130760.7768  -4831298.6175   3994155.1526   1   9   0.0004   0.0009   0.0008  -0.0004  -0.0007   0.0003   0.00   19.2
2019/01/11 03:31:30.000   1130760.7769  -4831298.6173   3994155.1523   1   9   0.0004   0.0009   0.0008  -0.0004  -0.0007   0.0003   0.00   20.4
2019/01/11 03:32:00.000   1130760.7770  -4831298.6170   3994155.1520   1   9   0.0004   0.0009   0.0007  -0.0004  -0.0007   0.0003   0.00   21.7
2019/01/11 03:32:30.000   1130760.7772  -4831298.6167   3994155.1517   1   9   0.0004   0.0009   0.0007  -0.0004  -0.0007   0.0003   0.00   23.1
2019/01/11 03:33:00.000   1130760.7773  -4831298.6164   3994155.1513   1   9   0.0004   0.0009   0.0007  -0.0004  -0.0007   0.0003   0.00   24.6
2019/01/11 03:33:30.000   1130760.7774  -4831298.6161   3994155.1509   1   9   0.0004   0.0009   0.0007  -0.0004  -0.0007   0.0003   0.00   26.1
2019/01/11 03:34:00.000   1130760.7775  -4831298.6158   3994155.1505   1   9   0.0004   0.0009   0.0007  -0.0004  -0.0007   0.0003   0.00   27.9
2019/01/11 03:34:30.000   1130760.7776  -4831298.6155   3994155.1501   1   9   0.0004   0.0009   0.0007  -0.0004  -0.0007   0.0003   0.00   30.0
2019/01/11 03:35:00.000   1130760.7777  -4831298.6152   3994155.1497   1   9   0.0004   0.0009   0.0007  -0.0004  -0.0007   0.0003   0.00   32.5
2019/01/11 03:35:30.000   1130760.7778  -4831298.6148   3994155.1492   1   9   0.0004   0.0009   0.0007  -0.0004  -0.0007   0.0003   0.00   35.2
2019/01/11 03:36:00.000   1130760.7778  -4831298.6143   3994155.1486   1   9   0.0004   0.0009   0.0007  -0.0004  -0.0007   0.0003   0.00   38.0
2019/01/11 03:36:30.000   1130760.7756  -4831298.6131   3994155.1470   2  10   0.0004   0.0009   0.0008  -0.0004  -0.0007   0.0002   0.00    1.1
2019/01/11 03:37:00.000   1130760.7756  -4831298.6128   3994155.1467   2  10   0.0004   0.0009   0.0008  -0.0004  -0.0007   0.0002   0.00    1.2
2019/01/11 03:37:30.000   1130760.7756  -4831298.6125   3994155.1464   2  10   0.0004   0.0009   0.0008  -0.0004  -0.0007   0.0002   0.00    1.3
2019/01/11 03:38:00.000   1130760.7756  -4831298.6122   3994155.1462   2  10   0.0004   0.0009   0.0008  -0.0004  -0.0007   0.0002   0.00    1.4
2019/01/11 03:38:30.000   1130760.7755  -4831298.6119   3994155.1460   2  10   0.0004   0.0009   0.0008  -0.0004  -0.0007   0.0002   0.00    1.6
2019/01/11 03:39:00.000   1130760.7755  -4831298.6117   3994155.1458   2  10   0.0004   0.0009   0.0008  -0.0004  -0.0007   0.0002   0.00    1.8
2019/01/11 03:39:30.000   1130760.7755  -4831298.6113   3994155.1455   2  10   0.0004   0.0009   0.0008  -0.0004  -0.0007   0.0002   0.00    2.2
2019/01/11 03:40:00.000   1130760.7754  -4831298.6110   3994155.1453   2  10   0.0004   0.0009   0.0008  -0.0004  -0.0007   0.0002   0.00    2.5
2019/01/11 03:40:30.000   1130760.7754  -4831298.6107   3994155.1450   2  10   0.0004   0.0009   0.0008  -0.0004  -0.0007   0.0002   0.00    2.8
2019/01/11 03:41:00.000   1130760.7778  -4831298.6090   3994155.1428   1  10   0.0004   0.0008   0.0007  -0.0004  -0.0006   0.0002   0.00    3.1
2019/01/11 03:41:30.000   1130760.7778  -4831298.6085   3994155.1422   1  10   0.0004   0.0008   0.0007  -0.0004  -0.0006   0.0002   0.00    3.3
2019/01/11 03:42:00.000   1130760.7777  -4831298.6079   3994155.1415   1  10   0.0004   0.0008   0.0007  -0.0004  -0.0006   0.0002   0.00    3.5
2019/01/11 03:42:30.000   1130760.7775  -4831298.6075   3994155.1408   1  10   0.0004   0.0008   0.0007  -0.0004  -0.0006   0.0002   0.00    3.8
2019/01/11 03:43:00.000   1130760.7773  -4831298.6070   3994155.1401   1  10   0.0004   0.0008   0.0007  -0.0004  -0.0006   0.0002   0.00    4.0
2019/01/11 03:43:30.000   1130760.7772  -4831298.6065   3994155.1393   1  10   0.0004   0.0008   0.0007  -0.0004  -0.0006   0.0002   0.00    4.1
2019/01/11 03:44:00.000   1130760.7769  -4831298.6059   3994155.1384   1  10   0.0004   0.0008   0.0007  -0.0004  -0.0006   0.0002   0.00    4.0
2019/01/11 03:44:30.000   1130760.7767  -4831298.6053   3994155.1375   1  10   0.0004   0.0008   0.0007  -0.0004  -0.0006   0.0002   0.00    4.0
2019/01/11 03:45:00.000   1130760.7765  -4831298.6048   3994155.1365   1  10   0.0004   0.0008   0.0007  -0.0004  -0.0006   0.0002   0.00    4.0
2019/01/11 03:45:30.000   1130760.7762  -4831298.6043   3994155.1356   1  10   0.0004   0.0008   0.0007  -0.0004  -0.0006   0.0002   0.00    3.8
2019/01/11 03:46:00.000   1130760.7760  -4831298.6037   3994155.1348   1  10   0.0004   0.0008   0.0007  -0.0004  -0.0006   0.0002   0.00    5.0
2019/01/11 03:46:30.000   1130760.7758  -4831298.6033   3994155.1339   1  10   0.0004   0.0008   0.0006  -0.0004  -0.0006   0.0002   0.00    6.0
2019/01/11 03:47:00.000   1130760.7756  -4831298.6028   3994155.1331   1  10   0.0004   0.0008   0.0006  -0.0004  -0.0006   0.0002   0.00    6.9
2019/01/11 03:47:30.000   1130760.7755  -4831298.6024   3994155.1324   1  10   0.0004   0.0008   0.0006  -0.0004  -0.0006   0.0002   0.00    7.8
2019/01/11 03:48:00.000   1130760.7753  -4831298.6020   3994155.1316   1  10   0.0004   0.0008   0.0006  -0.0004  -0.0006   0.0002   0.00    8.5
2019/01/11 03:48:30.000   1130760.7751  -4831298.6017   3994155.1310   1  10   0.0004   0.0008   0.0006  -0.0004  -0.0006   0.0002   0.00    9.2
2019/01/11 03:49:00.000   1130760.7749  -4831298.6015   3994155.1304   1  10   0.0004   0.0008   0.0006  -0.0004  -0.0006   0.0002   0.00    9.9
2019/01/11 03:49:30.000   1130760.7747  -4831298.6012   3994155.1299   1  10   0.0004   0.0008   0.0006  -0.0004  -0.0006   0.0002   0.00   10.5
2019/01/11 03:50:00.000   1130760.7746  -4831298.6010   3994155.1294   1  10   0.0004   0.0008   0.0006  -0.0004  -0.0006   0.0002   0.00   11.1
2019/01/11 03:50:30.000   1130760.7744  -4831298.6008   3994155.1289   1  10   0.0004   0.0008   0.0006  -0.0004  -0.0006   0.0002   0.00   11.7
2019/01/11 03:51:00.000   1130760.7743  -4831298.6007   3994155.1286   1  10   0.0004   0.0008   0.0006  -0.0004  -0.0006   0.0002   0.00   12.2
2019/01/11 03:51:30.000   1130760.7741  -4831298.6006   3994155.1284   1  10   0.0004   0.0008   0.0006  -0.0004  -0.0006   0.0002   0.00   12.7
2019/01/11 03:52:00.000   1130760.7740  -4831298.6005   3994155.1283   1  10   0.0004   0.0008   0.0006  -0.0004  -0.0006   0.0002   0.00   13.2
2019/01/11 03:52:30.000   1130760.7739  -4831298.6004   3994155.1282   1  10   0.0004   0.0008   0.0006  -0.0004  -0.0006   0.0002   0.00   13.8
2019/01/11 03:53:00.000   1130760.7738  -4831298.6004   3994155.1282   1  10   0.0004   0.0008   0.0006  -0.0004  -0.0006   0.0002   0.00   14.3
2019/01/11 03:53:30.000   1130760.7737  -4831298.6003   3994155.1282   1  10   0.0004   0.0008   0.0006  -0.0004  -0.0006   0.0002   0.00   14.8
2019/01/11 03:54:00.000   1130760.7736  -4831298.6002   3994155.1283   1  10   0.0004   0.0008   0.0006  -0.0004  -0.0006   0.0002   0.00   15.3
2019/01/11 03:54:30.000   1130760.7735  -4831298.6002   3994155.1284   1  10   0.0004   0.0008   0.0006  -0.0004  -0.0006   0.0002   0.00   15.9
2019/01/11 03:55:00.000   1130760.7734  -4831298.6003   3994155.1286   1  10   0.0004   0.0008   0.0006  -0.0004  -0.0005   0.0002   0.00   16.4
2019/01/11 03:55:30.000   1130760.7733  -4831298.6004   3994155.1294   1   9   0.0004   0.0008   0.0006  -0.0004  -0.0005   0.0002   0.00   17.3
2019/01/11 03:56:00.000   1130760.7732  -4831298.6005   3994155.1295   1   9   0.0004   0.0008   0.0006  -0.0004  -0.0005   0.0002   0.00   17.7
2019/01/11 03:56:30.000   1130760.7732  -4831298.6006   3994155.1295   1   9   0.0004   0.0008   0.0006  -0.0004  -0.0005   0.0002   0.00   18.0
2019/01/11 03:57:00.000   1130760.7731  -4831298.6007   3994155.1296   1   9   0.0004   0.0007   0.0006  -0.0004  -0.0005   0.0002   0.00   18.4
2019/01/11 03:57:30.000   1130760.7731  -4831298.6008   3994155.1297   1   9   0.0004   0.0007   0.0006  -0.0004  -0.0005   0.0002   0.00   18.6
2019/01/11 03:58:00.000   1130760.7730  -4831298.6009   3994155.1297   1   9   0.0004   0.0007   0.0006  -0.0004  -0.0005   0.0002   0.00   18.9
2019/01/11 03:58:30.000   1130760.7730  -4831298.6008   3994155.1296   1   9   0.0004   0.0007   0.0006  -0.0004  -0.0005   0.0002   0.00   19.2
2019/01/11 03:59:00.000   1130760.7730  -4831298.6008   3994155.1295   1   9   0.0004   0.0007   0.0006  -0.0004  -0.0005   0.0002   0.00   19.4
2019/01/11 03:59:30.000   1130760.7729  -4831298.6006   3994155.1293   1   9   0.0004   0.0007   0.0006  -0.0004  -0.0005   0.0002   0.00   19.7
2019/01/11 04:00:00.000   1130760.7729  -4831298.6005   3994155.1291   1   9   0.0004   0.0007   0.0006  -0.0004  -0.0005   0.0002   0.00   19.9
2019/01/11 04:00:30.000   1130760.7729  -4831298.6003   3994155.1288   1   9   0.0004   0.0007   0.0006  -0.0004  -0.0005   0.0002   0.00   20.1
2019/01/11 04:01:00.000   1130760.7729  -4831298.6000   3994155.1285   1   9   0.0004   0.0007   0.0006  -0.0004  -0.0005   0.0002   0.00   20.3
2019/01/11 04:01:30.000   1130760.7729  -4831298.5998   3994155.1281   1   9   0.0004   0.0007   0.0006  -0.0004  -0.0005   0.0002   0.00   20.5
2019/01/11 04:02:00.000   1130760.7728  -4831298.5995   3994155.1278   1   9   0.0004   0.0007   0.0006  -0.0004  -0.0005   0.0002   0.00   20.6
2019/01/11 04:02:30.000   1130760.7728  -4831298.5991   3994155.1274   1   9   0.0004   0.0007   0.0006  -0.0004  -0.0005   0.0002   0.00   20.8
2019/01/11 04:03:00.000   1130760.7728  -4831298.5988   3994155.1271   1   9   0.0004   0.0007   0.0006  -0.0004  -0.0005   0.0002   0.00   21.1
2019/01/11 04:03:30.000   1130760.7728  -4831298.5985   3994155.1268   1   9   0.0004   0.0007   0.0006  -0.0004  -0.0005   0.0002   0.00   21.4
2019/01/11 04:04:00.000   1130760.7727  -4831298.5982   3994155.1264   1   9   0.0004   0.0007   0.0006  -0.0004  -0.0005   0.0002   0.00   21.5
2019/01/11 04:04:30.000   1130760.7726  -4831298.5980   3994155.1261   1   9   0.0004   0.0007   0.0006  -0.0004  -0.0005   0.0002   0.00   21.6
2019/01/11 04:05:00.000   1130760.7726  -4831298.5977   3994155.1259   1   9   0.0004   0.0007   0.0006  -0.0004  -0.0005   0.0002   0.00   21.7
2019/01/11 04:05:30.000   1130760.7725  -4831298.5976   3994155.1256   1   9   0.0004   0.0007   0.0006  -0.0004  -0.0005   0.0002   0.00   21.8
2019/01/11 04:06:00.000   1130760.7724  -4831298.5975   3994155.1255   1   9   0.0004   0.0007   0.0006  -0.0004  -0.0005   0.0002   0.00   21.9
2019/01/11 04:06:30.000   1130760.7724  -4831298.5974   3994155.1253   1   9   0.0004   0.0007   0.0006  -0.0004  -0.0005   0.0002   0.00   21.8
2019/01/11 04:07:00.000   1130760.7723  -4831298.5974   3994155.1252   1   9   0.0004   0.0007   0.0006  -0.0004  -0.0005   0.0002   0.00   21.7
2019/01/11 04:07:30.000   1130760.7722  -4831298.5974   3994155.1251   1   9   0.0004   0.0007   0.0006  -0.0004  -0.0005   0.0002   0.00   21.7
2019/01/11 04:08:00.000   1130760.7721  -4831298.5974   3994155.1251   1   9   0.0004   0.0007   0.0006  -0.0004  -0.0005   0.0002   0.00   21.8
2019/01/11 04:08:30.000   1130760.7721  -4831298.5974   3994155.1251   1   9   0.0004   0.0007   0.0006  -0.0004  -0.0005   0.0002   0.00   21.8
2019/01/11 04:09:00.000   1130760.7720  -4831298.5975   3994155.1251   1   9   0.0004   0.0007   0.0006  -0.0004  -0.0005   0.0002   0.00   22.0
2019/01/11 04:09:30.000   1130760.7725  -4831298.6009   3994155.1308   2  10   0.0004   0.0007   0.0006  -0.0004  -0.0005   0.0002   0.00    1.0
2019/01/11 04:10:00.000   1130760.7726  -4831298.6011   3994155.1309   2  10   0.0004   0.0007   0.0006  -0.0004  -0.0005   0.0002   0.00    1.0
2019/01/11 04:10:30.000   1130760.7726  -4831298.6012   3994155.1310   2  10   0.0004   0.0007   0.0006  -0.0004  -0.0005   0.0002   0.00    1.0
2019/01/11 04:11:00.000   1130760.7726  -4831298.6013   3994155.1311   2  10   0.0004   0.0007   0.0006  -0.0004  -0.0005   0.0002   0.00    1.0
2019/01/11 04:11:30.000   1130760.7727  -4831298.6015   3994155.1313   2  10   0.0004   0.0007   0.0006  -0.0004  -0.0005   0.0002   0.00    1.0
2019/01/11 04:12:00.000   1130760.7728  -4831298.6016   3994155.1314   2  10   0.0004   0.0007   0.0006  -0.0004  -0.0005   0.0002   0.00    1.0
2019/01/11 04:12:30.000   1130760.7728  -4831298.6018   3994155.1315   2  10   0.0004   0.0007   0.0006  -0.0004  -0.0005   0.0002   0.00    1.0
2019/01/11 04:13:00.000   1130760.7729  -4831298.6020   3994155.1317   2  10   0.0004   0.0007   0.0006  -0.0004  -0.0005   0.0002   0.00    1.0
2019/01/11 04:13:30.000   1130760.7729  -4831298.6022   3994155.1318   2  10   0.0004   0.0007   0.0006  -0.0004  -0.0005   0.0002   0.00    1.1
2019/01/11 04:14:00.000   1130760.7730  -4831298.6024   3994155.1320   2  10   0.0004   0.0007   0.0006  -0.0004  -0.0005   0.0002   0.00    1.1
2019/01/11 04:14:30.000   1130760.7730  -4831298.6026   3994155.1321   2  10   0.0004   0.0007   0.0006  -0.0004  -0.0005   0.0002   0.00    1.1
2019/01/11 04:15:00.000   1130760.7731  -4831298.6028   3994155.1322   2  10   0.0004   0.0007   0.0006  -0.0003  -0.0005   0.0002   0.00    1.1
2019/01/11 04:15:30.000   1130760.7731  -4831298.6030   3994155.1323   2  10   0.0004   0.0007   0.0006  -0.0003  -0.0005   0.0002   0.00    1.0
2019/01/11 04:16:00.000   1130760.7732  -4831298.6033   3994155.1324   2  10   0.0004   0.0007   0.0006  -0.0003  -0.0005   0.0002   0.00    1.0
2019/01/11 04:16:30.000   1130760.7733  -4831298.6035   3994155.1325   2  10   0.0004   0.0007   0.0006  -0.0003  -0.0005   0.0002   0.00    1.0
2019/01/11 04:17:00.000   1130760.7734  -4831298.6038   3994155.1326   2  10   0.0004   0.0007   0.0006  -0.0003  -0.0005   0.0002   0.00    1.1
2019/01/11 04:17:30.000   1130760.7735  -4831298.6040   3994155.1327   2   9   0.0004   0.0007   0.0006  -0.0003  -0.0005   0.0002   0.00    1.1
2019/01/11 04:18:00.000   1130760.7735  -4831298.6042   3994155.1328   2   9   0.0004   0.0007   0.0006  -0.0003  -0.0005   0.0002   0.00    1.2
2019/01/11 04:18:30.000   1130760.7736  -4831298.6045   3994155.1329   2   9   0.0004   0.0007   0.0006  -0.0003  -0.0005   0.0002   0.00    1.3
2019/01/11 04:19:00.000   1130760.7737  -4831298.6048   3994155.1331   2   9   0.0004   0.0007   0.0006  -0.0003  -0.0005   0.0002   0.00    1.3
2019/01/11 04:19:30.000   1130760.7737  -4831298.6050   3994155.1332   2   9   0.0004   0.0007   0.0006  -0.0003  -0.0005   0.0002   0.00    1.4
2019/01/11 04:20:00.000   1130760.7738  -4831298.6052   3994155.1333   2   9   0.0004   0.0007   0.0006  -0.0003  -0.0005   0.0002   0.00    1.4
2019/01/11 04:20:30.000   1130760.7738  -4831298.6055   3994155.1334   2   9   0.0004   0.0007   0.0006  -0.0003  -0.0005   0.0002   0.00    1.5
2019/01/11 04:21:00.000   1130760.7739  -4831298.6057   3994155.1335   2   9   0.0004   0.0007   0.0006  -0.0003  -0.0005   0.0002   0.00    1.6
2019/01/11 04:21:30.000   1130760.7739  -4831298.6059   3994155.1336   2   9   0.0004   0.0007   0.0006  -0.0003  -0.0005   0.0002   0.00    1.6
2019/01/11 04:22:00.000   1130760.7740  -4831298.6061   3994155.1337   2   9   0.0004   0.0007   0.0006  -0.0003  -0.0005   0.0002   0.00    1.7
2019/01/11 04:22:30.000   1130760.7740  -4831298.6064   3994155.1339   2   9   0.0004   0.0007   0.0006  -0.0003  -0.0005   0.0002   0.00    1.8
2019/01/11 04:23:00.000   1130760.7740  -4831298.6066   3994155.1340   2   9   0.0004   0.0007   0.0006  -0.0003  -0.0005   0.0002   0.00    1.8
2019/01/11 04:23:30.000   1130760.7740  -4831298.6069   3994155.1341   2   9   0.0004   0.0007   0.0006  -0.0003  -0.0005   0.0002   0.00    1.9
2019/01/11 04:24:00.000   1130760.7741  -4831298.6071   3994155.1342   2   9   0.0004   0.0007   0.0006  -0.0003  -0.0005   0.0002   0.00    2.0
2019/01/11 04:24:30.000   1130760.7741  -4831298.6073   3994155.1343   2   9   0.0004   0.0007   0.0006  -0.0003  -0.0005   0.0002   0.00    2.1
2019/01/11 04:25:00.000   1130760.7741  -4831298.6076   3994155.1344   2   9   0.0004   0.0007   0.0006  -0.0003  -0.0005   0.0002   0.00    2.1
2019/01/11 04:25:30.000   1130760.7741  -4831298.6078   3994155.1345   2   9   0.0004   0.0007   0.0006  -0.0003  -0.0005   0.0002   0.00    2.2
2019/01/11 04:26:00.000   1130760.7742  -4831298.6081   3994155.1346   2   9   0.0004   0.0007   0.0006  -0.0003  -0.0005   0.0002   0.00    2.3
2019/01/11 04:26:30.000   1130760.7742  -4831298.6083   3994155.1347   2   9   0.0004   0.0007   0.0006  -0.0003  -0.0005   0.0002   0.00    2.4
2019/01/11 04:27:00.000   1130760.7742  -4831298.6085   3994155.1347   2   9   0.0004   0.0007   0.0006  -0.0003  -0.0005   0.0002   0.00    2.5
2019/01/11 04:27:30.000   1130760.7743  -4831298.6088   3994155.1348   2   9   0.0004   0.0007   0.0006  -0.0003  -0.0005   0.0002   0.00    2.5
2019/01/11 04:28:00.000   1130760.7743  -4831298.6090   3994155.1349   2   9   0.0004   0.0007   0.0006  -0.0003  -0.0005   0.0002   0.00    2.6
2019/01/11 04:28:30.000   1130760.7743  -4831298.6092   3994155.1349   2   9   0.0004   0.0007   0.0006  -0.0003  -0.0005   0.0002   0.00    2.7
2019/01/11 04:29:00.000   1130760.7743  -4831298.6094   3994155.1350   2   9   0.0004   0.0007   0.0006  -0.0003  -0.0005   0.0002   0.00    2.7
2019/01/11 04:29:30.000   1130760.7743  -4831298.6095   3994155.1350   2   9   0.0004   0.0007   0.0006  -0.0003  -0.0005   0.0002   0.00    2.8
2019/01/11 04:30:00.000   1130760.7744  -4831298.6097   3994155.1350   2   9   0.0004   0.0007   0.0006  -0.0003  -0.0005   0.0002   0.00    2.9
2019/01/11 04:30:30.000   1130760.7744  -4831298.6099   3994155.1350   2   9   0.0004   0.0007   0.0006  -0.0003  -0.0005   0.0002   0.00    2.9
2019/01/11 04:31:00.000   1130760.7744  -4831298.6100   3994155.1350   2   9   0.0004   0.0007   0.0006  -0.0003  -0.0005   0.0002   0.00    3.0
2019/01/11 04:31:30.000   1130760.7733  -4831298.6153   3994155.1365   1   9   0.0003   0.0007   0.0005  -0.0003  -0.0005   0.0002   0.00    3.0
2019/01/11 04:32:00.000   1130760.7734  -4831298.6157   3994155.1369   1   9   0.0003   0.0007   0.0005  -0.0003  -0.0005   0.0002   0.00    3.1
2019/01/11 04:32:30.000   1130760.7735  -4831298.6161   3994155.1373   1   9   0.0003   0.0007   0.0005  -0.0003  -0.0004   0.0002   0.00    3.1
2019/01/11 04:33:00.000   1130760.7736  -4831298.6165   3994155.1377   1   9   0.0003   0.0007   0.0005  -0.0003  -0.0004   0.0002   0.00    3.2
2019/01/11 04:33:30.000   1130760.7738  -4831298.6170   3994155.1381   1   9   0.0003   0.0007   0.0005  -0.0003  -0.0004   0.0002   0.00    3.2
2019/01/11 04:34:00.000   1130760.7739  -4831298.6174   3994155.1385   1   9   0.0003   0.0007   0.0005  -0.0003  -0.0004   0.0002   0.00    3.1
2019/01/11 04:34:30.000   1130760.7740  -4831298.6177   3994155.1389   1   9   0.0003   0.0006   0.0005  -0.0003  -0.0004   0.0002   0.00    3.1
2019/01/11 04:35:00.000   1130760.7742  -4831298.6180   3994155.1392   1   9   0.0003   0.0006   0.0005  -0.0003  -0.0004   0.0002   0.00    3.1
2019/01/11 04:35:30.000   1130760.7743  -4831298.6183   3994155.1395   1   9   0.0003   0.0006   0.0005  -0.0003  -0.0004   0.0002   0.00    3.1
2019/01/11 04:36:00.000   1130760.7745  -4831298.6186   3994155.1398   1   9   0.0003   0.0006   0.0005  -0.0003  -0.0004   0.0002   0.00    3.1
2019/01/11 04:36:30.000   1130760.7746  -4831298.6188   3994155.1400   1   9   0.0003   0.0006   0.0005  -0.0003  -0.0004   0.0002   0.00    3.3
2019/01/11 04:37:00.000   1130760.7747  -4831298.6191   3994155.1402   1   9   0.0003   0.0006   0.0005  -0.0003  -0.0004   0.0002   0.00    3.5
2019/01/11 04:37:30.000   1130760.7748  -4831298.6193   3994155.1405   1   9   0.0003   0.0006   0.0005  -0.0003  -0.0004   0.0002   0.00    3.7
2019/01/11 04:38:00.000   1130760.7749  -4831298.6195   3994155.1408   1   9   0.0003   0.0006   0.0005  -0.0003  -0.0004   0.0002   0.00    4.0
2019/01/11 04:38:30.000   1130760.7750  -4831298.6197   3994155.1411   1   9   0.0003   0.0006   0.0005  -0.0003  -0.0004   0.0002   0.00    4.2
2019/01/11 04:39:00.000   1130760.7751  -4831298.6200   3994155.1413   1   9   0.0003   0.0006   0.0005  -0.0003  -0.0004   0.0002   0.00    4.4
2019/01/11 04:39:30.000   1130760.7752  -4831298.6201   3994155.1416   1   9   0.0003   0.0006   0.0005  -0.0003  -0.0004   0.0002   0.00    4.6
2019/01/11 04:40:00.000   1130760.7753  -4831298.6203   3994155.1418   1   9   0.0003   0.0006   0.0005  -0.0003  -0.0004   0.0002   0.00    4.9
2019/01/11 04:40:30.000   1130760.7754  -4831298.6204   3994155.1420   1   9   0.0003   0.0006   0.0005  -0.0003  -0.0004   0.0002   0.00    5.2
2019/01/11 04:41:00.000   1130760.7754  -4831298.6206   3994155.1423   1   9   0.0003   0.0006   0.0005  -0.0003  -0.0004   0.0002   0.00    5.4
2019/01/11 04:41:30.000   1130760.7755  -4831298.6207   3994155.1425   1   9   0.0003   0.0006   0.0005  -0.0003  -0.0004   0.0002   0.00    5.7
2019/01/11 04:42:00.000   1130760.7756  -4831298.6208   3994155.1426   1   9   0.0003   0.0006   0.0005  -0.0003  -0.0004   0.0002   0.00    6.0
2019/01/11 04:42:30.000   1130760.7757  -4831298.6210   3994155.1428   1   9   0.0003   0.0006   0.0005  -0.0003  -0.0004   0.0002   0.00    6.4
2019/01/11 04:43:00.000   1130760.7757  -4831298.6211   3994155.1429   1   9   0.0003   0.0006   0.0005  -0.0003  -0.0004   0.0002   0.00    6.7
2019/01/11 04:43:30.000   1130760.7758  -4831298.6212   3994155.1430   1   9   0.0003   0.0006   0.0005  -0.0003  -0.0004   0.0002   0.00    7.0
2019/01/11 04:44:00.000   1130760.7759  -4831298.6212   3994155.1431   1   9   0.0003   0.0006   0.0005  -0.0003  -0.0004   0.0002   0.00    7.4
2019/01/11 04:44:30.000   1130760.7759  -4831298.6213   3994155.1431   1   9   0.0003   0.0006   0.0005  -0.0003  -0.0004   0.0002   0.00    7.8
2019/01/11 04:45:00.000   1130760.7760  -4831298.6213   3994155.1431   1   9   0.0003   0.0006   0.0005  -0.0003  -0.0004   0.0002   0.00    8.1
2019/01/11 04:45:30.000   1130760.7761  -4831298.6213   3994155.1432   1   9   0.0003   0.0006   0.0005  -0.0003  -0.0004   0.0002   0.00    8.5
2019/01/11 04:46:00.000   1130760.7761  -4831298.6214   3994155.1432   1   9   0.0003   0.0006   0.0005  -0.0003  -0.0004   0.0002   0.00    8.9
2019/01/11 04:46:30.000   1130760.7762  -4831298.6215   3994155.1433   1   9   0.0003   0.0006   0.0005  -0.0003  -0.0004   0.0002   0.00    9.2
2019/01/11 04:47:00.000   1130760.7763  -4831298.6215   3994155.1432   1   9   0.0003   0.0006   0.0005  -0.0003  -0.0004   0.0002   0.00    9.6
2019/01/11 04:47:30.000   1130760.7763  -4831298.6215   3994155.1432   1   9   0.0003   0.0006   0.0005  -0.0003  -0.0004   0.0002   0.00    9.9
2019/01/11 04:48:00.000   1130760.7764  -4831298.6215   3994155.1431   1   9   0.0003   0.0006   0.0005  -0.0003  -0.0004   0.0002   0.00   10.2
2019/01/11 04:48:30.000   1130760.7764  -4831298.6215   3994155.1431   1   9   0.0003   0.0006   0.0005  -0.0003  -0.0004   0.0002   0.00   10.6
2019/01/11 04:49:00.000   1130760.7764  -4831298.6215   3994155.1430   1   9   0.0003   0.0006   0.0005  -0.0003  -0.0004   0.0002   0.00   10.9
2019/01/11 04:49:30.000   1130760.7765  -4831298.6215   3994155.1429   1   9   0.0003   0.0006   0.0005  -0.0003  -0.0004   0.0002   0.00   11.2
2019/01/11 04:50:00.000   1130760.7765  -4831298.6214   3994155.1428   1   9   0.0003   0.0006   0.0005  -0.0003  -0.0004   0.0002   0.00   11.7
2019/01/11 04:50:30.000   1130760.7766  -4831298.6215   3994155.1428   1   9   0.0003   0.0006   0.0005  -0.0003  -0.0004   0.0002   0.00   12.1
2019/01/11 04:51:00.000   1130760.7766  -4831298.6215   3994155.1427   1   9   0.0003   0.0006   0.0005  -0.0003  -0.0004   0.0002   0.00   12.5
2019/01/11 04:51:30.000   1130760.7767  -4831298.6215   3994155.1426   1   9   0.0003   0.0006   0.0005  -0.0003  -0.0004   0.0002   0.00   12.9
2019/01/11 04:52:00.000   1130760.7767  -4831298.6215   3994155.1426   1   9   0.0003   0.0006   0.0005  -0.0003  -0.0004   0.0002   0.00   13.3
2019/01/11 04:52:30.000   1130760.7767  -4831298.6215   3994155.1425   1   9   0.0003   0.0006   0.0005  -0.0003  -0.0004   0.0002   0.00   13.7
2019/01/11 04:53:00.000   1130760.7768  -4831298.6214   3994155.1424   1   9   0.0003   0.0006   0.0005  -0.0003  -0.0004   0.0002   0.00   14.1
2019/01/11 04:53:30.000   1130760.7768  -4831298.6214   3994155.1424   1   9   0.0003   0.0006   0.0005  -0.0003  -0.0004   0.0002   0.00   14.5
2019/01/11 04:54:00.000   1130760.7768  -4831298.6214   3994155.1424   1   9   0.0003   0.0006   0.0005  -0.0003  -0.0004   0.0002   0.00   14.8
2019/01/11 04:54:30.000   1130760.7769  -4831298.6217   3994155.1441   1   7   0.0003   0.0006   0.0005  -0.0003  -0.0004   0.0002   0.00   19.8
2019/01/11 04:55:00.000   1130760.7769  -4831298.6216   3994155.1440   1   7   0.0003   0.0006   0.0005  -0.0003  -0.0004   0.0002   0.00   20.1
2019/01/11 04:55:30.000   1130760.7769  -4831298.6216   3994155.1439   1   7   0.0003   0.0006   0.0005  -0.0003  -0.0004   0.0002   0.00   20.5
2019/01/11 04:56:00.000   1130760.7768  -4831298.6215   3994155.1438   1   7   0.0003   0.0006   0.0005  -0.0003  -0.0004   0.0002   0.00   21.0
2019/01/11 04:56:30.000   1130760.7768  -4831298.6214   3994155.1438   1   7   0.0003   0.0006   0.0005  -0.0003  -0.0004   0.0002   0.00   21.5
2019/01/11 04:57:00.000   1130760.7767  -4831298.6213   3994155.1437   1   7   0.0003   0.0006   0.0005  -0.0003  -0.0004   0.0002   0.00   22.1
2019/01/11 04:57:30.000   1130760.7767  -4831298.6212   3994155.1436   1   7   0.0003   0.0006   0.0005  -0.0003  -0.0004   0.0002   0.00   22.6
2019/01/11 04:58:00.000   1130760.7767  -4831298.6211   3994155.1435   1   7   0.0003   0.0006   0.0005  -0.0003  -0.0004   0.0002   0.00   23.3
2019/01/11 04:58:30.000   1130760.7767  -4831298.6210   3994155.1434   1   7   0.0003   0.0006   0.0005  -0.0003  -0.0004   0.0002   0.00   23.9
2019/01/11 04:59:00.000   1130760.7766  -4831298.6210   3994155.1433   1   7   0.0003   0.0006   0.0005  -0.0003  -0.0004   0.0002   0.00   24.4
2019/01/11 04:59:30.000   1130760.7766  -4831298.6210   3994155.1433   1   7   0.0003   0.0006   0.0005  -0.0003  -0.0004   0.0002   0.00   24.8
2019/01/11 05:00:00.000   1130760.7766  -4831298.6209   3994155.1432   1   7   0.0003   0.0006   0.0005  -0.0003  -0.0004   0.0002   0.00   25.2
2019/01/11 05:00:30.000   1130760.7754  -4831298.6155   3994155.1385   2   8   0.0003   0.0006   0.0005  -0.0003  -0.0004   0.0002   0.00    1.1
2019/01/11 05:01:00.000   1130760.7754  -4831298.6154   3994155.1385   2   8   0.0003   0.0006   0.0005  -0.0003  -0.0004   0.0002   0.00    1.1
2019/01/11 05:01:30.000   1130760.7754  -4831298.6154   3994155.1385   2   8   0.0003   0.0006   0.0005  -0.0003  -0.0004   0.0002   0.00    1.2
2019/01/11 05:02:00.000   1130760.7754  -4831298.6154   3994155.1384   2   8   0.0003   0.0006   0.0005  -0.0003  -0.0004   0.0002   0.00    1.2
2019/01/11 05:02:30.000   1130760.7753  -4831298.6153   3994155.1384   2   8   0.0003   0.0006   0.0005  -0.0003  -0.0004   0.0002   0.00    1.3
2019/01/11 05:03:00.000   1130760.7753  -4831298.6153   3994155.1384   2   8   0.0003   0.0006   0.0005  -0.0003  -0.0004   0.0002   0.00    1.3
2019/01/11 05:03:30.000   1130760.7753  -4831298.6153   3994155.1383   2   8   0.0003   0.0006   0.0005  -0.0003  -0.0004   0.0002   0.00    1.4
2019/01/11 05:04:00.000   1130760.7753  -4831298.6152   3994155.1383   2   8   0.0003   0.0006   0.0005  -0.0003  -0.0004   0.0002   0.00    1.4
2019/01/11 05:04:30.000   1130760.7753  -4831298.6152   3994155.1382   2   8   0.0003   0.0006   0.0005  -0.0003  -0.0004   0.0002   0.00    1.5
2019/01/11 05:05:00.000   1130760.7753  -4831298.6152   3994155.1382   2   8   0.0003   0.0006   0.0005  -0.0003  -0.0004   0.0002   0.00    1.6
2019/01/11 05:05:30.000   1130760.7753  -4831298.6152   3994155.1381   2   8   0.0003   0.0006   0.0005  -0.0003  -0.0004   0.0002   0.00    1.6
2019/01/11 05:06:00.000   1130760.7753  -4831298.6152   3994155.1381   2   8   0.0003   0.0006   0.0005  -0.0003  -0.0004   0.0002   0.00    1.7
2019/01/11 05:06:30.000   1130760.7753  -4831298.6152   3994155.1380   2   8   0.0003   0.0006   0.0005  -0.0003  -0.0004   0.0002   0.00    1.7
2019/01/11 05:07:00.000   1130760.7753  -4831298.6153   3994155.1380   2   8   0.0003   0.0006   0.0005  -0.0003  -0.0004   0.0002   0.00    1.8
2019/01/11 05:07:30.000   1130760.7754  -4831298.6153   3994155.1379   2   8   0.0003   0.0006   0.0005  -0.0003  -0.0004   0.0002   0.00    1.8
2019/01/11 05:08:00.000   1130760.7753  -4831298.6153   3994155.1379   2   8   0.0003   0.0006   0.0005  -0.0003  -0.0004   0.0002   0.00    1.9
2019/01/11 05:08:30.000   1130760.7753  -4831298.6152   3994155.1379   2   8   0.0003   0.0006   0.0005  -0.0003  -0.0004   0.0002   0.00    1.9
2019/01/11 05:09:00.000   1130760.7753  -4831298.6152   3994155.1379   2   8   0.0003   0.0006   0.0005  -0.0003  -0.0004   0.0002   0.00    2.0
2019/01/11 05:09:30.000   1130760.7753  -4831298.6152   3994155.1378   2   8   0.0003   0.0006   0.0005  -0.0003  -0.0004   0.0002   0.00    2.0
2019/01/11 05:10:00.000   1130760.7753  -4831298.6151   3994155.1378   2   8   0.0003   0.0006   0.0005  -0.0003  -0.0004   0.0002   0.00    2.1
2019/01/11 05:10:30.000   1130760.7753  -4831298.6151   3994155.1378   2   8   0.0003   0.0006   0.0005  -0.0003  -0.0004   0.0002   0.00    2.1
2019/01/11 05:11:00.000   1130760.7753  -4831298.6151   3994155.1378   2   8   0.0003   0.0006   0.0005  -0.0003  -0.0004   0.0002   0.00    2.2
2019/01/11 05:11:30.000   1130760.7753  -4831298.6151   3994155.1377   2   8   0.0003   0.0006   0.0005  -0.0003  -0.0004   0.0002   0.00    2.2
2019/01/11 05:12:00.000   1130760.7753  -4831298.6151   3994155.1377   2   8   0.0003   0.0006   0.0005  -0.0003  -0.0004   0.0002   0.00    2.2
2019/01/11 05:12:30.000   1130760.7753  -4831298.6151   3994155.1377   2   8   0.0003   0.0006   0.0005  -0.0003  -0.0004   0.0002   0.00    2.3
2019/01/11 05:13:00.000   1130760.7753  -4831298.6151   3994155.1376   2   8   0.0003   0.0006   0.0005  -0.0003  -0.0004   0.0002   0.00    2.3
2019/01/11 05:13:30.000   1130760.7753  -4831298.6151   3994155.1376   2   8   0.0003   0.0006   0.0005  -0.0003  -0.0004   0.0002   0.00    2.3
2019/01/11 05:14:00.000   1130760.7753  -4831298.6151   3994155.1376   2   8   0.0003   0.0006   0.0005  -0.0003  -0.0004   0.0002   0.00    2.4
2019/01/11 05:14:30.000   1130760.7753  -4831298.6151   3994155.1376   2   8   0.0003   0.0006   0.0005  -0.0003  -0.0004   0.0002   0.00    2.4
2019/01/11 05:15:00.000   1130760.7752  -4831298.6151   3994155.1376   2   8   0.0003   0.0006   0.0005  -0.0003  -0.0004   0.0002   0.00    2.5
2019/01/11 05:15:30.000   1130760.7752  -4831298.6151   3994155.1376   2   8   0.0003   0.0006   0.0005  -0.0003  -0.0004   0.0002   0.00    2.5
2019/01/11 05:16:00.000   1130760.7752  -4831298.6151   3994155.1376   2   8   0.0003   0.0006   0.0005  -0.0003  -0.0004   0.0002   0.00    2.6
2019/01/11 05:16:30.000   1130760.7752  -4831298.6152   3994155.1376   2   8   0.0003   0.0006   0.0005  -0.0003  -0.0004   0.0002   0.00    2.7
2019/01/11 05:17:00.000   1130760.7752  -4831298.6152   3994155.1376   2   8   0.0003   0.0006   0.0005  -0.0003  -0.0004   0.0002   0.00    2.7
2019/01/11 05:17:30.000   1130760.7752  -4831298.6153   3994155.1376   2   8   0.0003   0.0006   0.0005  -0.0003  -0.0004   0.0002   0.00    2.8
2019/01/11 05:18:00.000   1130760.7752  -4831298.6153   3994155.1376   2   8   0.0003   0.0006   0.0005  -0.0003  -0.0004   0.0002   0.00    2.8
2019/01/11 05:18:30.000   1130760.7752  -4831298.6154   3994155.1376   2   8   0.0003   0.0006   0.0005  -0.0003  -0.0004   0.0002   0.00    2.9
2019/01/11 05:19:00.000   1130760.7752  -4831298.6154   3994155.1377   2   8   0.0003   0.0006   0.0005  -0.0003  -0.0004   0.0002   0.00    2.9
2019/01/11 05:19:30.000   1130760.7752  -4831298.6155   3994155.1377   2   8   0.0003   0.0006   0.0005  -0.0003  -0.0004   0.0002   0.00    2.9
2019/01/11 05:20:00.000   1130760.7751  -4831298.6156   3994155.1378   2   8   0.0003   0.0006   0.0005  -0.0003  -0.0004   0.0002   0.00    3.0
2019/01/11 05:20:30.000   1130760.7777  -4831298.6220   3994155.1392   1   8   0.0003   0.0006   0.0005  -0.0003  -0.0004   0.0002   0.00    3.0
2019/01/11 05:21:00.000   1130760.7776  -4831298.6220   3994155.1391   1   8   0.0003   0.0006   0.0005  -0.0003  -0.0004   0.0002   0.00    3.1
2019/01/11 05:21:30.000   1130760.7775  -4831298.6220   3994155.1390   1   8   0.0003   0.0006   0.0005  -0.0003  -0.0004   0.0002   0.00    3.2
2019/01/11 05:22:00.000   1130760.7775  -4831298.6220   3994155.1390   1   8   0.0003   0.0006   0.0005  -0.0003  -0.0004   0.0002   0.00    3.2
2019/01/11 05:22:30.000   1130760.7774  -4831298.6221   3994155.1389   1   8   0.0003   0.0006   0.0005  -0.0003  -0.0004   0.0002   0.00    3.3
2019/01/11 05:23:00.000   1130760.7773  -4831298.6221   3994155.1389   1   8   0.0003   0.0006   0.0005  -0.0003  -0.0004   0.0002   0.00    3.4
2019/01/11 05:23:30.000   1130760.7772  -4831298.6222   3994155.1389   1   8   0.0003   0.0006   0.0005  -0.0003  -0.0004   0.0002   0.00    3.4
2019/01/11 05:24:00.000   1130760.7772  -4831298.6224   3994155.1389   1   8   0.0003   0.0006   0.0005  -0.0003  -0.0004   0.0002   0.00    3.4
2019/01/11 05:24:30.000   1130760.7771  -4831298.6226   3994155.1388   1   8   0.0003   0.0006   0.0005  -0.0003  -0.0004   0.0002   0.00    3.4
