% program   : RTKPOST ver.2.4.3 b34
% inp file  : C:\Users\89231\Documents\Учеба\Диссертация\Данные\Вашингтон 10-11.01.19\10.01.19\gods0100.19o
% inp file  : C:\Users\89231\Documents\Учеба\Диссертация\Данные\Вашингтон 10-11.01.19\10.01.19\mrc10100.19o
% inp file  : C:\Users\89231\Documents\Учеба\Диссертация\Данные\Вашингтон 10-11.01.19\10.01.19\GODS00USA_R_20190100000_01D_GN.rnx
% inp file  : C:\Users\89231\Documents\Учеба\Диссертация\Данные\Вашингтон 10-11.01.19\10.01.19\igs20354.sp3
% obs start : 2019/01/10 00:00:00.0 GPST (week2035 345600.0s)
% obs end   : 2019/01/10 23:59:30.0 GPST (week2035 431970.0s)
% pos mode  : Static
% freqs     : L1+2
% solution  : Forward
% elev mask : 15.0 deg
% dynamics  : off
% tidecorr  : off
% ionos opt : Broadcast
% tropo opt : Saastamoinen
% ephemeris : Precise
% navi sys  : GPS
% amb res   : Fix and Hold
% val thres : 3.0
% antenna1  :                       ( 0.0000  0.0000  0.0083)
% antenna2  :                       ( 0.0000  0.0000  0.0083)
% ref pos   :  1092811.8211  -4877221.9770   3948968.1142
%
% (x/y/z-ecef=WGS84,Q=1:fix,2:float,3:sbas,4:dgps,5:single,6:ppp,ns=# of satellites)
%  GPST                      x-ecef(m)      y-ecef(m)      z-ecef(m)   Q  ns   sdx(m)   sdy(m)   sdz(m)  sdxy(m)  sdyz(m)  sdzx(m) age(s)  ratio
2019/01/10 00:00:00.000   1130752.3144  -4831348.5327   3994098.3502   2   8   0.4338   1.0214   0.8708  -0.3818  -0.8208   0.2584   0.00    1.1
2019/01/10 00:00:30.000   1130752.2064  -4831349.1027   3994098.9954   2   8   0.3013   0.6285   0.5213  -0.2327  -0.4851   0.1453   0.00    1.1
2019/01/10 00:01:00.000   1130752.1933  -4831349.2080   3994099.0523   2   8   0.2404   0.4348   0.3497  -0.1568  -0.3207   0.0886   0.00    1.2
2019/01/10 00:01:30.000   1130752.1448  -4831349.1248   3994098.9477   2   8   0.2032   0.3204   0.2513  -0.1098  -0.2274   0.0553   0.00    1.2
2019/01/10 00:02:00.000   1130752.1517  -4831349.1926   3994099.0018   2   8   0.1775   0.2470   0.1901  -0.0779  -0.1702   0.0337   0.00    1.0
2019/01/10 00:02:30.000   1130752.1465  -4831349.1694   3994098.9811   2   8   0.1583   0.1970   0.1496  -0.0548  -0.1328   0.0171   0.00    1.1
2019/01/10 00:03:00.000   1130752.1568  -4831349.1469   3994098.9280   2   8   0.1431   0.1615   0.1213  -0.0367  -0.1071  -0.0097   0.00    1.1
2019/01/10 00:03:30.000   1130752.1345  -4831349.1493   3994098.9127   2   8   0.1306   0.1353   0.1008  -0.0207  -0.0887  -0.0165   0.00    1.1
2019/01/10 00:04:00.000   1130752.1489  -4831349.1295   3994098.8955   2   8   0.1201   0.1154   0.0855   0.0094  -0.0750  -0.0188   0.00    1.0
2019/01/10 00:04:30.000   1130752.1766  -4831349.1224   3994098.8889   2   8   0.1110   0.0999   0.0736   0.0194  -0.0644  -0.0195   0.00    1.0
2019/01/10 00:05:00.000   1130752.1953  -4831349.1483   3994098.9151   2   8   0.1031   0.0876   0.0643   0.0231  -0.0562  -0.0195   0.00    1.0
2019/01/10 00:05:30.000   1130752.2145  -4831349.1775   3994098.9286   2   8   0.0961   0.0776   0.0567   0.0247  -0.0496  -0.0192   0.00    1.0
2019/01/10 00:06:00.000   1130752.2290  -4831349.1938   3994098.9456   2   8   0.0898   0.0694   0.0506   0.0253  -0.0442  -0.0187   0.00    1.1
2019/01/10 00:06:30.000   1130752.2406  -4831349.1934   3994098.9501   2   8   0.0842   0.0626   0.0454   0.0253  -0.0397  -0.0181   0.00    1.1
2019/01/10 00:07:00.000   1130752.2563  -4831349.1991   3994098.9520   2   8   0.0792   0.0568   0.0411   0.0250  -0.0359  -0.0175   0.00    1.1
2019/01/10 00:07:30.000   1130752.2658  -4831349.1958   3994098.9487   2   8   0.0746   0.0518   0.0375   0.0244  -0.0327  -0.0169   0.00    1.1
2019/01/10 00:08:00.000   1130752.2660  -4831349.1961   3994098.9422   2   9   0.0703   0.0476   0.0343   0.0239  -0.0300  -0.0163   0.00    1.0
2019/01/10 00:08:30.000   1130752.2711  -4831349.2023   3994098.9356   2   9   0.0664   0.0439   0.0316   0.0232  -0.0276  -0.0157   0.00    1.1
2019/01/10 00:09:00.000   1130752.2837  -4831349.1928   3994098.9281   2   9   0.0629   0.0406   0.0292   0.0225  -0.0256  -0.0151   0.00    1.1
2019/01/10 00:09:30.000   1130752.3002  -4831349.1890   3994098.9221   2   9   0.0596   0.0378   0.0271   0.0218  -0.0238  -0.0145   0.00    1.2
2019/01/10 00:10:00.000   1130752.3118  -4831349.1869   3994098.9185   2   9   0.0567   0.0353   0.0253   0.0210  -0.0222  -0.0140   0.00    1.2
2019/01/10 00:10:30.000   1130752.3245  -4831349.1878   3994098.9167   2   9   0.0539   0.0330   0.0236   0.0203  -0.0207  -0.0134   0.00    1.2
2019/01/10 00:11:00.000   1130752.3415  -4831349.1804   3994098.8999   2   9   0.0514   0.0310   0.0222   0.0196  -0.0194  -0.0130   0.00    1.2
2019/01/10 00:11:30.000   1130752.3562  -4831349.1659   3994098.8798   2   9   0.0490   0.0292   0.0208   0.0190  -0.0183  -0.0125   0.00    1.3
2019/01/10 00:12:00.000   1130752.3731  -4831349.1527   3994098.8640   2   9   0.0469   0.0275   0.0197   0.0183  -0.0173  -0.0121   0.00    1.3
2019/01/10 00:12:30.000   1130752.3928  -4831349.1370   3994098.8489   2   9   0.0448   0.0260   0.0186   0.0177  -0.0163  -0.0117   0.00    1.3
2019/01/10 00:13:00.000   1130752.4125  -4831349.1255   3994098.8360   2   9   0.0429   0.0247   0.0176   0.0171  -0.0154  -0.0113   0.00    1.3
2019/01/10 00:13:30.000   1130752.4251  -4831349.1226   3994098.8274   2   9   0.0412   0.0234   0.0167   0.0166  -0.0147  -0.0109   0.00    1.3
2019/01/10 00:14:00.000   1130752.4360  -4831349.1285   3994098.8251   2   9   0.0396   0.0223   0.0159   0.0160  -0.0139  -0.0105   0.00    1.3
2019/01/10 00:14:30.000   1130752.4428  -4831349.1278   3994098.8212   2   9   0.0380   0.0213   0.0151   0.0155  -0.0133  -0.0102   0.00    1.3
2019/01/10 00:15:00.000   1130752.4499  -4831349.1188   3994098.8103   2  10   0.0366   0.0203   0.0144   0.0151  -0.0127  -0.0099   0.00    1.0
2019/01/10 00:15:30.000   1130752.4608  -4831349.1097   3994098.7969   2  10   0.0352   0.0194   0.0138   0.0146  -0.0121  -0.0096   0.00    1.0
2019/01/10 00:16:00.000   1130752.4670  -4831349.1034   3994098.7862   2  10   0.0340   0.0186   0.0132   0.0142  -0.0116  -0.0093   0.00    1.0
2019/01/10 00:16:30.000   1130752.4766  -4831349.0937   3994098.7755   2  10   0.0328   0.0178   0.0126   0.0137  -0.0111  -0.0090   0.00    1.0
2019/01/10 00:17:00.000   1130752.4828  -4831349.0867   3994098.7657   2  10   0.0316   0.0171   0.0121   0.0133  -0.0107  -0.0088   0.00    1.1
2019/01/10 00:17:30.000   1130752.4862  -4831349.0823   3994098.7583   2  10   0.0306   0.0164   0.0116   0.0130  -0.0102  -0.0085   0.00    1.1
2019/01/10 00:18:00.000   1130752.4969  -4831349.0761   3994098.7508   2  10   0.0296   0.0158   0.0112   0.0126  -0.0098  -0.0083   0.00    1.1
2019/01/10 00:18:30.000   1130752.5012  -4831349.0720   3994098.7475   2  10   0.0287   0.0152   0.0108   0.0123  -0.0095  -0.0081   0.00    1.0
2019/01/10 00:19:00.000   1130752.5069  -4831349.0672   3994098.7463   2  10   0.0278   0.0147   0.0104   0.0119  -0.0091  -0.0079   0.00    1.0
2019/01/10 00:19:30.000   1130752.5155  -4831349.0628   3994098.7447   2  10   0.0269   0.0141   0.0100   0.0116  -0.0088  -0.0077   0.00    1.1
2019/01/10 00:20:00.000   1130752.5196  -4831349.0579   3994098.7419   2  10   0.0261   0.0137   0.0097   0.0113  -0.0085  -0.0075   0.00    1.1
2019/01/10 00:20:30.000   1130752.5247  -4831349.0489   3994098.7356   2  10   0.0254   0.0132   0.0093   0.0111  -0.0082  -0.0073   0.00    1.2
2019/01/10 00:21:00.000   1130752.5288  -4831349.0433   3994098.7324   2  10   0.0247   0.0128   0.0090   0.0108  -0.0079  -0.0072   0.00    1.3
2019/01/10 00:21:30.000   1130752.5294  -4831349.0402   3994098.7313   2  10   0.0240   0.0124   0.0087   0.0105  -0.0077  -0.0070   0.00    1.3
2019/01/10 00:22:00.000   1130752.5313  -4831349.0364   3994098.7277   2  10   0.0233   0.0120   0.0085   0.0103  -0.0074  -0.0068   0.00    1.3
2019/01/10 00:22:30.000   1130752.5350  -4831349.0329   3994098.7250   2  10   0.0227   0.0116   0.0082   0.0100  -0.0072  -0.0067   0.00    1.3
2019/01/10 00:23:00.000   1130752.5358  -4831349.0328   3994098.7245   2  10   0.0221   0.0113   0.0080   0.0098  -0.0070  -0.0065   0.00    1.3
2019/01/10 00:23:30.000   1130752.5340  -4831349.0321   3994098.7238   2  10   0.0216   0.0109   0.0077   0.0096  -0.0068  -0.0064   0.00    1.4
2019/01/10 00:24:00.000   1130752.5338  -4831349.0314   3994098.7233   2  10   0.0210   0.0106   0.0075   0.0094  -0.0066  -0.0063   0.00    1.4
2019/01/10 00:24:30.000   1130752.5297  -4831349.0320   3994098.7232   2  10   0.0205   0.0103   0.0073   0.0092  -0.0064  -0.0061   0.00    1.4
2019/01/10 00:25:00.000   1130752.5256  -4831349.0328   3994098.7217   2  10   0.0200   0.0101   0.0071   0.0090  -0.0062  -0.0060   0.00    1.4
2019/01/10 00:25:30.000   1130752.5217  -4831349.0348   3994098.7223   2  10   0.0196   0.0098   0.0069   0.0088  -0.0061  -0.0059   0.00    1.4
2019/01/10 00:26:00.000   1130752.5172  -4831349.0374   3994098.7239   2  10   0.0191   0.0095   0.0067   0.0086  -0.0059  -0.0058   0.00    1.5
2019/01/10 00:26:30.000   1130752.5130  -4831349.0382   3994098.7242   2  10   0.0187   0.0093   0.0066   0.0085  -0.0058  -0.0057   0.00    1.5
2019/01/10 00:27:00.000   1130752.5105  -4831349.0390   3994098.7238   2  10   0.0183   0.0091   0.0064   0.0083  -0.0056  -0.0056   0.00    1.5
2019/01/10 00:27:30.000   1130752.5059  -4831349.0396   3994098.7234   2  10   0.0179   0.0088   0.0062   0.0082  -0.0055  -0.0055   0.00    1.6
2019/01/10 00:28:00.000   1130752.5028  -4831349.0398   3994098.7218   2  10   0.0175   0.0086   0.0061   0.0080  -0.0053  -0.0054   0.00    1.6
2019/01/10 00:28:30.000   1130752.4999  -4831349.0401   3994098.7208   2  10   0.0172   0.0084   0.0059   0.0079  -0.0052  -0.0053   0.00    1.6
2019/01/10 00:29:00.000   1130752.4978  -4831349.0398   3994098.7191   2  10   0.0168   0.0082   0.0058   0.0077  -0.0051  -0.0052   0.00    1.6
2019/01/10 00:29:30.000   1130752.4956  -4831349.0393   3994098.7175   2  10   0.0165   0.0080   0.0057   0.0076  -0.0050  -0.0051   0.00    1.7
2019/01/10 00:30:00.000   1130752.4929  -4831349.0387   3994098.7157   2  10   0.0162   0.0078   0.0055   0.0074  -0.0048  -0.0050   0.00    1.7
2019/01/10 00:30:30.000   1130752.4899  -4831349.0393   3994098.7142   2  10   0.0158   0.0077   0.0054   0.0073  -0.0047  -0.0049   0.00    1.7
2019/01/10 00:31:00.000   1130752.4887  -4831349.0388   3994098.7131   2  10   0.0155   0.0075   0.0053   0.0072  -0.0046  -0.0048   0.00    1.8
2019/01/10 00:31:30.000   1130752.4861  -4831349.0399   3994098.7131   2  10   0.0153   0.0074   0.0052   0.0071  -0.0045  -0.0048   0.00    1.8
2019/01/10 00:32:00.000   1130752.4836  -4831349.0408   3994098.7134   2  10   0.0150   0.0072   0.0051   0.0070  -0.0044  -0.0047   0.00    1.8
2019/01/10 00:32:30.000   1130752.4816  -4831349.0414   3994098.7137   2  10   0.0147   0.0070   0.0050   0.0068  -0.0043  -0.0046   0.00    1.9
2019/01/10 00:33:00.000   1130752.4789  -4831349.0431   3994098.7150   2  10   0.0145   0.0069   0.0049   0.0067  -0.0042  -0.0045   0.00    1.9
2019/01/10 00:33:30.000   1130752.4760  -4831349.0441   3994098.7169   2  10   0.0142   0.0068   0.0048   0.0066  -0.0042  -0.0045   0.00    1.9
2019/01/10 00:34:00.000   1130752.4724  -4831349.0458   3994098.7192   2  10   0.0140   0.0066   0.0047   0.0065  -0.0041  -0.0044   0.00    2.0
2019/01/10 00:34:30.000   1130752.4701  -4831349.0476   3994098.7217   2  10   0.0137   0.0065   0.0046   0.0064  -0.0040  -0.0043   0.00    2.0
2019/01/10 00:35:00.000   1130752.4689  -4831349.0488   3994098.7243   2  10   0.0135   0.0064   0.0045   0.0063  -0.0039  -0.0043   0.00    2.0
2019/01/10 00:35:30.000   1130752.4666  -4831349.0507   3994098.7275   2  10   0.0133   0.0063   0.0044   0.0062  -0.0038  -0.0042   0.00    2.1
2019/01/10 00:36:00.000   1130752.4641  -4831349.0525   3994098.7310   2  10   0.0131   0.0062   0.0043   0.0061  -0.0038  -0.0041   0.00    2.1
2019/01/10 00:36:30.000   1130752.4624  -4831349.0540   3994098.7347   2  10   0.0129   0.0060   0.0043   0.0061  -0.0037  -0.0041   0.00    2.1
2019/01/10 00:37:00.000   1130752.4612  -4831349.0551   3994098.7380   2  10   0.0127   0.0059   0.0042   0.0060  -0.0036  -0.0040   0.00    2.2
2019/01/10 00:37:30.000   1130752.4604  -4831349.0566   3994098.7416   2  10   0.0125   0.0058   0.0041   0.0059  -0.0036  -0.0040   0.00    2.2
2019/01/10 00:38:00.000   1130752.4598  -4831349.0573   3994098.7449   2  10   0.0123   0.0057   0.0040   0.0058  -0.0035  -0.0039   0.00    2.2
2019/01/10 00:38:30.000   1130752.4599  -4831349.0576   3994098.7480   2  10   0.0121   0.0056   0.0040   0.0057  -0.0034  -0.0039   0.00    2.3
2019/01/10 00:39:00.000   1130752.4605  -4831349.0573   3994098.7507   2  10   0.0120   0.0055   0.0039   0.0057  -0.0034  -0.0038   0.00    2.3
2019/01/10 00:39:30.000   1130752.4596  -4831349.0574   3994098.7539   2  10   0.0118   0.0054   0.0038   0.0056  -0.0033  -0.0038   0.00    2.3
2019/01/10 00:40:00.000   1130752.4586  -4831349.0567   3994098.7562   2  10   0.0116   0.0054   0.0038   0.0055  -0.0033  -0.0037   0.00    2.4
2019/01/10 00:40:30.000   1130752.4565  -4831349.0564   3994098.7584   2  10   0.0115   0.0053   0.0037   0.0054  -0.0032  -0.0037   0.00    2.4
2019/01/10 00:41:00.000   1130752.4556  -4831349.0556   3994098.7606   2  10   0.0113   0.0052   0.0037   0.0054  -0.0032  -0.0036   0.00    2.4
2019/01/10 00:41:30.000   1130752.4529  -4831349.0552   3994098.7630   2  10   0.0112   0.0051   0.0036   0.0053  -0.0031  -0.0036   0.00    2.5
2019/01/10 00:42:00.000   1130752.4506  -4831349.0544   3994098.7651   2  10   0.0110   0.0050   0.0035   0.0052  -0.0030  -0.0035   0.00    2.5
2019/01/10 00:42:30.000   1130752.4474  -4831349.0541   3994098.7674   2  10   0.0109   0.0049   0.0035   0.0052  -0.0030  -0.0035   0.00    2.6
2019/01/10 00:43:00.000   1130752.4441  -4831349.0539   3994098.7697   2  10   0.0108   0.0049   0.0034   0.0051  -0.0030  -0.0034   0.00    2.6
2019/01/10 00:43:30.000   1130752.4407  -4831349.0538   3994098.7717   2  10   0.0106   0.0048   0.0034   0.0051  -0.0029  -0.0034   0.00    2.7
2019/01/10 00:44:00.000   1130752.4373  -4831349.0540   3994098.7741   2  10   0.0105   0.0047   0.0033   0.0050  -0.0029  -0.0034   0.00    2.7
2019/01/10 00:44:30.000   1130752.4343  -4831349.0542   3994098.7763   2  10   0.0104   0.0047   0.0033   0.0049  -0.0028  -0.0033   0.00    2.8
2019/01/10 00:45:00.000   1130752.4314  -4831349.0544   3994098.7787   2  10   0.0102   0.0046   0.0032   0.0049  -0.0028  -0.0033   0.00    2.8
2019/01/10 00:45:30.000   1130752.4277  -4831349.0547   3994098.7814   2  10   0.0101   0.0045   0.0032   0.0048  -0.0027  -0.0032   0.00    2.9
2019/01/10 00:46:00.000   1130752.4241  -4831349.0550   3994098.7841   2  10   0.0100   0.0045   0.0032   0.0048  -0.0027  -0.0032   0.00    3.0
2019/01/10 00:46:30.000   1130752.2262  -4831349.0975   3994098.9061   1  10   0.0006   0.0011   0.0008  -0.0005  -0.0008   0.0003   0.00    3.0
2019/01/10 00:47:00.000   1130752.2262  -4831349.0975   3994098.9059   1  10   0.0006   0.0011   0.0008  -0.0005  -0.0008   0.0003   0.00    3.1
2019/01/10 00:47:30.000   1130752.2263  -4831349.0975   3994098.9057   1  10   0.0006   0.0011   0.0008  -0.0005  -0.0008   0.0003   0.00    3.2
2019/01/10 00:48:00.000   1130752.2263  -4831349.0976   3994098.9057   1  10   0.0006   0.0011   0.0008  -0.0005  -0.0008   0.0003   0.00    3.2
2019/01/10 00:48:30.000   1130752.2264  -4831349.0977   3994098.9058   1  10   0.0006   0.0011   0.0008  -0.0005  -0.0008   0.0003   0.00    3.3
2019/01/10 00:49:00.000   1130752.2265  -4831349.0977   3994098.9059   1  10   0.0006   0.0011   0.0008  -0.0005  -0.0008   0.0003   0.00    3.4
2019/01/10 00:49:30.000   1130752.2265  -4831349.0979   3994098.9061   1  10   0.0006   0.0011   0.0008  -0.0005  -0.0008   0.0003   0.00    3.4
2019/01/10 00:50:00.000   1130752.2266  -4831349.0981   3994098.9063   1  10   0.0006   0.0011   0.0007  -0.0005  -0.0008   0.0003   0.00    3.5
2019/01/10 00:50:30.000   1130752.2267  -4831349.0983   3994098.9065   1  10   0.0006   0.0011   0.0007  -0.0005  -0.0008   0.0003   0.00    3.6
2019/01/10 00:51:00.000   1130752.2267  -4831349.0986   3994098.9068   1  10   0.0005   0.0011   0.0007  -0.0005  -0.0007   0.0003   0.00    3.7
2019/01/10 00:51:30.000   1130752.2268  -4831349.0989   3994098.9070   1  10   0.0005   0.0011   0.0007  -0.0005  -0.0007   0.0003   0.00    4.5
2019/01/10 00:52:00.000   1130752.2268  -4831349.0991   3994098.9072   1  10   0.0005   0.0011   0.0007  -0.0005  -0.0007   0.0003   0.00    5.1
2019/01/10 00:52:30.000   1130752.2268  -4831349.0993   3994098.9073   1  10   0.0005   0.0011   0.0007  -0.0005  -0.0007   0.0003   0.00    5.8
2019/01/10 00:53:00.000   1130752.2267  -4831349.0994   3994098.9074   1  10   0.0005   0.0011   0.0007  -0.0005  -0.0007   0.0003   0.00    6.4
2019/01/10 00:53:30.000   1130752.2329  -4831349.0882   3994098.8823   2  11   0.0012   0.0022   0.0016  -0.0011  -0.0015   0.0008   0.00    1.0
2019/01/10 00:54:00.000   1130752.2328  -4831349.0884   3994098.8825   2  11   0.0012   0.0022   0.0016  -0.0011  -0.0015   0.0008   0.00    1.1
2019/01/10 00:54:30.000   1130752.2328  -4831349.0886   3994098.8829   2  11   0.0012   0.0022   0.0016  -0.0010  -0.0014   0.0008   0.00    1.1
2019/01/10 00:55:00.000   1130752.2328  -4831349.0888   3994098.8833   2  11   0.0012   0.0022   0.0016  -0.0010  -0.0014   0.0008   0.00    1.1
2019/01/10 00:55:30.000   1130752.2328  -4831349.0891   3994098.8836   2  11   0.0012   0.0021   0.0016  -0.0010  -0.0014   0.0008   0.00    1.1
2019/01/10 00:56:00.000   1130752.2327  -4831349.0892   3994098.8840   2  11   0.0012   0.0021   0.0016  -0.0010  -0.0014   0.0008   0.00    1.2
2019/01/10 00:56:30.000   1130752.2326  -4831349.0893   3994098.8842   2  11   0.0012   0.0021   0.0016  -0.0010  -0.0014   0.0008   0.00    1.2
2019/01/10 00:57:00.000   1130752.2325  -4831349.0893   3994098.8845   2  11   0.0012   0.0021   0.0016  -0.0010  -0.0014   0.0007   0.00    1.2
2019/01/10 00:57:30.000   1130752.2324  -4831349.0895   3994098.8849   2  11   0.0011   0.0021   0.0016  -0.0010  -0.0014   0.0007   0.00    1.3
2019/01/10 00:58:00.000   1130752.2324  -4831349.0898   3994098.8854   2  10   0.0011   0.0021   0.0015  -0.0010  -0.0014   0.0007   0.00    1.5
2019/01/10 00:58:30.000   1130752.2323  -4831349.0900   3994098.8857   2  10   0.0011   0.0021   0.0015  -0.0010  -0.0014   0.0007   0.00    1.6
2019/01/10 00:59:00.000   1130752.2323  -4831349.0902   3994098.8861   2  10   0.0011   0.0020   0.0015  -0.0010  -0.0014   0.0007   0.00    1.7
2019/01/10 00:59:30.000   1130752.2323  -4831349.0904   3994098.8866   2  10   0.0011   0.0020   0.0015  -0.0010  -0.0013   0.0007   0.00    1.8
2019/01/10 01:00:00.000   1130752.2324  -4831349.0905   3994098.8870   2  11   0.0011   0.0020   0.0015  -0.0010  -0.0013   0.0007   0.00    1.1
2019/01/10 01:00:30.000   1130752.2324  -4831349.0906   3994098.8874   2  11   0.0011   0.0020   0.0015  -0.0010  -0.0013   0.0007   0.00    1.1
2019/01/10 01:01:00.000   1130752.2324  -4831349.0906   3994098.8876   2  11   0.0011   0.0020   0.0015  -0.0010  -0.0013   0.0007   0.00    1.2
2019/01/10 01:01:30.000   1130752.2324  -4831349.0906   3994098.8879   2  11   0.0011   0.0020   0.0015  -0.0009  -0.0013   0.0007   0.00    1.3
2019/01/10 01:02:00.000   1130752.2324  -4831349.0908   3994098.8881   2  10   0.0011   0.0020   0.0015  -0.0009  -0.0013   0.0007   0.00    1.4
2019/01/10 01:02:30.000   1130752.2323  -4831349.0908   3994098.8884   2  10   0.0011   0.0020   0.0015  -0.0009  -0.0013   0.0007   0.00    1.5
2019/01/10 01:03:00.000   1130752.2322  -4831349.0909   3994098.8886   2  10   0.0011   0.0019   0.0015  -0.0009  -0.0013   0.0007   0.00    1.6
2019/01/10 01:03:30.000   1130752.2322  -4831349.0909   3994098.8888   2  10   0.0011   0.0019   0.0015  -0.0009  -0.0013   0.0006   0.00    1.7
2019/01/10 01:04:00.000   1130752.2322  -4831349.0909   3994098.8891   2  10   0.0011   0.0019   0.0015  -0.0009  -0.0013   0.0006   0.00    1.8
2019/01/10 01:04:30.000   1130752.2322  -4831349.0908   3994098.8892   2  10   0.0011   0.0019   0.0015  -0.0009  -0.0013   0.0006   0.00    2.0
2019/01/10 01:05:00.000   1130752.2322  -4831349.0907   3994098.8894   2  10   0.0011   0.0019   0.0015  -0.0009  -0.0013   0.0006   0.00    2.1
2019/01/10 01:05:30.000   1130752.2323  -4831349.0907   3994098.8897   2  10   0.0011   0.0019   0.0014  -0.0009  -0.0012   0.0006   0.00    2.3
2019/01/10 01:06:00.000   1130752.2324  -4831349.0909   3994098.8900   2  10   0.0011   0.0019   0.0014  -0.0009  -0.0012   0.0006   0.00    2.4
2019/01/10 01:06:30.000   1130752.2324  -4831349.0911   3994098.8904   2  10   0.0011   0.0019   0.0014  -0.0009  -0.0012   0.0006   0.00    2.5
2019/01/10 01:07:00.000   1130752.2325  -4831349.0912   3994098.8907   2  10   0.0011   0.0019   0.0014  -0.0009  -0.0012   0.0006   0.00    2.7
2019/01/10 01:07:30.000   1130752.2325  -4831349.0913   3994098.8910   2  10   0.0011   0.0019   0.0014  -0.0009  -0.0012   0.0006   0.00    2.9
2019/01/10 01:08:00.000   1130752.2242  -4831349.0920   3994098.8971   1  10   0.0005   0.0012   0.0007  -0.0004  -0.0008   0.0003   0.00    3.0
2019/01/10 01:08:30.000   1130752.2243  -4831349.0920   3994098.8970   1  10   0.0005   0.0011   0.0007  -0.0004  -0.0008   0.0003   0.00    3.2
2019/01/10 01:09:00.000   1130752.2243  -4831349.0920   3994098.8969   1  10   0.0005   0.0011   0.0007  -0.0004  -0.0008   0.0003   0.00    3.4
2019/01/10 01:09:30.000   1130752.2243  -4831349.0920   3994098.8968   1  10   0.0005   0.0011   0.0007  -0.0004  -0.0008   0.0003   0.00    3.5
2019/01/10 01:10:00.000   1130752.2244  -4831349.0919   3994098.8966   1  10   0.0005   0.0011   0.0007  -0.0004  -0.0008   0.0003   0.00    3.7
2019/01/10 01:10:30.000   1130752.2245  -4831349.0919   3994098.8965   1  10   0.0005   0.0011   0.0007  -0.0004  -0.0008   0.0003   0.00    3.8
2019/01/10 01:11:00.000   1130752.2246  -4831349.0920   3994098.8964   1  10   0.0005   0.0011   0.0007  -0.0004  -0.0007   0.0003   0.00    4.0
2019/01/10 01:11:30.000   1130752.2247  -4831349.0921   3994098.8964   1  10   0.0005   0.0011   0.0007  -0.0004  -0.0007   0.0003   0.00    4.1
2019/01/10 01:12:00.000   1130752.2248  -4831349.0923   3994098.8965   1  10   0.0005   0.0011   0.0007  -0.0004  -0.0007   0.0003   0.00    4.2
2019/01/10 01:12:30.000   1130752.2250  -4831349.0924   3994098.8966   1  10   0.0005   0.0011   0.0007  -0.0004  -0.0007   0.0003   0.00    4.3
2019/01/10 01:13:00.000   1130752.2251  -4831349.0925   3994098.8967   1  10   0.0005   0.0011   0.0007  -0.0004  -0.0007   0.0003   0.00    7.1
2019/01/10 01:13:30.000   1130752.2253  -4831349.0927   3994098.8969   1  10   0.0005   0.0011   0.0007  -0.0004  -0.0007   0.0003   0.00    8.2
2019/01/10 01:14:00.000   1130752.2255  -4831349.0928   3994098.8970   1  10   0.0005   0.0011   0.0007  -0.0004  -0.0007   0.0003   0.00    9.2
2019/01/10 01:14:30.000   1130752.2258  -4831349.0930   3994098.8971   1  10   0.0005   0.0011   0.0007  -0.0004  -0.0007   0.0003   0.00   10.3
2019/01/10 01:15:00.000   1130752.2260  -4831349.0931   3994098.8972   1  10   0.0005   0.0011   0.0007  -0.0004  -0.0007   0.0003   0.00   11.3
2019/01/10 01:15:30.000   1130752.2262  -4831349.0932   3994098.8974   1  10   0.0005   0.0011   0.0007  -0.0004  -0.0007   0.0003   0.00   12.3
2019/01/10 01:16:00.000   1130752.2264  -4831349.0932   3994098.8974   1  10   0.0005   0.0011   0.0007  -0.0003  -0.0007   0.0003   0.00   13.4
2019/01/10 01:16:30.000   1130752.2265  -4831349.0932   3994098.8974   1  10   0.0005   0.0011   0.0007  -0.0003  -0.0007   0.0003   0.00   14.5
2019/01/10 01:17:00.000   1130752.2266  -4831349.0932   3994098.8974   1  10   0.0005   0.0011   0.0007  -0.0003  -0.0007   0.0003   0.00   15.5
2019/01/10 01:17:30.000   1130752.2267  -4831349.0933   3994098.8974   1  10   0.0005   0.0011   0.0007  -0.0003  -0.0007   0.0003   0.00   16.6
2019/01/10 01:18:00.000   1130752.2269  -4831349.0933   3994098.8974   1  10   0.0005   0.0011   0.0007  -0.0003  -0.0007   0.0003   0.00   17.6
2019/01/10 01:18:30.000   1130752.2270  -4831349.0933   3994098.8974   1  10   0.0005   0.0011   0.0007  -0.0003  -0.0007   0.0003   0.00   18.7
2019/01/10 01:19:00.000   1130752.2272  -4831349.0935   3994098.8974   1  10   0.0005   0.0011   0.0007  -0.0003  -0.0007   0.0003   0.00   19.5
2019/01/10 01:19:30.000   1130752.2273  -4831349.0938   3994098.8974   1  10   0.0005   0.0011   0.0007  -0.0003  -0.0007   0.0003   0.00   20.3
2019/01/10 01:20:00.000   1130752.2275  -4831349.0941   3994098.8975   1  10   0.0005   0.0011   0.0007  -0.0003  -0.0007   0.0003   0.00   21.0
2019/01/10 01:20:30.000   1130752.2276  -4831349.0944   3994098.8975   1  10   0.0005   0.0011   0.0007  -0.0003  -0.0007   0.0003   0.00   21.6
2019/01/10 01:21:00.000   1130752.2277  -4831349.0946   3994098.8975   1  10   0.0005   0.0011   0.0007  -0.0003  -0.0007   0.0003   0.00   22.4
2019/01/10 01:21:30.000   1130752.2279  -4831349.0948   3994098.8977   1  10   0.0005   0.0010   0.0007  -0.0003  -0.0007   0.0003   0.00   23.3
2019/01/10 01:22:00.000   1130752.2280  -4831349.0949   3994098.8978   1  10   0.0005   0.0010   0.0007  -0.0003  -0.0007   0.0003   0.00   24.6
2019/01/10 01:22:30.000   1130752.2281  -4831349.0950   3994098.8979   1  10   0.0005   0.0010   0.0007  -0.0003  -0.0007   0.0003   0.00   25.8
2019/01/10 01:23:00.000   1130752.2282  -4831349.0951   3994098.8981   1  10   0.0005   0.0010   0.0007  -0.0003  -0.0007   0.0003   0.00   27.0
2019/01/10 01:23:30.000   1130752.2283  -4831349.0953   3994098.8982   1  10   0.0005   0.0010   0.0007  -0.0003  -0.0007   0.0003   0.00   28.5
2019/01/10 01:24:00.000   1130752.2284  -4831349.0953   3994098.8983   1  10   0.0005   0.0010   0.0007  -0.0003  -0.0007   0.0003   0.00   29.8
2019/01/10 01:24:30.000   1130752.2284  -4831349.0955   3994098.8984   1  10   0.0005   0.0010   0.0007  -0.0003  -0.0007   0.0003   0.00   30.8
2019/01/10 01:25:00.000   1130752.2285  -4831349.0957   3994098.8984   1  10   0.0005   0.0010   0.0007  -0.0003  -0.0007   0.0003   0.00   31.4
2019/01/10 01:25:30.000   1130752.2286  -4831349.0959   3994098.8984   1  10   0.0005   0.0010   0.0007  -0.0003  -0.0007   0.0003   0.00   31.9
2019/01/10 01:26:00.000   1130752.2287  -4831349.0961   3994098.8985   1  10   0.0005   0.0010   0.0007  -0.0003  -0.0007   0.0003   0.00   32.3
2019/01/10 01:26:30.000   1130752.2287  -4831349.0964   3994098.8985   1  10   0.0005   0.0010   0.0007  -0.0003  -0.0007   0.0003   0.00   32.3
2019/01/10 01:27:00.000   1130752.2288  -4831349.0967   3994098.8986   1  10   0.0005   0.0010   0.0007  -0.0003  -0.0007   0.0003   0.00   32.2
2019/01/10 01:27:30.000   1130752.2289  -4831349.0971   3994098.8987   1  10   0.0005   0.0010   0.0007  -0.0003  -0.0007   0.0003   0.00   31.9
2019/01/10 01:28:00.000   1130752.2290  -4831349.0975   3994098.8987   1  10   0.0005   0.0010   0.0007  -0.0003  -0.0007   0.0003   0.00   31.6
2019/01/10 01:28:30.000   1130752.2291  -4831349.0978   3994098.8988   1  10   0.0005   0.0010   0.0007  -0.0003  -0.0007   0.0003   0.00   31.4
2019/01/10 01:29:00.000   1130752.2292  -4831349.0981   3994098.8989   1  10   0.0005   0.0010   0.0007  -0.0003  -0.0007   0.0003   0.00   31.3
2019/01/10 01:29:30.000   1130752.2292  -4831349.0985   3994098.8991   1  10   0.0005   0.0010   0.0007  -0.0003  -0.0007   0.0003   0.00   31.1
2019/01/10 01:30:00.000   1130752.2294  -4831349.0989   3994098.8993   1  10   0.0005   0.0010   0.0007  -0.0003  -0.0007   0.0003   0.00   30.8
2019/01/10 01:30:30.000   1130752.2295  -4831349.0993   3994098.8996   1  10   0.0004   0.0010   0.0007  -0.0003  -0.0007   0.0003   0.00   30.1
2019/01/10 01:31:00.000   1130752.2296  -4831349.0997   3994098.8998   1  10   0.0004   0.0010   0.0007  -0.0003  -0.0007   0.0003   0.00   29.5
2019/01/10 01:31:30.000   1130752.2298  -4831349.1001   3994098.9000   1  10   0.0004   0.0010   0.0007  -0.0003  -0.0007   0.0003   0.00   29.2
2019/01/10 01:32:00.000   1130752.2299  -4831349.1006   3994098.9003   1  10   0.0004   0.0010   0.0007  -0.0003  -0.0006   0.0003   0.00   28.6
2019/01/10 01:32:30.000   1130752.2301  -4831349.1010   3994098.9005   1  10   0.0004   0.0010   0.0006  -0.0003  -0.0006   0.0003   0.00   27.9
2019/01/10 01:33:00.000   1130752.2303  -4831349.1015   3994098.9006   1  10   0.0004   0.0010   0.0006  -0.0003  -0.0006   0.0003   0.00   27.3
2019/01/10 01:33:30.000   1130752.2304  -4831349.1018   3994098.9007   1  10   0.0004   0.0010   0.0006  -0.0003  -0.0006   0.0002   0.00   26.7
2019/01/10 01:34:00.000   1130752.2306  -4831349.1021   3994098.9008   1  10   0.0004   0.0010   0.0006  -0.0003  -0.0006   0.0002   0.00   26.1
2019/01/10 01:34:30.000   1130752.2307  -4831349.1024   3994098.9009   1  10   0.0004   0.0009   0.0006  -0.0003  -0.0006   0.0002   0.00   25.8
2019/01/10 01:35:00.000   1130752.2308  -4831349.1026   3994098.9010   1  10   0.0004   0.0009   0.0006  -0.0003  -0.0006   0.0002   0.00   25.4
2019/01/10 01:35:30.000   1130752.2309  -4831349.1028   3994098.9011   1  10   0.0004   0.0009   0.0006  -0.0003  -0.0006   0.0002   0.00   25.1
2019/01/10 01:36:00.000   1130752.2310  -4831349.1029   3994098.9012   1  10   0.0004   0.0009   0.0006  -0.0003  -0.0006   0.0002   0.00   24.9
2019/01/10 01:36:30.000   1130752.2311  -4831349.1029   3994098.9012   1  10   0.0004   0.0009   0.0006  -0.0003  -0.0006   0.0002   0.00   24.9
2019/01/10 01:37:00.000   1130752.2311  -4831349.1028   3994098.9012   1  10   0.0004   0.0009   0.0006  -0.0003  -0.0006   0.0002   0.00   25.0
2019/01/10 01:37:30.000   1130752.2311  -4831349.1027   3994098.9013   1  10   0.0004   0.0009   0.0006  -0.0003  -0.0006   0.0002   0.00   25.0
2019/01/10 01:38:00.000   1130752.2312  -4831349.1025   3994098.9013   1  10   0.0004   0.0009   0.0006  -0.0003  -0.0006   0.0002   0.00   25.2
2019/01/10 01:38:30.000   1130752.2311  -4831349.1024   3994098.9013   1  10   0.0004   0.0009   0.0006  -0.0003  -0.0006   0.0002   0.00   25.6
2019/01/10 01:39:00.000   1130752.2307  -4831349.1020   3994098.9006   1   9   0.0004   0.0009   0.0006  -0.0003  -0.0006   0.0003   0.00   26.8
2019/01/10 01:39:30.000   1130752.2305  -4831349.1014   3994098.9005   1   9   0.0004   0.0009   0.0006  -0.0003  -0.0006   0.0003   0.00   28.1
2019/01/10 01:40:00.000   1130752.2304  -4831349.1007   3994098.9003   1   9   0.0004   0.0009   0.0006  -0.0003  -0.0006   0.0003   0.00   29.7
2019/01/10 01:40:30.000   1130752.2302  -4831349.1000   3994098.9001   1   9   0.0004   0.0009   0.0006  -0.0003  -0.0006   0.0003   0.00   31.6
2019/01/10 01:41:00.000   1130752.2300  -4831349.0993   3994098.8998   1   9   0.0004   0.0009   0.0006  -0.0003  -0.0006   0.0003   0.00   33.7
2019/01/10 01:41:30.000   1130752.2297  -4831349.0986   3994098.8995   1   9   0.0004   0.0009   0.0006  -0.0003  -0.0006   0.0003   0.00   36.0
2019/01/10 01:42:00.000   1130752.2295  -4831349.0978   3994098.8992   1   9   0.0004   0.0009   0.0006  -0.0003  -0.0006   0.0003   0.00   38.4
2019/01/10 01:42:30.000   1130752.2293  -4831349.0971   3994098.8990   1   9   0.0004   0.0009   0.0006  -0.0003  -0.0006   0.0003   0.00   40.8
2019/01/10 01:43:00.000   1130752.2290  -4831349.0963   3994098.8987   1   9   0.0004   0.0009   0.0006  -0.0003  -0.0006   0.0002   0.00   43.1
2019/01/10 01:43:30.000   1130752.2288  -4831349.0955   3994098.8984   1   9   0.0004   0.0009   0.0006  -0.0003  -0.0006   0.0002   0.00   45.8
2019/01/10 01:44:00.000   1130752.2286  -4831349.0948   3994098.8981   1   9   0.0004   0.0009   0.0006  -0.0003  -0.0006   0.0002   0.00   48.3
2019/01/10 01:44:30.000   1130752.2284  -4831349.0941   3994098.8977   1   9   0.0004   0.0009   0.0006  -0.0003  -0.0006   0.0002   0.00   51.2
2019/01/10 01:45:00.000   1130752.2281  -4831349.0934   3994098.8975   1   9   0.0004   0.0009   0.0006  -0.0003  -0.0006   0.0002   0.00   54.1
2019/01/10 01:45:30.000   1130752.2279  -4831349.0929   3994098.8973   1   9   0.0004   0.0009   0.0006  -0.0003  -0.0006   0.0002   0.00   57.2
2019/01/10 01:46:00.000   1130752.2277  -4831349.0925   3994098.8971   1   9   0.0004   0.0009   0.0006  -0.0003  -0.0006   0.0002   0.00   60.5
2019/01/10 01:46:30.000   1130752.2275  -4831349.0922   3994098.8971   1   9   0.0004   0.0009   0.0006  -0.0003  -0.0006   0.0002   0.00   64.1
2019/01/10 01:47:00.000   1130752.2273  -4831349.0918   3994098.8970   1   9   0.0004   0.0009   0.0006  -0.0003  -0.0006   0.0002   0.00   67.9
2019/01/10 01:47:30.000   1130752.2271  -4831349.0915   3994098.8970   1   9   0.0004   0.0009   0.0006  -0.0003  -0.0006   0.0002   0.00   72.3
2019/01/10 01:48:00.000   1130752.2269  -4831349.0912   3994098.8969   1   9   0.0004   0.0009   0.0006  -0.0003  -0.0006   0.0002   0.00   76.5
2019/01/10 01:48:30.000   1130752.2267  -4831349.0908   3994098.8968   1   9   0.0004   0.0009   0.0006  -0.0003  -0.0006   0.0002   0.00   80.6
2019/01/10 01:49:00.000   1130752.2265  -4831349.0905   3994098.8967   1   9   0.0004   0.0008   0.0006  -0.0003  -0.0006   0.0002   0.00   85.2
2019/01/10 01:49:30.000   1130752.2263  -4831349.0900   3994098.8966   1   9   0.0004   0.0008   0.0006  -0.0003  -0.0006   0.0002   0.00   89.5
2019/01/10 01:50:00.000   1130752.2262  -4831349.0897   3994098.8966   1   9   0.0004   0.0008   0.0006  -0.0003  -0.0006   0.0002   0.00   93.4
2019/01/10 01:50:30.000   1130752.2259  -4831349.0894   3994098.8964   1   9   0.0004   0.0008   0.0006  -0.0003  -0.0006   0.0002   0.00   96.9
2019/01/10 01:51:00.000   1130752.2257  -4831349.0890   3994098.8964   1   9   0.0004   0.0008   0.0006  -0.0003  -0.0006   0.0002   0.00   99.3
2019/01/10 01:51:30.000   1130752.2256  -4831349.0888   3994098.8963   1   9   0.0004   0.0008   0.0006  -0.0003  -0.0006   0.0002   0.00  101.7
2019/01/10 01:52:00.000   1130752.2254  -4831349.0886   3994098.8963   1   9   0.0004   0.0008   0.0006  -0.0003  -0.0006   0.0002   0.00  104.1
2019/01/10 01:52:30.000   1130752.2253  -4831349.0884   3994098.8964   1   9   0.0004   0.0008   0.0006  -0.0003  -0.0006   0.0002   0.00  107.0
2019/01/10 01:53:00.000   1130752.2252  -4831349.0882   3994098.8964   1   9   0.0004   0.0008   0.0006  -0.0003  -0.0006   0.0002   0.00  110.3
2019/01/10 01:53:30.000   1130752.2251  -4831349.0879   3994098.8964   1   9   0.0004   0.0008   0.0006  -0.0003  -0.0006   0.0002   0.00  113.4
2019/01/10 01:54:00.000   1130752.2249  -4831349.0877   3994098.8965   1   9   0.0004   0.0008   0.0006  -0.0003  -0.0006   0.0002   0.00  116.6
2019/01/10 01:54:30.000   1130752.2248  -4831349.0874   3994098.8965   1   9   0.0004   0.0008   0.0006  -0.0003  -0.0006   0.0002   0.00  119.1
2019/01/10 01:55:00.000   1130752.2247  -4831349.0871   3994098.8964   1   9   0.0004   0.0008   0.0006  -0.0003  -0.0006   0.0002   0.00  121.0
2019/01/10 01:55:30.000   1130752.2245  -4831349.0868   3994098.8963   1   9   0.0004   0.0008   0.0006  -0.0003  -0.0006   0.0002   0.00  122.5
2019/01/10 01:56:00.000   1130752.2243  -4831349.0865   3994098.8963   1   9   0.0004   0.0008   0.0006  -0.0003  -0.0006   0.0002   0.00  122.8
2019/01/10 01:56:30.000   1130752.2241  -4831349.0862   3994098.8962   1   9   0.0004   0.0008   0.0006  -0.0003  -0.0006   0.0002   0.00  124.3
2019/01/10 01:57:00.000   1130752.2239  -4831349.0859   3994098.8962   1   9   0.0004   0.0008   0.0006  -0.0003  -0.0006   0.0002   0.00  125.1
2019/01/10 01:57:30.000   1130752.2238  -4831349.0855   3994098.8961   1   9   0.0004   0.0008   0.0006  -0.0003  -0.0006   0.0002   0.00  124.8
2019/01/10 01:58:00.000   1130752.2236  -4831349.0851   3994098.8960   1   9   0.0004   0.0008   0.0006  -0.0003  -0.0006   0.0002   0.00  124.2
2019/01/10 01:58:30.000   1130752.2235  -4831349.0848   3994098.8959   1   9   0.0004   0.0008   0.0006  -0.0003  -0.0005   0.0002   0.00  124.2
2019/01/10 01:59:00.000   1130752.2233  -4831349.0846   3994098.8959   1   9   0.0004   0.0008   0.0006  -0.0003  -0.0005   0.0002   0.00  124.4
2019/01/10 01:59:30.000   1130752.2232  -4831349.0844   3994098.8958   1   9   0.0004   0.0008   0.0006  -0.0003  -0.0005   0.0002   0.00  125.6
2019/01/10 02:00:00.000   1130752.2230  -4831349.0843   3994098.8958   1   9   0.0004   0.0008   0.0006  -0.0003  -0.0005   0.0002   0.00  127.0
2019/01/10 02:00:30.000   1130752.2229  -4831349.0841   3994098.8958   1   9   0.0004   0.0008   0.0006  -0.0003  -0.0005   0.0002   0.00  128.1
2019/01/10 02:01:00.000   1130752.2227  -4831349.0838   3994098.8957   1   9   0.0004   0.0008   0.0006  -0.0003  -0.0005   0.0002   0.00  128.8
2019/01/10 02:01:30.000   1130752.2225  -4831349.0836   3994098.8957   1   9   0.0004   0.0008   0.0006  -0.0003  -0.0005   0.0002   0.00  130.4
2019/01/10 02:02:00.000   1130752.2224  -4831349.0828   3994098.8955   1   8   0.0004   0.0008   0.0006  -0.0002  -0.0005   0.0002   0.00  141.5
2019/01/10 02:02:30.000   1130752.2222  -4831349.0826   3994098.8955   1   8   0.0004   0.0008   0.0006  -0.0002  -0.0005   0.0002   0.00  142.7
2019/01/10 02:03:00.000   1130752.2220  -4831349.0824   3994098.8954   1   8   0.0004   0.0008   0.0006  -0.0002  -0.0005   0.0002   0.00  143.3
2019/01/10 02:03:30.000   1130752.2229  -4831349.0850   3994098.8963   2   9   0.0004   0.0008   0.0006  -0.0003  -0.0006   0.0002   0.00    1.3
2019/01/10 02:04:00.000   1130752.2227  -4831349.0849   3994098.8962   2   9   0.0004   0.0008   0.0006  -0.0003  -0.0006   0.0002   0.00    1.6
2019/01/10 02:04:30.000   1130752.2225  -4831349.0847   3994098.8961   2   9   0.0004   0.0008   0.0006  -0.0003  -0.0006   0.0002   0.00    1.9
2019/01/10 02:05:00.000   1130752.2224  -4831349.0846   3994098.8960   2   8   0.0004   0.0008   0.0006  -0.0003  -0.0006   0.0002   0.00    2.2
2019/01/10 02:05:30.000   1130752.2222  -4831349.0845   3994098.8960   2   9   0.0004   0.0008   0.0006  -0.0003  -0.0006   0.0002   0.00    2.4
2019/01/10 02:06:00.000   1130752.2221  -4831349.0844   3994098.8959   2   9   0.0004   0.0008   0.0006  -0.0003  -0.0006   0.0002   0.00    2.7
2019/01/10 02:06:30.000   1130752.2220  -4831349.0844   3994098.8959   2   9   0.0004   0.0008   0.0006  -0.0003  -0.0006   0.0002   0.00    2.5
2019/01/10 02:07:00.000   1130752.2198  -4831349.0810   3994098.8948   1   9   0.0004   0.0008   0.0006  -0.0002  -0.0005   0.0002   0.00    3.2
2019/01/10 02:07:30.000   1130752.2198  -4831349.0812   3994098.8953   1   8   0.0004   0.0008   0.0006  -0.0002  -0.0005   0.0002   0.00    3.7
2019/01/10 02:08:00.000   1130752.2197  -4831349.0812   3994098.8953   1   8   0.0004   0.0008   0.0006  -0.0002  -0.0005   0.0002   0.00    4.1
2019/01/10 02:08:30.000   1130752.2195  -4831349.0813   3994098.8953   1   8   0.0004   0.0008   0.0006  -0.0002  -0.0005   0.0002   0.00    4.5
2019/01/10 02:09:00.000   1130752.2194  -4831349.0813   3994098.8953   1   8   0.0004   0.0008   0.0006  -0.0002  -0.0005   0.0002   0.00    4.8
2019/01/10 02:09:30.000   1130752.2192  -4831349.0813   3994098.8954   1   8   0.0004   0.0008   0.0006  -0.0002  -0.0005   0.0002   0.00    5.2
2019/01/10 02:10:00.000   1130752.2214  -4831349.0843   3994098.8959   2   8   0.0004   0.0008   0.0006  -0.0003  -0.0006   0.0003   0.00    2.6
2019/01/10 02:10:30.000   1130752.2191  -4831349.0813   3994098.8954   1   8   0.0004   0.0008   0.0006  -0.0002  -0.0005   0.0002   0.00    4.3
2019/01/10 02:11:00.000   1130752.2190  -4831349.0813   3994098.8954   1   8   0.0004   0.0008   0.0006  -0.0002  -0.0005   0.0002   0.00    6.0
2019/01/10 02:11:30.000   1130752.2190  -4831349.0814   3994098.8955   1   8   0.0004   0.0008   0.0006  -0.0002  -0.0005   0.0002   0.00    7.1
2019/01/10 02:12:00.000   1130752.2189  -4831349.0815   3994098.8956   1   8   0.0004   0.0008   0.0006  -0.0002  -0.0005   0.0002   0.00    7.4
2019/01/10 02:12:30.000   1130752.2188  -4831349.0816   3994098.8957   1   8   0.0004   0.0008   0.0006  -0.0002  -0.0005   0.0002   0.00    7.8
2019/01/10 02:13:00.000   1130752.2187  -4831349.0817   3994098.8957   1   8   0.0004   0.0008   0.0006  -0.0002  -0.0005   0.0002   0.00    8.1
2019/01/10 02:13:30.000   1130752.2186  -4831349.0818   3994098.8958   1   8   0.0004   0.0008   0.0006  -0.0002  -0.0005   0.0002   0.00    8.4
2019/01/10 02:14:00.000   1130752.2185  -4831349.0819   3994098.8959   1   8   0.0004   0.0008   0.0006  -0.0002  -0.0005   0.0002   0.00    8.6
2019/01/10 02:14:30.000   1130752.2185  -4831349.0820   3994098.8959   1   8   0.0004   0.0008   0.0006  -0.0002  -0.0005   0.0002   0.00    8.9
2019/01/10 02:15:00.000   1130752.2184  -4831349.0821   3994098.8960   1   8   0.0004   0.0008   0.0006  -0.0002  -0.0005   0.0002   0.00    9.2
2019/01/10 02:15:30.000   1130752.2184  -4831349.0821   3994098.8960   1   8   0.0004   0.0008   0.0006  -0.0002  -0.0005   0.0002   0.00   12.2
2019/01/10 02:16:00.000   1130752.2183  -4831349.0822   3994098.8961   1   8   0.0004   0.0008   0.0006  -0.0002  -0.0005   0.0002   0.00   15.3
2019/01/10 02:16:30.000   1130752.2183  -4831349.0822   3994098.8961   1   8   0.0004   0.0008   0.0006  -0.0002  -0.0005   0.0002   0.00   18.4
2019/01/10 02:17:00.000   1130752.2182  -4831349.0822   3994098.8962   1   8   0.0004   0.0007   0.0006  -0.0002  -0.0005   0.0002   0.00   21.5
2019/01/10 02:17:30.000   1130752.2182  -4831349.0822   3994098.8962   1   8   0.0004   0.0007   0.0006  -0.0002  -0.0005   0.0002   0.00   24.9
2019/01/10 02:18:00.000   1130752.2181  -4831349.0822   3994098.8962   1   8   0.0004   0.0007   0.0006  -0.0002  -0.0005   0.0002   0.00   28.5
2019/01/10 02:18:30.000   1130752.2181  -4831349.0822   3994098.8962   1   8   0.0004   0.0007   0.0006  -0.0002  -0.0005   0.0002   0.00   32.4
2019/01/10 02:19:00.000   1130752.2180  -4831349.0822   3994098.8962   1   8   0.0004   0.0007   0.0006  -0.0002  -0.0005   0.0002   0.00   36.4
2019/01/10 02:19:30.000   1130752.2180  -4831349.0822   3994098.8962   1   8   0.0004   0.0007   0.0006  -0.0002  -0.0005   0.0002   0.00   40.3
2019/01/10 02:20:00.000   1130752.2180  -4831349.0822   3994098.8962   1   8   0.0004   0.0007   0.0006  -0.0002  -0.0005   0.0002   0.00   44.6
2019/01/10 02:20:30.000   1130752.2180  -4831349.0823   3994098.8962   1   8   0.0004   0.0007   0.0006  -0.0002  -0.0005   0.0002   0.00   49.1
2019/01/10 02:21:00.000   1130752.2180  -4831349.0823   3994098.8962   1   8   0.0004   0.0007   0.0006  -0.0002  -0.0005   0.0002   0.00   53.7
2019/01/10 02:21:30.000   1130752.2180  -4831349.0824   3994098.8962   1   8   0.0004   0.0007   0.0006  -0.0002  -0.0005   0.0002   0.00   58.1
2019/01/10 02:22:00.000   1130752.2180  -4831349.0824   3994098.8963   1   8   0.0004   0.0007   0.0006  -0.0002  -0.0005   0.0002   0.00   62.4
2019/01/10 02:22:30.000   1130752.2180  -4831349.0825   3994098.8963   1   8   0.0004   0.0007   0.0006  -0.0002  -0.0005   0.0002   0.00   66.6
2019/01/10 02:23:00.000   1130752.2180  -4831349.0825   3994098.8963   1   8   0.0004   0.0007   0.0006  -0.0002  -0.0005   0.0002   0.00   70.9
2019/01/10 02:23:30.000   1130752.2181  -4831349.0826   3994098.8963   1   8   0.0004   0.0007   0.0006  -0.0002  -0.0005   0.0002   0.00   74.3
2019/01/10 02:24:00.000   1130752.2181  -4831349.0828   3994098.8964   1   8   0.0004   0.0007   0.0006  -0.0002  -0.0005   0.0002   0.00   77.9
2019/01/10 02:24:30.000   1130752.2182  -4831349.0829   3994098.8965   1   8   0.0004   0.0007   0.0006  -0.0002  -0.0005   0.0002   0.00   81.1
2019/01/10 02:25:00.000   1130752.2182  -4831349.0831   3994098.8965   1   8   0.0004   0.0007   0.0006  -0.0002  -0.0005   0.0002   0.00   84.1
2019/01/10 02:25:30.000   1130752.2183  -4831349.0833   3994098.8966   1   8   0.0004   0.0007   0.0006  -0.0002  -0.0005   0.0002   0.00   86.3
2019/01/10 02:26:00.000   1130752.2183  -4831349.0835   3994098.8967   1   8   0.0004   0.0007   0.0006  -0.0002  -0.0005   0.0002   0.00   87.8
2019/01/10 02:26:30.000   1130752.2184  -4831349.0838   3994098.8967   1   8   0.0004   0.0007   0.0006  -0.0002  -0.0005   0.0002   0.00   88.8
2019/01/10 02:27:00.000   1130752.2184  -4831349.0840   3994098.8967   1   8   0.0003   0.0007   0.0006  -0.0002  -0.0005   0.0002   0.00   88.6
2019/01/10 02:27:30.000   1130752.2185  -4831349.0843   3994098.8967   1   8   0.0003   0.0007   0.0006  -0.0002  -0.0005   0.0002   0.00   86.9
2019/01/10 02:28:00.000   1130752.2185  -4831349.0846   3994098.8967   1   8   0.0003   0.0007   0.0006  -0.0002  -0.0005   0.0002   0.00   83.5
2019/01/10 02:28:30.000   1130752.2186  -4831349.0850   3994098.8968   1   8   0.0003   0.0007   0.0006  -0.0002  -0.0005   0.0002   0.00   78.2
2019/01/10 02:29:00.000   1130752.2187  -4831349.0853   3994098.8968   1   8   0.0003   0.0007   0.0006  -0.0002  -0.0005   0.0002   0.00   72.7
2019/01/10 02:29:30.000   1130752.2188  -4831349.0856   3994098.8968   1   8   0.0003   0.0007   0.0006  -0.0002  -0.0005   0.0002   0.00   67.8
2019/01/10 02:30:00.000   1130752.2188  -4831349.0859   3994098.8968   1   8   0.0003   0.0007   0.0006  -0.0002  -0.0005   0.0002   0.00   62.7
2019/01/10 02:30:30.000   1130752.2189  -4831349.0863   3994098.8968   1   8   0.0003   0.0007   0.0006  -0.0002  -0.0005   0.0002   0.00   57.2
2019/01/10 02:31:00.000   1130752.2189  -4831349.0867   3994098.8967   1   8   0.0003   0.0007   0.0006  -0.0002  -0.0005   0.0002   0.00   51.6
2019/01/10 02:31:30.000   1130752.2190  -4831349.0871   3994098.8967   1   8   0.0003   0.0007   0.0006  -0.0002  -0.0005   0.0002   0.00   46.3
2019/01/10 02:32:00.000   1130752.2191  -4831349.0875   3994098.8966   1   8   0.0003   0.0007   0.0006  -0.0002  -0.0005   0.0002   0.00   41.6
2019/01/10 02:32:30.000   1130752.2191  -4831349.0879   3994098.8966   1   8   0.0003   0.0007   0.0006  -0.0002  -0.0005   0.0002   0.00   37.6
2019/01/10 02:33:00.000   1130752.2192  -4831349.0884   3994098.8965   1   8   0.0003   0.0007   0.0006  -0.0002  -0.0005   0.0002   0.00   34.3
2019/01/10 02:33:30.000   1130752.2193  -4831349.0887   3994098.8965   1   8   0.0003   0.0007   0.0006  -0.0002  -0.0005   0.0002   0.00   31.7
2019/01/10 02:34:00.000   1130752.2194  -4831349.0890   3994098.8964   1   8   0.0003   0.0007   0.0006  -0.0002  -0.0005   0.0002   0.00   29.7
2019/01/10 02:34:30.000   1130752.2194  -4831349.0893   3994098.8963   1   8   0.0003   0.0007   0.0006  -0.0002  -0.0005   0.0002   0.00   28.3
2019/01/10 02:35:00.000   1130752.2195  -4831349.0895   3994098.8962   1   8   0.0003   0.0007   0.0005  -0.0002  -0.0005   0.0002   0.00   27.5
2019/01/10 02:35:30.000   1130752.2196  -4831349.0896   3994098.8962   1   8   0.0003   0.0007   0.0005  -0.0002  -0.0005   0.0002   0.00   26.9
2019/01/10 02:36:00.000   1130752.2196  -4831349.0898   3994098.8961   1   8   0.0003   0.0007   0.0005  -0.0002  -0.0005   0.0002   0.00   26.5
2019/01/10 02:36:30.000   1130752.2197  -4831349.0899   3994098.8961   1   8   0.0003   0.0007   0.0005  -0.0002  -0.0005   0.0002   0.00   26.0
2019/01/10 02:37:00.000   1130752.2198  -4831349.0901   3994098.8960   1   8   0.0003   0.0007   0.0005  -0.0002  -0.0005   0.0002   0.00   25.4
2019/01/10 02:37:30.000   1130752.2198  -4831349.0903   3994098.8958   1   8   0.0003   0.0007   0.0005  -0.0002  -0.0005   0.0002   0.00   24.7
2019/01/10 02:38:00.000   1130752.2199  -4831349.0904   3994098.8957   1   8   0.0003   0.0007   0.0005  -0.0002  -0.0005   0.0002   0.00   24.2
2019/01/10 02:38:30.000   1130752.2199  -4831349.0906   3994098.8956   1   8   0.0003   0.0007   0.0005  -0.0002  -0.0005   0.0002   0.00   23.6
2019/01/10 02:39:00.000   1130752.2200  -4831349.0907   3994098.8954   1   8   0.0003   0.0007   0.0005  -0.0002  -0.0005   0.0002   0.00   23.2
2019/01/10 02:39:30.000   1130752.2200  -4831349.0908   3994098.8953   1   8   0.0003   0.0007   0.0005  -0.0002  -0.0005   0.0002   0.00   23.2
2019/01/10 02:40:00.000   1130752.2200  -4831349.0908   3994098.8952   1   8   0.0003   0.0007   0.0005  -0.0002  -0.0005   0.0002   0.00   23.3
2019/01/10 02:40:30.000   1130752.2200  -4831349.0908   3994098.8951   1   8   0.0003   0.0007   0.0005  -0.0002  -0.0005   0.0002   0.00   23.4
2019/01/10 02:41:00.000   1130752.2200  -4831349.0908   3994098.8949   1   8   0.0003   0.0007   0.0005  -0.0002  -0.0005   0.0002   0.00   23.7
2019/01/10 02:41:30.000   1130752.2200  -4831349.0908   3994098.8948   1   8   0.0003   0.0007   0.0005  -0.0002  -0.0005   0.0002   0.00   24.0
2019/01/10 02:42:00.000   1130752.2200  -4831349.0908   3994098.8947   1   8   0.0003   0.0007   0.0005  -0.0002  -0.0005   0.0002   0.00   24.3
2019/01/10 02:42:30.000   1130752.2200  -4831349.0907   3994098.8946   1   8   0.0003   0.0007   0.0005  -0.0002  -0.0005   0.0002   0.00   24.8
2019/01/10 02:43:00.000   1130752.2200  -4831349.0906   3994098.8944   1   8   0.0003   0.0007   0.0005  -0.0002  -0.0005   0.0002   0.00   25.0
2019/01/10 02:43:30.000   1130752.2200  -4831349.0906   3994098.8943   1   8   0.0003   0.0007   0.0005  -0.0002  -0.0005   0.0002   0.00   25.1
2019/01/10 02:44:00.000   1130752.2200  -4831349.0905   3994098.8941   1   8   0.0003   0.0007   0.0005  -0.0002  -0.0005   0.0002   0.00   25.1
2019/01/10 02:44:30.000   1130752.2200  -4831349.0904   3994098.8940   1   8   0.0003   0.0007   0.0005  -0.0002  -0.0005   0.0002   0.00   25.1
2019/01/10 02:45:00.000   1130752.2199  -4831349.0903   3994098.8938   1   8   0.0003   0.0007   0.0005  -0.0002  -0.0005   0.0002   0.00   25.2
2019/01/10 02:45:30.000   1130752.2199  -4831349.0902   3994098.8937   1   8   0.0003   0.0007   0.0005  -0.0002  -0.0005   0.0002   0.00   25.5
2019/01/10 02:46:00.000   1130752.2199  -4831349.0901   3994098.8936   1   8   0.0003   0.0007   0.0005  -0.0002  -0.0005   0.0002   0.00   25.8
2019/01/10 02:46:30.000   1130752.2199  -4831349.0900   3994098.8935   1   8   0.0003   0.0007   0.0005  -0.0002  -0.0005   0.0002   0.00   26.3
2019/01/10 02:47:00.000   1130752.2199  -4831349.0898   3994098.8934   1   8   0.0003   0.0007   0.0005  -0.0002  -0.0005   0.0002   0.00   26.8
2019/01/10 02:47:30.000   1130752.2199  -4831349.0896   3994098.8933   1   8   0.0003   0.0007   0.0005  -0.0002  -0.0005   0.0002   0.00   27.3
2019/01/10 02:48:00.000   1130752.2198  -4831349.0894   3994098.8932   1   8   0.0003   0.0007   0.0005  -0.0002  -0.0005   0.0002   0.00   27.9
2019/01/10 02:48:30.000   1130752.2198  -4831349.0893   3994098.8932   1   8   0.0003   0.0007   0.0005  -0.0002  -0.0005   0.0002   0.00   28.4
2019/01/10 02:49:00.000   1130752.2197  -4831349.0891   3994098.8931   1   8   0.0003   0.0007   0.0005  -0.0002  -0.0005   0.0002   0.00   28.9
2019/01/10 02:49:30.000   1130752.2197  -4831349.0890   3994098.8930   1   8   0.0003   0.0007   0.0005  -0.0002  -0.0005   0.0002   0.00   29.6
2019/01/10 02:50:00.000   1130752.2197  -4831349.0888   3994098.8930   1   8   0.0003   0.0007   0.0005  -0.0002  -0.0005   0.0002   0.00   30.4
2019/01/10 02:50:30.000   1130752.2196  -4831349.0887   3994098.8930   1   8   0.0003   0.0007   0.0005  -0.0002  -0.0005   0.0002   0.00   31.3
2019/01/10 02:51:00.000   1130752.2196  -4831349.0886   3994098.8931   1   8   0.0003   0.0007   0.0005  -0.0002  -0.0005   0.0002   0.00   32.5
2019/01/10 02:51:30.000   1130752.2195  -4831349.0885   3994098.8931   1   8   0.0003   0.0007   0.0005  -0.0002  -0.0005   0.0002   0.00   33.8
2019/01/10 02:52:00.000   1130752.2195  -4831349.0884   3994098.8932   1   8   0.0003   0.0007   0.0005  -0.0002  -0.0005   0.0002   0.00   35.3
2019/01/10 02:52:30.000   1130752.2195  -4831349.0884   3994098.8934   1   8   0.0003   0.0007   0.0005  -0.0002  -0.0005   0.0002   0.00   36.8
2019/01/10 02:53:00.000   1130752.2195  -4831349.0883   3994098.8935   1   8   0.0003   0.0007   0.0005  -0.0002  -0.0005   0.0002   0.00   38.4
2019/01/10 02:53:30.000   1130752.2195  -4831349.0883   3994098.8937   1   8   0.0003   0.0007   0.0005  -0.0002  -0.0005   0.0002   0.00   40.0
2019/01/10 02:54:00.000   1130752.2195  -4831349.0882   3994098.8938   1   8   0.0003   0.0007   0.0005  -0.0002  -0.0005   0.0002   0.00   41.6
2019/01/10 02:54:30.000   1130752.2195  -4831349.0882   3994098.8940   1   8   0.0003   0.0007   0.0005  -0.0002  -0.0005   0.0002   0.00   43.3
2019/01/10 02:55:00.000   1130752.2195  -4831349.0882   3994098.8941   1   8   0.0003   0.0007   0.0005  -0.0002  -0.0005   0.0002   0.00   45.2
2019/01/10 02:55:30.000   1130752.2196  -4831349.0881   3994098.8943   1   8   0.0003   0.0007   0.0005  -0.0002  -0.0005   0.0002   0.00   47.2
2019/01/10 02:56:00.000   1130752.2196  -4831349.0881   3994098.8944   1   8   0.0003   0.0007   0.0005  -0.0002  -0.0005   0.0002   0.00   49.1
2019/01/10 02:56:30.000   1130752.2196  -4831349.0881   3994098.8945   1   8   0.0003   0.0007   0.0005  -0.0002  -0.0005   0.0002   0.00   50.9
2019/01/10 02:57:00.000   1130752.2196  -4831349.0881   3994098.8947   1   8   0.0003   0.0007   0.0005  -0.0002  -0.0005   0.0002   0.00   52.6
2019/01/10 02:57:30.000   1130752.2196  -4831349.0882   3994098.8948   1   8   0.0003   0.0007   0.0005  -0.0002  -0.0005   0.0002   0.00   54.0
2019/01/10 02:58:00.000   1130752.2196  -4831349.0882   3994098.8949   1   8   0.0003   0.0007   0.0005  -0.0002  -0.0005   0.0002   0.00   55.7
2019/01/10 02:58:30.000   1130752.2196  -4831349.0883   3994098.8950   1   8   0.0003   0.0007   0.0005  -0.0002  -0.0005   0.0002   0.00   57.6
2019/01/10 02:59:00.000   1130752.2196  -4831349.0883   3994098.8951   1   8   0.0003   0.0006   0.0005  -0.0002  -0.0005   0.0002   0.00   59.1
2019/01/10 02:59:30.000   1130752.2196  -4831349.0884   3994098.8952   1   8   0.0003   0.0006   0.0005  -0.0002  -0.0005   0.0002   0.00   60.7
2019/01/10 03:00:00.000   1130752.2196  -4831349.0885   3994098.8953   1   8   0.0003   0.0006   0.0005  -0.0002  -0.0005   0.0002   0.00   62.4
2019/01/10 03:00:30.000   1130752.2196  -4831349.0886   3994098.8954   1   8   0.0003   0.0006   0.0005  -0.0002  -0.0005   0.0002   0.00   64.5
2019/01/10 03:01:00.000   1130752.2196  -4831349.0887   3994098.8955   1   8   0.0003   0.0006   0.0005  -0.0002  -0.0005   0.0002   0.00   67.0
2019/01/10 03:01:30.000   1130752.2197  -4831349.0887   3994098.8956   1   8   0.0003   0.0006   0.0005  -0.0002  -0.0005   0.0002   0.00   69.7
2019/01/10 03:02:00.000   1130752.2197  -4831349.0888   3994098.8958   1   8   0.0003   0.0006   0.0005  -0.0002  -0.0005   0.0002   0.00   72.7
2019/01/10 03:02:30.000   1130752.2197  -4831349.0889   3994098.8959   1   8   0.0003   0.0006   0.0005  -0.0002  -0.0005   0.0002   0.00   75.7
2019/01/10 03:03:00.000   1130752.2197  -4831349.0890   3994098.8960   1   8   0.0003   0.0006   0.0005  -0.0002  -0.0005   0.0002   0.00   78.9
2019/01/10 03:03:30.000   1130752.2197  -4831349.0891   3994098.8961   1   8   0.0003   0.0006   0.0005  -0.0002  -0.0005   0.0002   0.00   81.3
2019/01/10 03:04:00.000   1130752.2196  -4831349.0892   3994098.8962   1   8   0.0003   0.0006   0.0005  -0.0002  -0.0005   0.0002   0.00   84.8
2019/01/10 03:04:30.000   1130752.2196  -4831349.0894   3994098.8963   1   8   0.0003   0.0006   0.0005  -0.0002  -0.0005   0.0002   0.00   88.0
2019/01/10 03:05:00.000   1130752.2196  -4831349.0895   3994098.8963   1   8   0.0003   0.0006   0.0005  -0.0002  -0.0005   0.0002   0.00   90.8
2019/01/10 03:05:30.000   1130752.2196  -4831349.0897   3994098.8964   1   8   0.0003   0.0006   0.0005  -0.0002  -0.0005   0.0002   0.00   93.7
2019/01/10 03:06:00.000   1130752.2195  -4831349.0898   3994098.8965   1   8   0.0003   0.0006   0.0005  -0.0002  -0.0005   0.0002   0.00   96.9
2019/01/10 03:06:30.000   1130752.2195  -4831349.0900   3994098.8965   1   8   0.0003   0.0006   0.0005  -0.0002  -0.0005   0.0002   0.00  100.0
2019/01/10 03:07:00.000   1130752.2194  -4831349.0902   3994098.8966   1   8   0.0003   0.0006   0.0005  -0.0002  -0.0005   0.0002   0.00  102.3
2019/01/10 03:07:30.000   1130752.2193  -4831349.0903   3994098.8966   1   8   0.0003   0.0006   0.0005  -0.0002  -0.0005   0.0002   0.00  102.7
2019/01/10 03:08:00.000   1130752.2193  -4831349.0904   3994098.8967   1   8   0.0003   0.0006   0.0005  -0.0002  -0.0005   0.0002   0.00  102.4
2019/01/10 03:08:30.000   1130752.2192  -4831349.0905   3994098.8967   1   8   0.0003   0.0006   0.0005  -0.0002  -0.0005   0.0002   0.00  102.0
2019/01/10 03:09:00.000   1130752.2192  -4831349.0906   3994098.8967   1   8   0.0003   0.0006   0.0005  -0.0002  -0.0005   0.0002   0.00  101.5
2019/01/10 03:09:30.000   1130752.2191  -4831349.0907   3994098.8968   1   8   0.0003   0.0006   0.0005  -0.0002  -0.0005   0.0002   0.00  101.2
2019/01/10 03:10:00.000   1130752.2191  -4831349.0908   3994098.8968   1   8   0.0003   0.0006   0.0005  -0.0002  -0.0005   0.0002   0.00  101.2
2019/01/10 03:10:30.000   1130752.2190  -4831349.0909   3994098.8969   1   8   0.0003   0.0006   0.0005  -0.0002  -0.0005   0.0002   0.00  101.7
2019/01/10 03:11:00.000   1130752.2190  -4831349.0910   3994098.8969   1   8   0.0003   0.0006   0.0005  -0.0002  -0.0005   0.0002   0.00  102.4
2019/01/10 03:11:30.000   1130752.2189  -4831349.0910   3994098.8969   1   8   0.0003   0.0006   0.0005  -0.0002  -0.0005   0.0002   0.00  103.3
2019/01/10 03:12:00.000   1130752.2189  -4831349.0910   3994098.8970   1   8   0.0003   0.0006   0.0005  -0.0002  -0.0005   0.0002   0.00  104.7
2019/01/10 03:12:30.000   1130752.2188  -4831349.0910   3994098.8970   1   8   0.0003   0.0006   0.0005  -0.0002  -0.0005   0.0002   0.00  106.5
2019/01/10 03:13:00.000   1130752.2188  -4831349.0911   3994098.8971   1   8   0.0003   0.0006   0.0005  -0.0002  -0.0005   0.0002   0.00  108.2
2019/01/10 03:13:30.000   1130752.2187  -4831349.0912   3994098.8971   1   8   0.0003   0.0006   0.0005  -0.0002  -0.0005   0.0002   0.00  109.8
2019/01/10 03:14:00.000   1130752.2187  -4831349.0913   3994098.8972   1   8   0.0003   0.0006   0.0005  -0.0002  -0.0005   0.0002   0.00  111.8
2019/01/10 03:14:30.000   1130752.2187  -4831349.0913   3994098.8973   1   8   0.0003   0.0006   0.0005  -0.0002  -0.0005   0.0002   0.00  113.7
2019/01/10 03:15:00.000   1130752.2187  -4831349.0914   3994098.8974   1   8   0.0003   0.0006   0.0005  -0.0002  -0.0005   0.0002   0.00  115.6
2019/01/10 03:15:30.000   1130752.2196  -4831349.0911   3994098.8973   2   9   0.0003   0.0006   0.0005  -0.0002  -0.0005   0.0002   0.00    1.2
2019/01/10 03:16:00.000   1130752.2196  -4831349.0911   3994098.8974   2   9   0.0003   0.0006   0.0005  -0.0002  -0.0005   0.0002   0.00    1.4
2019/01/10 03:16:30.000   1130752.2195  -4831349.0912   3994098.8974   2   9   0.0003   0.0006   0.0005  -0.0002  -0.0005   0.0002   0.00    1.6
2019/01/10 03:17:00.000   1130752.2195  -4831349.0912   3994098.8975   2   9   0.0003   0.0006   0.0005  -0.0002  -0.0005   0.0002   0.00    1.8
2019/01/10 03:17:30.000   1130752.2195  -4831349.0912   3994098.8975   2   9   0.0003   0.0006   0.0005  -0.0002  -0.0005   0.0002   0.00    2.0
2019/01/10 03:18:00.000   1130752.2195  -4831349.0912   3994098.8975   2   9   0.0003   0.0006   0.0005  -0.0002  -0.0005   0.0002   0.00    2.1
2019/01/10 03:18:30.000   1130752.2195  -4831349.0912   3994098.8976   2   9   0.0003   0.0006   0.0005  -0.0002  -0.0005   0.0002   0.00    2.3
2019/01/10 03:19:00.000   1130752.2195  -4831349.0912   3994098.8976   2   9   0.0003   0.0006   0.0005  -0.0002  -0.0005   0.0002   0.00    2.5
2019/01/10 03:19:30.000   1130752.2196  -4831349.0911   3994098.8977   2   9   0.0003   0.0006   0.0005  -0.0002  -0.0005   0.0002   0.00    2.6
2019/01/10 03:20:00.000   1130752.2196  -4831349.0911   3994098.8978   2   9   0.0003   0.0006   0.0005  -0.0002  -0.0005   0.0002   0.00    2.8
2019/01/10 03:20:30.000   1130752.2196  -4831349.0911   3994098.8978   2   9   0.0003   0.0006   0.0005  -0.0002  -0.0005   0.0002   0.00    3.0
2019/01/10 03:21:00.000   1130752.2187  -4831349.0924   3994098.8991   1   9   0.0003   0.0006   0.0005  -0.0002  -0.0005   0.0002   0.00    3.1
2019/01/10 03:21:30.000   1130752.2187  -4831349.0925   3994098.8993   1   9   0.0003   0.0006   0.0005  -0.0002  -0.0004   0.0002   0.00    3.3
