% program   : RTKPOST ver.2.4.3 b34
% inp file  : C:\Users\89231\Documents\Учеба\Диссертация\Данные\Лос-Анджелес 03-05.07.22\05.07.2022\cmp91860.22o
% inp file  : C:\Users\89231\Documents\Учеба\Диссертация\Данные\Лос-Анджелес 03-05.07.22\05.07.2022\chil1860.22o
% inp file  : C:\Users\89231\Documents\Учеба\Диссертация\Данные\Лос-Анджелес 03-05.07.22\05.07.2022\jplm1860.22n
% inp file  : C:\Users\89231\Documents\Учеба\Диссертация\Данные\Лос-Анджелес 03-05.07.22\05.07.2022\igs22172.sp3
% obs start : 2022/07/05 00:00:00.0 GPST (week2217 172800.0s)
% obs end   : 2022/07/05 23:59:45.0 GPST (week2217 259185.0s)
% pos mode  : Static
% freqs     : L1+2
% solution  : Forward
% elev mask : 15.0 deg
% dynamics  : off
% tidecorr  : off
% ionos opt : Broadcast
% tropo opt : Saastamoinen
% ephemeris : Precise
% navi sys  : GPS
% amb res   : Fix and Hold
% val thres : 3.0
% antenna1  :                       ( 0.0000  0.0000  0.1265)
% antenna2  :                       ( 0.0000  0.0000  0.6440)
% ref pos   : -2478003.8491  -4655349.2572   3577932.7716
%
% (x/y/z-ecef=WGS84,Q=1:fix,2:float,3:sbas,4:dgps,5:single,6:ppp,ns=# of satellites)
%  GPST                      x-ecef(m)      y-ecef(m)      z-ecef(m)   Q  ns   sdx(m)   sdy(m)   sdz(m)  sdxy(m)  sdyz(m)  sdzx(m) age(s)  ratio
2022/07/05 00:00:00.000  -2508506.7036  -4637174.9260   3579500.4497   2   8   0.5150   0.9810   0.7541   0.5461  -0.7254  -0.4824   0.00    1.0
2022/07/05 00:00:15.000  -2508506.7730  -4637174.9161   3579500.4533   2   8   0.3580   0.6807   0.5134   0.3739  -0.4938  -0.3273   0.00    1.0
2022/07/05 00:00:30.000  -2508506.8972  -4637175.0820   3579500.5426   2   8   0.2835   0.5377   0.3940   0.2892  -0.3787  -0.2495   0.00    1.0
2022/07/05 00:00:45.000  -2508506.9243  -4637175.1573   3579500.5474   2   8   0.2364   0.4474   0.3162   0.2343  -0.3037  -0.1984   0.00    1.0
2022/07/05 00:01:00.000  -2508506.9376  -4637175.1436   3579500.5859   2   8   0.2031   0.3836   0.2601   0.1947  -0.2497  -0.1613   0.00    1.1
2022/07/05 00:01:15.000  -2508506.8912  -4637175.0075   3579500.5081   2   8   0.1779   0.3358   0.2178   0.1646  -0.2091  -0.1333   0.00    1.1
2022/07/05 00:01:30.000  -2508506.8579  -4637174.9180   3579500.4245   2   8   0.1581   0.2984   0.1851   0.1410  -0.1777  -0.1117   0.00    1.1
2022/07/05 00:01:45.000  -2508506.7999  -4637174.8679   3579500.3795   2   8   0.1420   0.2684   0.1593   0.1221  -0.1530  -0.0946   0.00    1.1
2022/07/05 00:02:00.000  -2508506.7533  -4637174.8631   3579500.3586   2   8   0.1287   0.2437   0.1386   0.1066  -0.1333  -0.0810   0.00    1.1
2022/07/05 00:02:15.000  -2508506.7151  -4637174.8293   3579500.3490   2   8   0.1175   0.2230   0.1219   0.0938  -0.1174  -0.0700   0.00    1.0
2022/07/05 00:02:30.000  -2508506.6704  -4637174.7552   3579500.3140   2   8   0.1079   0.2053   0.1081   0.0830  -0.1043  -0.0610   0.00    1.0
2022/07/05 00:02:45.000  -2508506.6633  -4637174.7177   3579500.2940   2   8   0.0996   0.1901   0.0966   0.0738  -0.0935  -0.0536   0.00    1.1
2022/07/05 00:03:00.000  -2508506.6699  -4637174.6581   3579500.2781   2   8   0.0923   0.1767   0.0869   0.0660  -0.0844  -0.0474   0.00    1.1
2022/07/05 00:03:15.000  -2508506.6552  -4637174.5780   3579500.2577   2   8   0.0858   0.1649   0.0788   0.0592  -0.0767  -0.0422   0.00    1.1
2022/07/05 00:03:30.000  -2508506.6589  -4637174.5211   3579500.2285   2   8   0.0801   0.1544   0.0717   0.0533  -0.0701  -0.0378   0.00    1.2
2022/07/05 00:03:45.000  -2508506.6799  -4637174.4936   3579500.2161   2   8   0.0749   0.1450   0.0657   0.0481  -0.0644  -0.0340   0.00    1.2
2022/07/05 00:04:00.000  -2508506.6868  -4637174.4522   3579500.1866   2   8   0.0703   0.1365   0.0604   0.0435  -0.0594  -0.0308   0.00    1.2
2022/07/05 00:04:15.000  -2508506.6943  -4637174.4278   3579500.1778   2   8   0.0661   0.1287   0.0558   0.0395  -0.0551  -0.0280   0.00    1.2
2022/07/05 00:04:30.000  -2508506.7019  -4637174.4276   3579500.1786   2   8   0.0623   0.1217   0.0518   0.0360  -0.0513  -0.0256   0.00    1.2
2022/07/05 00:04:45.000  -2508506.7073  -4637174.4281   3579500.1830   2   8   0.0589   0.1152   0.0482   0.0329  -0.0479  -0.0234   0.00    1.2
2022/07/05 00:05:00.000  -2508506.7115  -4637174.4362   3579500.1814   2   8   0.0557   0.1093   0.0450   0.0301  -0.0448  -0.0216   0.00    1.2
2022/07/05 00:05:15.000  -2508506.7167  -4637174.4265   3579500.1812   2   8   0.0528   0.1039   0.0421   0.0276  -0.0421  -0.0199   0.00    1.2
2022/07/05 00:05:30.000  -2508506.7184  -4637174.4225   3579500.1925   2   8   0.0502   0.0989   0.0395   0.0253  -0.0397  -0.0185   0.00    1.2
2022/07/05 00:05:45.000  -2508506.7096  -4637174.4064   3579500.1988   2   8   0.0477   0.0942   0.0372   0.0233  -0.0375  -0.0172   0.00    1.2
2022/07/05 00:06:00.000  -2508506.7000  -4637174.3887   3579500.1912   2   8   0.0455   0.0899   0.0351   0.0215  -0.0355  -0.0160   0.00    1.2
2022/07/05 00:06:15.000  -2508506.6968  -4637174.3660   3579500.1926   2   8   0.0434   0.0859   0.0332   0.0199  -0.0336  -0.0150   0.00    1.3
2022/07/05 00:06:30.000  -2508506.6877  -4637174.3514   3579500.1906   2   8   0.0414   0.0821   0.0314   0.0185  -0.0319  -0.0140   0.00    1.3
2022/07/05 00:06:45.000  -2508506.6780  -4637174.3440   3579500.1927   2   8   0.0396   0.0786   0.0298   0.0171  -0.0304  -0.0132   0.00    1.3
2022/07/05 00:07:00.000  -2508506.6711  -4637174.3476   3579500.1962   2   8   0.0379   0.0754   0.0283   0.0159  -0.0290  -0.0124   0.00    1.3
2022/07/05 00:07:15.000  -2508506.6666  -4637174.3519   3579500.1983   2   8   0.0364   0.0723   0.0270   0.0149  -0.0277  -0.0117   0.00    1.3
2022/07/05 00:07:30.000  -2508506.6629  -4637174.3524   3579500.2019   2   8   0.0349   0.0695   0.0257   0.0139  -0.0264  -0.0111   0.00    1.3
2022/07/05 00:07:45.000  -2508506.6620  -4637174.3569   3579500.2057   2   8   0.0335   0.0668   0.0246   0.0130  -0.0253  -0.0105   0.00    1.3
2022/07/05 00:08:00.000  -2508506.6593  -4637174.3677   3579500.2084   2   8   0.0323   0.0643   0.0235   0.0122  -0.0243  -0.0100   0.00    1.3
2022/07/05 00:08:15.000  -2508506.6606  -4637174.3707   3579500.2116   2   8   0.0311   0.0619   0.0225   0.0115  -0.0233  -0.0095   0.00    1.3
2022/07/05 00:08:30.000  -2508506.6592  -4637174.3789   3579500.2186   2   8   0.0299   0.0596   0.0216   0.0108  -0.0224  -0.0091   0.00    1.3
2022/07/05 00:08:45.000  -2508506.6562  -4637174.3859   3579500.2239   2   8   0.0289   0.0575   0.0207   0.0102  -0.0215  -0.0087   0.00    1.3
2022/07/05 00:09:00.000  -2508506.6563  -4637174.3942   3579500.2307   2   8   0.0278   0.0555   0.0199   0.0096  -0.0207  -0.0083   0.00    1.3
2022/07/05 00:09:15.000  -2508506.6559  -4637174.4055   3579500.2367   2   8   0.0269   0.0536   0.0192   0.0091  -0.0200  -0.0079   0.00    1.3
2022/07/05 00:09:30.000  -2508506.6543  -4637174.4178   3579500.2429   2   8   0.0260   0.0518   0.0185   0.0087  -0.0192  -0.0076   0.00    1.3
2022/07/05 00:09:45.000  -2508506.6539  -4637174.4297   3579500.2498   2   8   0.0252   0.0501   0.0178   0.0082  -0.0186  -0.0073   0.00    1.3
2022/07/05 00:10:00.000  -2508506.6538  -4637174.4417   3579500.2547   2   8   0.0244   0.0485   0.0172   0.0078  -0.0180  -0.0070   0.00    1.3
2022/07/05 00:10:15.000  -2508506.6559  -4637174.4524   3579500.2586   2   8   0.0236   0.0470   0.0166   0.0075  -0.0174  -0.0068   0.00    1.2
2022/07/05 00:10:30.000  -2508506.6588  -4637174.4633   3579500.2642   2   8   0.0229   0.0455   0.0160   0.0072  -0.0168  -0.0065   0.00    1.2
2022/07/05 00:10:45.000  -2508506.6632  -4637174.4834   3579500.2731   2   8   0.0222   0.0442   0.0155   0.0068  -0.0163  -0.0063   0.00    1.2
2022/07/05 00:11:00.000  -2508506.6671  -4637174.4965   3579500.2810   2   8   0.0215   0.0429   0.0150   0.0066  -0.0158  -0.0061   0.00    1.2
2022/07/05 00:11:15.000  -2508506.6688  -4637174.5112   3579500.2884   2   8   0.0209   0.0416   0.0145   0.0063  -0.0153  -0.0059   0.00    1.2
2022/07/05 00:11:30.000  -2508506.6698  -4637174.5312   3579500.2954   2   8   0.0203   0.0404   0.0141   0.0061  -0.0148  -0.0057   0.00    1.2
2022/07/05 00:11:45.000  -2508506.6727  -4637174.5549   3579500.3020   2   8   0.0198   0.0393   0.0137   0.0059  -0.0144  -0.0055   0.00    1.2
2022/07/05 00:12:00.000  -2508506.6741  -4637174.5693   3579500.3086   2   8   0.0192   0.0382   0.0132   0.0057  -0.0140  -0.0053   0.00    1.1
2022/07/05 00:12:15.000  -2508506.6762  -4637174.5857   3579500.3150   2   8   0.0187   0.0371   0.0129   0.0055  -0.0136  -0.0052   0.00    1.1
2022/07/05 00:12:30.000  -2508506.6777  -4637174.6039   3579500.3219   2   8   0.0182   0.0361   0.0125   0.0053  -0.0132  -0.0050   0.00    1.1
2022/07/05 00:12:45.000  -2508506.6777  -4637174.6292   3579500.3293   2   8   0.0178   0.0352   0.0122   0.0051  -0.0129  -0.0049   0.00    1.1
2022/07/05 00:13:00.000  -2508506.6780  -4637174.6613   3579500.3393   2   8   0.0173   0.0343   0.0118   0.0050  -0.0125  -0.0047   0.00    1.0
2022/07/05 00:13:15.000  -2508506.6785  -4637174.6885   3579500.3483   2   8   0.0169   0.0334   0.0115   0.0048  -0.0122  -0.0046   0.00    1.0
2022/07/05 00:13:30.000  -2508506.6782  -4637174.7175   3579500.3576   2   8   0.0165   0.0326   0.0112   0.0047  -0.0119  -0.0045   0.00    1.0
2022/07/05 00:13:45.000  -2508506.6793  -4637174.7443   3579500.3665   2   8   0.0161   0.0318   0.0109   0.0046  -0.0116  -0.0044   0.00    1.0
2022/07/05 00:14:00.000  -2508506.6796  -4637174.7663   3579500.3753   2   8   0.0157   0.0310   0.0106   0.0045  -0.0113  -0.0043   0.00    1.0
2022/07/05 00:14:15.000  -2508506.6811  -4637174.7847   3579500.3829   2   8   0.0153   0.0303   0.0104   0.0044  -0.0111  -0.0042   0.00    1.0
2022/07/05 00:14:30.000  -2508506.6837  -4637174.8032   3579500.3915   2   8   0.0150   0.0295   0.0101   0.0043  -0.0108  -0.0041   0.00    1.1
2022/07/05 00:14:45.000  -2508506.6877  -4637174.8214   3579500.3997   2   8   0.0147   0.0289   0.0099   0.0042  -0.0105  -0.0040   0.00    1.1
2022/07/05 00:15:00.000  -2508506.6941  -4637174.8419   3579500.4092   2   8   0.0143   0.0282   0.0097   0.0041  -0.0103  -0.0039   0.00    1.1
2022/07/05 00:15:15.000  -2508506.7004  -4637174.8598   3579500.4179   2   8   0.0140   0.0276   0.0094   0.0040  -0.0101  -0.0038   0.00    1.1
2022/07/05 00:15:30.000  -2508506.7071  -4637174.8736   3579500.4240   2   8   0.0137   0.0270   0.0092   0.0039  -0.0098  -0.0037   0.00    1.1
2022/07/05 00:15:45.000  -2508506.7143  -4637174.8824   3579500.4291   2   8   0.0134   0.0264   0.0090   0.0039  -0.0096  -0.0036   0.00    1.1
2022/07/05 00:16:00.000  -2508506.7210  -4637174.8897   3579500.4341   2   8   0.0132   0.0258   0.0088   0.0038  -0.0094  -0.0036   0.00    1.1
2022/07/05 00:16:15.000  -2508506.7271  -4637174.8946   3579500.4380   2   8   0.0129   0.0253   0.0086   0.0037  -0.0092  -0.0035   0.00    1.0
2022/07/05 00:16:30.000  -2508506.7320  -4637174.8974   3579500.4426   2   8   0.0126   0.0247   0.0084   0.0037  -0.0090  -0.0034   0.00    1.0
2022/07/05 00:16:45.000  -2508506.7379  -4637174.8985   3579500.4464   2   8   0.0124   0.0242   0.0083   0.0036  -0.0088  -0.0034   0.00    1.0
2022/07/05 00:17:00.000  -2508506.7437  -4637174.9015   3579500.4507   2   8   0.0122   0.0237   0.0081   0.0036  -0.0087  -0.0033   0.00    1.0
2022/07/05 00:17:15.000  -2508506.7493  -4637174.9084   3579500.4548   2   8   0.0119   0.0232   0.0079   0.0035  -0.0085  -0.0032   0.00    1.0
2022/07/05 00:17:30.000  -2508506.7552  -4637174.9088   3579500.4579   2   8   0.0117   0.0228   0.0078   0.0035  -0.0083  -0.0032   0.00    1.0
2022/07/05 00:17:45.000  -2508506.7612  -4637174.9109   3579500.4603   2   8   0.0115   0.0223   0.0076   0.0034  -0.0082  -0.0031   0.00    1.0
2022/07/05 00:18:00.000  -2508506.7676  -4637174.9152   3579500.4632   2   8   0.0113   0.0219   0.0075   0.0034  -0.0080  -0.0031   0.00    1.0
2022/07/05 00:18:15.000  -2508506.7716  -4637174.9181   3579500.4655   2   8   0.0111   0.0215   0.0073   0.0033  -0.0079  -0.0030   0.00    1.0
2022/07/05 00:18:30.000  -2508506.7749  -4637174.9239   3579500.4683   2   9   0.0109   0.0211   0.0072   0.0033  -0.0077  -0.0030   0.00    1.0
2022/07/05 00:18:45.000  -2508506.7775  -4637174.9280   3579500.4701   2   9   0.0107   0.0207   0.0071   0.0032  -0.0076  -0.0029   0.00    1.0
2022/07/05 00:19:00.000  -2508506.7808  -4637174.9305   3579500.4719   2   9   0.0105   0.0203   0.0069   0.0032  -0.0074  -0.0029   0.00    1.0
2022/07/05 00:19:15.000  -2508506.7829  -4637174.9370   3579500.4734   2   9   0.0103   0.0199   0.0068   0.0032  -0.0073  -0.0028   0.00    1.0
2022/07/05 00:19:30.000  -2508506.7844  -4637174.9393   3579500.4743   2   9   0.0102   0.0196   0.0067   0.0031  -0.0072  -0.0028   0.00    1.0
2022/07/05 00:19:45.000  -2508506.7857  -4637174.9461   3579500.4765   2   9   0.0100   0.0192   0.0066   0.0031  -0.0071  -0.0027   0.00    1.0
2022/07/05 00:20:00.000  -2508506.7857  -4637174.9501   3579500.4775   2   9   0.0098   0.0189   0.0065   0.0031  -0.0069  -0.0027   0.00    1.0
2022/07/05 00:20:15.000  -2508506.7858  -4637174.9543   3579500.4785   2   9   0.0097   0.0186   0.0063   0.0030  -0.0068  -0.0026   0.00    1.0
2022/07/05 00:20:30.000  -2508506.7858  -4637174.9597   3579500.4802   2   9   0.0095   0.0183   0.0062   0.0030  -0.0067  -0.0026   0.00    1.0
2022/07/05 00:20:45.000  -2508506.7857  -4637174.9673   3579500.4815   2   9   0.0094   0.0180   0.0061   0.0030  -0.0066  -0.0026   0.00    1.0
2022/07/05 00:21:00.000  -2508506.7857  -4637174.9747   3579500.4829   2   9   0.0092   0.0177   0.0060   0.0029  -0.0065  -0.0025   0.00    1.0
2022/07/05 00:21:15.000  -2508506.7854  -4637174.9825   3579500.4837   2   9   0.0091   0.0174   0.0059   0.0029  -0.0064  -0.0025   0.00    1.0
2022/07/05 00:21:30.000  -2508506.7841  -4637174.9896   3579500.4839   2   9   0.0089   0.0171   0.0058   0.0029  -0.0063  -0.0025   0.00    1.0
2022/07/05 00:21:45.000  -2508506.7832  -4637174.9957   3579500.4842   2   9   0.0088   0.0169   0.0058   0.0028  -0.0063  -0.0024   0.00    1.0
2022/07/05 00:22:00.000  -2508506.7828  -4637175.0034   3579500.4847   2   9   0.0087   0.0167   0.0057   0.0028  -0.0062  -0.0024   0.00    1.0
2022/07/05 00:22:15.000  -2508506.7813  -4637175.0105   3579500.4852   2   8   0.0086   0.0165   0.0056   0.0027  -0.0062  -0.0023   0.00    1.1
2022/07/05 00:22:30.000  -2508506.7795  -4637175.0184   3579500.4867   2   8   0.0084   0.0163   0.0056   0.0027  -0.0061  -0.0023   0.00    1.1
2022/07/05 00:22:45.000  -2508506.7775  -4637175.0246   3579500.4880   2   8   0.0083   0.0161   0.0055   0.0026  -0.0061  -0.0023   0.00    1.1
2022/07/05 00:23:00.000  -2508506.7749  -4637175.0295   3579500.4892   2   8   0.0082   0.0159   0.0054   0.0026  -0.0060  -0.0022   0.00    1.1
2022/07/05 00:23:15.000  -2508506.7725  -4637175.0353   3579500.4909   2   8   0.0081   0.0157   0.0054   0.0025  -0.0060  -0.0022   0.00    1.1
2022/07/05 00:23:30.000  -2508506.7692  -4637175.0420   3579500.4927   2   8   0.0080   0.0155   0.0053   0.0025  -0.0060  -0.0021   0.00    1.1
2022/07/05 00:23:45.000  -2508506.7661  -4637175.0478   3579500.4947   2   8   0.0079   0.0153   0.0053   0.0025  -0.0059  -0.0021   0.00    1.1
2022/07/05 00:24:00.000  -2508506.7631  -4637175.0533   3579500.4964   2   8   0.0078   0.0151   0.0052   0.0024  -0.0059  -0.0021   0.00    1.2
2022/07/05 00:24:15.000  -2508506.7608  -4637175.0575   3579500.4983   2   8   0.0077   0.0149   0.0051   0.0024  -0.0058  -0.0021   0.00    1.2
2022/07/05 00:24:30.000  -2508506.7578  -4637175.0615   3579500.5000   2   8   0.0076   0.0148   0.0051   0.0023  -0.0058  -0.0020   0.00    1.2
2022/07/05 00:24:45.000  -2508506.7545  -4637175.0669   3579500.5021   2   8   0.0075   0.0146   0.0050   0.0023  -0.0057  -0.0020   0.00    1.2
2022/07/05 00:25:00.000  -2508506.7510  -4637175.0717   3579500.5039   2   8   0.0074   0.0144   0.0050   0.0023  -0.0057  -0.0020   0.00    1.2
2022/07/05 00:25:15.000  -2508506.7478  -4637175.0759   3579500.5060   2   8   0.0073   0.0143   0.0049   0.0022  -0.0056  -0.0019   0.00    1.8
2022/07/05 00:25:30.000  -2508506.7451  -4637175.0792   3579500.5079   2   8   0.0072   0.0141   0.0049   0.0022  -0.0056  -0.0019   0.00    1.9
2022/07/05 00:25:45.000  -2508506.7428  -4637175.0839   3579500.5101   2   8   0.0071   0.0139   0.0048   0.0022  -0.0055  -0.0019   0.00    1.9
2022/07/05 00:26:00.000  -2508506.7403  -4637175.0875   3579500.5118   2   8   0.0070   0.0138   0.0048   0.0022  -0.0055  -0.0019   0.00    1.9
2022/07/05 00:26:15.000  -2508506.7375  -4637175.0906   3579500.5137   2   8   0.0069   0.0136   0.0047   0.0021  -0.0055  -0.0018   0.00    2.0
2022/07/05 00:26:30.000  -2508506.7349  -4637175.0931   3579500.5156   2   8   0.0069   0.0135   0.0047   0.0021  -0.0054  -0.0018   0.00    2.0
2022/07/05 00:26:45.000  -2508506.7330  -4637175.0950   3579500.5173   2   8   0.0068   0.0133   0.0046   0.0021  -0.0054  -0.0018   0.00    2.0
2022/07/05 00:27:00.000  -2508506.7318  -4637175.0988   3579500.5188   2   8   0.0067   0.0132   0.0046   0.0020  -0.0053  -0.0018   0.00    2.1
2022/07/05 00:27:15.000  -2508506.7311  -4637175.1011   3579500.5203   2   8   0.0066   0.0130   0.0045   0.0020  -0.0053  -0.0017   0.00    2.1
2022/07/05 00:27:30.000  -2508506.7302  -4637175.1036   3579500.5215   2   8   0.0066   0.0129   0.0045   0.0020  -0.0052  -0.0017   0.00    2.1
2022/07/05 00:27:45.000  -2508506.7292  -4637175.1047   3579500.5220   2   8   0.0065   0.0127   0.0044   0.0020  -0.0052  -0.0017   0.00    2.2
2022/07/05 00:28:00.000  -2508506.7281  -4637175.1028   3579500.5223   2   8   0.0064   0.0126   0.0044   0.0020  -0.0051  -0.0017   0.00    2.2
2022/07/05 00:28:15.000  -2508506.7271  -4637175.1012   3579500.5226   2   8   0.0063   0.0125   0.0043   0.0019  -0.0051  -0.0017   0.00    2.2
2022/07/05 00:28:30.000  -2508506.7263  -4637175.1013   3579500.5231   2   8   0.0063   0.0123   0.0043   0.0019  -0.0051  -0.0017   0.00    2.3
2022/07/05 00:28:45.000  -2508506.7256  -4637175.1005   3579500.5234   2   8   0.0062   0.0122   0.0042   0.0019  -0.0050  -0.0016   0.00    2.3
2022/07/05 00:29:00.000  -2508506.7248  -4637175.0986   3579500.5233   2   8   0.0061   0.0121   0.0042   0.0019  -0.0050  -0.0016   0.00    2.3
2022/07/05 00:29:15.000  -2508506.7242  -4637175.0994   3579500.5234   2   8   0.0061   0.0119   0.0042   0.0019  -0.0049  -0.0016   0.00    2.4
2022/07/05 00:29:30.000  -2508506.7238  -4637175.0971   3579500.5228   2   8   0.0060   0.0118   0.0041   0.0018  -0.0049  -0.0016   0.00    2.4
2022/07/05 00:29:45.000  -2508506.7232  -4637175.0941   3579500.5222   2   8   0.0060   0.0117   0.0041   0.0018  -0.0048  -0.0016   0.00    2.4
2022/07/05 00:30:00.000  -2508506.7229  -4637175.0910   3579500.5213   2   8   0.0059   0.0116   0.0040   0.0018  -0.0048  -0.0016   0.00    2.5
2022/07/05 00:30:15.000  -2508506.7225  -4637175.0881   3579500.5206   2   8   0.0058   0.0115   0.0040   0.0018  -0.0048  -0.0015   0.00    2.5
2022/07/05 00:30:30.000  -2508506.7219  -4637175.0842   3579500.5198   2   8   0.0058   0.0113   0.0040   0.0018  -0.0047  -0.0015   0.00    2.5
2022/07/05 00:30:45.000  -2508506.7209  -4637175.0820   3579500.5191   2   8   0.0057   0.0112   0.0039   0.0017  -0.0047  -0.0015   0.00    2.6
2022/07/05 00:31:00.000  -2508506.7200  -4637175.0791   3579500.5182   2   8   0.0057   0.0111   0.0039   0.0017  -0.0046  -0.0015   0.00    2.6
2022/07/05 00:31:15.000  -2508506.7197  -4637175.0760   3579500.5172   2   8   0.0056   0.0110   0.0039   0.0017  -0.0046  -0.0015   0.00    2.6
2022/07/05 00:31:30.000  -2508506.7191  -4637175.0730   3579500.5158   2   8   0.0056   0.0109   0.0038   0.0017  -0.0046  -0.0015   0.00    2.7
2022/07/05 00:31:45.000  -2508506.6399  -4637175.0168   3579500.4709   1   8   0.0008   0.0010   0.0011   0.0006  -0.0008  -0.0008   0.00    3.3
2022/07/05 00:32:00.000  -2508506.6396  -4637175.0165   3579500.4705   1   8   0.0008   0.0009   0.0011   0.0006  -0.0008  -0.0008   0.00    3.4
2022/07/05 00:32:15.000  -2508506.6394  -4637175.0163   3579500.4700   1   8   0.0008   0.0009   0.0011   0.0006  -0.0008  -0.0008   0.00    3.4
2022/07/05 00:32:30.000  -2508506.6410  -4637175.0176   3579500.4715   1   8   0.0008   0.0009   0.0011   0.0006  -0.0008  -0.0008   0.00    3.9
2022/07/05 00:32:45.000  -2508506.6424  -4637175.0186   3579500.4728   1   8   0.0007   0.0009   0.0011   0.0006  -0.0008  -0.0008   0.00    4.4
2022/07/05 00:33:00.000  -2508506.6439  -4637175.0196   3579500.4741   1   8   0.0007   0.0009   0.0011   0.0006  -0.0008  -0.0008   0.00    4.6
2022/07/05 00:33:15.000  -2508506.7076  -4637175.1822   3579500.5211   2   8   0.0052   0.0104   0.0036   0.0015  -0.0044  -0.0014   0.00    1.0
2022/07/05 00:33:30.000  -2508506.7079  -4637175.1826   3579500.5198   2   8   0.0052   0.0104   0.0036   0.0014  -0.0043  -0.0013   0.00    1.0
2022/07/05 00:33:45.000  -2508506.7076  -4637175.1829   3579500.5185   2   8   0.0051   0.0103   0.0035   0.0014  -0.0043  -0.0013   0.00    1.0
2022/07/05 00:34:00.000  -2508506.7077  -4637175.1838   3579500.5174   2   8   0.0051   0.0103   0.0035   0.0014  -0.0043  -0.0013   0.00    1.1
2022/07/05 00:34:15.000  -2508506.7077  -4637175.1846   3579500.5163   2   8   0.0050   0.0102   0.0035   0.0013  -0.0043  -0.0013   0.00    1.1
2022/07/05 00:34:30.000  -2508506.7073  -4637175.1855   3579500.5151   2   8   0.0050   0.0102   0.0035   0.0013  -0.0043  -0.0013   0.00    1.1
2022/07/05 00:34:45.000  -2508506.7072  -4637175.1860   3579500.5141   2   8   0.0050   0.0101   0.0034   0.0012  -0.0042  -0.0013   0.00    1.1
2022/07/05 00:35:00.000  -2508506.7069  -4637175.1866   3579500.5131   2   8   0.0049   0.0101   0.0034   0.0012  -0.0042  -0.0013   0.00    1.1
2022/07/05 00:35:15.000  -2508506.7069  -4637175.1871   3579500.5121   2   8   0.0049   0.0101   0.0034   0.0011  -0.0042  -0.0012   0.00    1.1
2022/07/05 00:35:30.000  -2508506.7065  -4637175.1866   3579500.5110   2   8   0.0048   0.0100   0.0033   0.0011  -0.0042  -0.0012   0.00    1.1
2022/07/05 00:35:45.000  -2508506.7060  -4637175.1856   3579500.5096   2   8   0.0048   0.0100   0.0033   0.0011  -0.0042  -0.0012   0.00    1.2
2022/07/05 00:36:00.000  -2508506.7058  -4637175.1849   3579500.5085   2   8   0.0048   0.0099   0.0033   0.0010  -0.0042  -0.0012   0.00    1.2
2022/07/05 00:36:15.000  -2508506.7055  -4637175.1836   3579500.5073   2   8   0.0047   0.0099   0.0033   0.0010  -0.0041  -0.0012   0.00    1.2
2022/07/05 00:36:30.000  -2508506.7055  -4637175.1827   3579500.5063   2   8   0.0047   0.0098   0.0032   0.0009  -0.0041  -0.0012   0.00    1.2
2022/07/05 00:36:45.000  -2508506.7055  -4637175.1819   3579500.5054   2   8   0.0046   0.0098   0.0032   0.0009  -0.0041  -0.0012   0.00    1.2
2022/07/05 00:37:00.000  -2508506.7053  -4637175.1813   3579500.5045   2   7   0.0046   0.0097   0.0032   0.0008  -0.0041  -0.0012   0.00    2.2
2022/07/05 00:37:15.000  -2508506.7051  -4637175.1805   3579500.5037   2   7   0.0046   0.0097   0.0032   0.0008  -0.0041  -0.0011   0.00    2.3
2022/07/05 00:37:30.000  -2508506.7049  -4637175.1791   3579500.5030   2   7   0.0045   0.0097   0.0032   0.0007  -0.0040  -0.0011   0.00    2.4
2022/07/05 00:37:45.000  -2508506.7048  -4637175.1780   3579500.5025   2   7   0.0045   0.0096   0.0031   0.0007  -0.0040  -0.0011   0.00    2.5
2022/07/05 00:38:00.000  -2508506.7046  -4637175.1767   3579500.5020   2   7   0.0045   0.0096   0.0031   0.0007  -0.0040  -0.0011   0.00    2.5
2022/07/05 00:38:15.000  -2508506.6481  -4637175.0170   3579500.4749   1   7   0.0009   0.0009   0.0012   0.0007  -0.0009  -0.0009   0.00    6.6
2022/07/05 00:38:30.000  -2508506.6479  -4637175.0168   3579500.4745   1   7   0.0009   0.0009   0.0012   0.0007  -0.0009  -0.0009   0.00    6.7
2022/07/05 00:38:45.000  -2508506.6477  -4637175.0166   3579500.4742   1   7   0.0009   0.0009   0.0012   0.0007  -0.0009  -0.0009   0.00    6.8
2022/07/05 00:39:00.000  -2508506.6475  -4637175.0164   3579500.4738   1   7   0.0009   0.0009   0.0012   0.0007  -0.0009  -0.0009   0.00    6.9
2022/07/05 00:39:15.000  -2508506.6473  -4637175.0162   3579500.4734   1   7   0.0009   0.0009   0.0012   0.0007  -0.0009  -0.0009   0.00    6.9
2022/07/05 00:39:30.000  -2508506.6472  -4637175.0160   3579500.4730   1   7   0.0009   0.0009   0.0012   0.0007  -0.0009  -0.0009   0.00    7.0
2022/07/05 00:39:45.000  -2508506.6471  -4637175.0160   3579500.4728   1   7   0.0009   0.0009   0.0012   0.0007  -0.0009  -0.0009   0.00    7.0
2022/07/05 00:40:00.000  -2508506.6470  -4637175.0158   3579500.4726   1   7   0.0009   0.0009   0.0012   0.0007  -0.0009  -0.0009   0.00    7.1
2022/07/05 00:40:15.000  -2508506.6469  -4637175.0157   3579500.4723   1   7   0.0009   0.0009   0.0012   0.0007  -0.0009  -0.0009   0.00    7.1
2022/07/05 00:40:30.000  -2508506.6468  -4637175.0156   3579500.4721   1   7   0.0009   0.0009   0.0012   0.0007  -0.0009  -0.0009   0.00    7.2
2022/07/05 00:40:45.000  -2508506.6468  -4637175.0155   3579500.4719   1   7   0.0009   0.0009   0.0012   0.0007  -0.0009  -0.0009   0.00    9.5
2022/07/05 00:41:00.000  -2508506.6467  -4637175.0155   3579500.4716   1   7   0.0008   0.0009   0.0012   0.0007  -0.0009  -0.0009   0.00   10.7
2022/07/05 00:41:15.000  -2508506.6466  -4637175.0154   3579500.4713   1   7   0.0008   0.0009   0.0012   0.0007  -0.0009  -0.0009   0.00   11.8
2022/07/05 00:41:30.000  -2508506.6464  -4637175.0153   3579500.4710   1   7   0.0008   0.0009   0.0012   0.0007  -0.0009  -0.0009   0.00   12.9
2022/07/05 00:41:45.000  -2508506.6462  -4637175.0152   3579500.4706   1   7   0.0008   0.0009   0.0012   0.0007  -0.0009  -0.0009   0.00   14.0
2022/07/05 00:42:00.000  -2508506.6460  -4637175.0151   3579500.4702   1   7   0.0008   0.0009   0.0012   0.0007  -0.0009  -0.0009   0.00   15.1
2022/07/05 00:42:15.000  -2508506.6458  -4637175.0150   3579500.4699   1   7   0.0008   0.0009   0.0012   0.0007  -0.0008  -0.0009   0.00   16.2
2022/07/05 00:42:30.000  -2508506.6456  -4637175.0150   3579500.4696   1   7   0.0008   0.0009   0.0012   0.0007  -0.0008  -0.0009   0.00   17.3
2022/07/05 00:42:45.000  -2508506.6455  -4637175.0149   3579500.4693   1   7   0.0008   0.0009   0.0012   0.0007  -0.0008  -0.0009   0.00   18.5
2022/07/05 00:43:00.000  -2508506.6454  -4637175.0148   3579500.4690   1   7   0.0008   0.0009   0.0012   0.0007  -0.0008  -0.0009   0.00   19.7
2022/07/05 00:43:15.000  -2508506.6452  -4637175.0148   3579500.4688   1   7   0.0008   0.0009   0.0012   0.0007  -0.0008  -0.0009   0.00   21.0
2022/07/05 00:43:30.000  -2508506.6450  -4637175.0147   3579500.4684   1   7   0.0008   0.0009   0.0012   0.0007  -0.0008  -0.0009   0.00   22.3
2022/07/05 00:43:45.000  -2508506.6449  -4637175.0146   3579500.4681   1   7   0.0008   0.0009   0.0012   0.0007  -0.0008  -0.0009   0.00   23.6
2022/07/05 00:44:00.000  -2508506.6448  -4637175.0145   3579500.4677   1   7   0.0008   0.0009   0.0012   0.0007  -0.0008  -0.0009   0.00   24.9
2022/07/05 00:44:15.000  -2508506.6447  -4637175.0144   3579500.4674   1   7   0.0008   0.0009   0.0012   0.0007  -0.0008  -0.0009   0.00   26.2
2022/07/05 00:44:30.000  -2508506.6445  -4637175.0143   3579500.4670   1   7   0.0008   0.0009   0.0012   0.0007  -0.0008  -0.0009   0.00   27.5
2022/07/05 00:44:45.000  -2508506.6445  -4637175.0142   3579500.4667   1   7   0.0008   0.0009   0.0012   0.0007  -0.0008  -0.0009   0.00   28.9
2022/07/05 00:45:00.000  -2508506.6443  -4637175.0141   3579500.4663   1   7   0.0008   0.0009   0.0012   0.0007  -0.0008  -0.0009   0.00   30.2
2022/07/05 00:45:15.000  -2508506.6443  -4637175.0140   3579500.4659   1   7   0.0008   0.0009   0.0012   0.0007  -0.0008  -0.0009   0.00   31.6
2022/07/05 00:45:30.000  -2508506.6441  -4637175.0139   3579500.4654   1   7   0.0008   0.0009   0.0012   0.0007  -0.0008  -0.0009   0.00   32.9
2022/07/05 00:45:45.000  -2508506.6439  -4637175.0138   3579500.4650   1   7   0.0008   0.0009   0.0012   0.0007  -0.0008  -0.0009   0.00   34.3
2022/07/05 00:46:00.000  -2508506.6438  -4637175.0137   3579500.4646   1   7   0.0008   0.0009   0.0012   0.0007  -0.0008  -0.0009   0.00   35.6
2022/07/05 00:46:15.000  -2508506.6436  -4637175.0136   3579500.4641   1   7   0.0008   0.0009   0.0012   0.0007  -0.0008  -0.0009   0.00   37.1
2022/07/05 00:46:30.000  -2508506.6434  -4637175.0135   3579500.4637   1   7   0.0008   0.0009   0.0012   0.0007  -0.0008  -0.0009   0.00   38.5
2022/07/05 00:46:45.000  -2508506.6433  -4637175.0135   3579500.4634   1   7   0.0008   0.0009   0.0012   0.0007  -0.0008  -0.0008   0.00   39.9
2022/07/05 00:47:00.000  -2508506.6431  -4637175.0134   3579500.4630   1   7   0.0008   0.0009   0.0012   0.0007  -0.0008  -0.0008   0.00   41.4
2022/07/05 00:47:15.000  -2508506.6430  -4637175.0133   3579500.4627   1   7   0.0008   0.0009   0.0012   0.0007  -0.0008  -0.0008   0.00   43.0
2022/07/05 00:47:30.000  -2508506.6429  -4637175.0133   3579500.4623   1   7   0.0008   0.0009   0.0011   0.0007  -0.0008  -0.0008   0.00   44.6
2022/07/05 00:47:45.000  -2508506.6428  -4637175.0133   3579500.4621   1   7   0.0008   0.0009   0.0011   0.0006  -0.0008  -0.0008   0.00   46.4
2022/07/05 00:48:00.000  -2508506.6427  -4637175.0132   3579500.4618   1   7   0.0008   0.0009   0.0011   0.0006  -0.0008  -0.0008   0.00   48.1
2022/07/05 00:48:15.000  -2508506.6426  -4637175.0132   3579500.4615   1   7   0.0008   0.0008   0.0011   0.0006  -0.0008  -0.0008   0.00   49.9
2022/07/05 00:48:30.000  -2508506.6425  -4637175.0132   3579500.4612   1   7   0.0008   0.0008   0.0011   0.0006  -0.0008  -0.0008   0.00   51.7
2022/07/05 00:48:45.000  -2508506.6423  -4637175.0132   3579500.4610   1   7   0.0008   0.0008   0.0011   0.0006  -0.0008  -0.0008   0.00   53.5
2022/07/05 00:49:00.000  -2508506.6423  -4637175.0134   3579500.4609   1   7   0.0008   0.0008   0.0011   0.0006  -0.0008  -0.0008   0.00   55.6
2022/07/05 00:49:15.000  -2508506.6423  -4637175.0135   3579500.4608   1   7   0.0008   0.0008   0.0011   0.0006  -0.0008  -0.0008   0.00   57.7
2022/07/05 00:49:30.000  -2508506.6422  -4637175.0136   3579500.4607   1   7   0.0008   0.0008   0.0011   0.0006  -0.0008  -0.0008   0.00   59.7
2022/07/05 00:49:45.000  -2508506.6421  -4637175.0137   3579500.4605   1   7   0.0008   0.0008   0.0011   0.0006  -0.0008  -0.0008   0.00   61.7
2022/07/05 00:50:00.000  -2508506.6421  -4637175.0138   3579500.4604   1   7   0.0008   0.0008   0.0011   0.0006  -0.0008  -0.0008   0.00   63.7
2022/07/05 00:50:15.000  -2508506.6419  -4637175.0139   3579500.4603   1   7   0.0008   0.0008   0.0011   0.0006  -0.0008  -0.0008   0.00   65.7
2022/07/05 00:50:30.000  -2508506.6418  -4637175.0140   3579500.4601   1   7   0.0008   0.0008   0.0011   0.0006  -0.0008  -0.0008   0.00   67.7
2022/07/05 00:50:45.000  -2508506.6417  -4637175.0142   3579500.4601   1   7   0.0008   0.0008   0.0011   0.0006  -0.0008  -0.0008   0.00   69.8
2022/07/05 00:51:00.000  -2508506.6415  -4637175.0142   3579500.4599   1   7   0.0008   0.0008   0.0011   0.0006  -0.0008  -0.0008   0.00   71.7
2022/07/05 00:51:15.000  -2508506.6413  -4637175.0143   3579500.4597   1   7   0.0008   0.0008   0.0011   0.0006  -0.0008  -0.0008   0.00   73.6
2022/07/05 00:51:30.000  -2508506.6411  -4637175.0144   3579500.4596   1   7   0.0007   0.0008   0.0011   0.0006  -0.0007  -0.0008   0.00   75.6
2022/07/05 00:51:45.000  -2508506.6409  -4637175.0145   3579500.4594   1   7   0.0007   0.0008   0.0011   0.0006  -0.0007  -0.0008   0.00   77.5
2022/07/05 00:52:00.000  -2508506.6407  -4637175.0146   3579500.4594   1   7   0.0007   0.0008   0.0011   0.0006  -0.0007  -0.0008   0.00   79.5
2022/07/05 00:52:15.000  -2508506.6405  -4637175.0148   3579500.4593   1   7   0.0007   0.0008   0.0011   0.0006  -0.0007  -0.0008   0.00   81.6
2022/07/05 00:52:30.000  -2508506.6403  -4637175.0149   3579500.4592   1   7   0.0007   0.0008   0.0011   0.0006  -0.0007  -0.0008   0.00   83.7
2022/07/05 00:52:45.000  -2508506.6401  -4637175.0150   3579500.4591   1   7   0.0007   0.0008   0.0011   0.0006  -0.0007  -0.0008   0.00   85.6
2022/07/05 00:53:00.000  -2508506.6399  -4637175.0151   3579500.4590   1   7   0.0007   0.0008   0.0011   0.0006  -0.0007  -0.0008   0.00   87.5
2022/07/05 00:53:15.000  -2508506.6397  -4637175.0152   3579500.4589   1   7   0.0007   0.0008   0.0011   0.0006  -0.0007  -0.0008   0.00   89.4
2022/07/05 00:53:30.000  -2508506.6395  -4637175.0152   3579500.4587   1   7   0.0007   0.0008   0.0011   0.0006  -0.0007  -0.0008   0.00   91.3
2022/07/05 00:53:45.000  -2508506.6393  -4637175.0153   3579500.4586   1   7   0.0007   0.0008   0.0011   0.0006  -0.0007  -0.0008   0.00   93.2
2022/07/05 00:54:00.000  -2508506.6391  -4637175.0153   3579500.4584   1   7   0.0007   0.0008   0.0011   0.0006  -0.0007  -0.0008   0.00   95.1
2022/07/05 00:54:15.000  -2508506.6390  -4637175.0154   3579500.4584   1   7   0.0007   0.0008   0.0011   0.0006  -0.0007  -0.0008   0.00   97.0
2022/07/05 00:54:30.000  -2508506.6388  -4637175.0155   3579500.4583   1   7   0.0007   0.0008   0.0011   0.0006  -0.0007  -0.0008   0.00   98.7
2022/07/05 00:54:45.000  -2508506.6386  -4637175.0155   3579500.4581   1   7   0.0007   0.0008   0.0011   0.0006  -0.0007  -0.0008   0.00  100.2
2022/07/05 00:55:00.000  -2508506.6384  -4637175.0155   3579500.4579   1   7   0.0007   0.0008   0.0011   0.0006  -0.0007  -0.0008   0.00  101.8
2022/07/05 00:55:15.000  -2508506.6383  -4637175.0155   3579500.4578   1   7   0.0007   0.0008   0.0010   0.0006  -0.0007  -0.0007   0.00  103.1
2022/07/05 00:55:30.000  -2508506.6381  -4637175.0155   3579500.4576   1   7   0.0007   0.0008   0.0010   0.0006  -0.0007  -0.0007   0.00  104.6
2022/07/05 00:55:45.000  -2508506.6379  -4637175.0155   3579500.4575   1   7   0.0007   0.0008   0.0010   0.0006  -0.0007  -0.0007   0.00  106.0
2022/07/05 00:56:00.000  -2508506.6378  -4637175.0154   3579500.4574   1   7   0.0007   0.0008   0.0010   0.0006  -0.0007  -0.0007   0.00  107.4
2022/07/05 00:56:15.000  -2508506.6376  -4637175.0154   3579500.4572   1   7   0.0007   0.0008   0.0010   0.0006  -0.0007  -0.0007   0.00  108.7
2022/07/05 00:56:30.000  -2508506.6375  -4637175.0154   3579500.4572   1   7   0.0007   0.0008   0.0010   0.0006  -0.0007  -0.0007   0.00  110.1
2022/07/05 00:56:45.000  -2508506.6374  -4637175.0154   3579500.4571   1   7   0.0007   0.0008   0.0010   0.0006  -0.0007  -0.0007   0.00  111.3
2022/07/05 00:57:00.000  -2508506.6373  -4637175.0154   3579500.4570   1   7   0.0007   0.0008   0.0010   0.0006  -0.0007  -0.0007   0.00  112.7
2022/07/05 00:57:15.000  -2508506.6372  -4637175.0155   3579500.4570   1   7   0.0007   0.0008   0.0010   0.0006  -0.0007  -0.0007   0.00  114.0
2022/07/05 00:57:30.000  -2508506.6371  -4637175.0155   3579500.4570   1   7   0.0007   0.0008   0.0010   0.0006  -0.0007  -0.0007   0.00  115.1
2022/07/05 00:57:45.000  -2508506.6371  -4637175.0157   3579500.4571   1   7   0.0007   0.0008   0.0010   0.0006  -0.0007  -0.0007   0.00  116.0
2022/07/05 00:58:00.000  -2508506.6370  -4637175.0157   3579500.4571   1   7   0.0007   0.0008   0.0010   0.0006  -0.0007  -0.0007   0.00  117.0
2022/07/05 00:58:15.000  -2508506.6369  -4637175.0158   3579500.4572   1   7   0.0007   0.0008   0.0010   0.0006  -0.0007  -0.0007   0.00  117.8
2022/07/05 00:58:30.000  -2508506.6369  -4637175.0159   3579500.4572   1   7   0.0007   0.0008   0.0010   0.0006  -0.0007  -0.0007   0.00  118.3
2022/07/05 00:58:45.000  -2508506.6368  -4637175.0160   3579500.4573   1   7   0.0007   0.0008   0.0010   0.0006  -0.0007  -0.0007   0.00  119.0
2022/07/05 00:59:00.000  -2508506.6368  -4637175.0160   3579500.4574   1   7   0.0007   0.0007   0.0010   0.0006  -0.0007  -0.0007   0.00  119.6
2022/07/05 00:59:15.000  -2508506.6400  -4637175.0177   3579500.4624   2   8   0.0008   0.0009   0.0012   0.0007  -0.0008  -0.0008   0.00    1.1
2022/07/05 00:59:30.000  -2508506.6399  -4637175.0178   3579500.4624   2   8   0.0008   0.0009   0.0012   0.0007  -0.0008  -0.0008   0.00    1.1
2022/07/05 00:59:45.000  -2508506.6399  -4637175.0178   3579500.4625   2   8   0.0008   0.0009   0.0012   0.0007  -0.0008  -0.0008   0.00    1.2
2022/07/05 01:00:00.000  -2508506.6398  -4637175.0179   3579500.4625   2   8   0.0008   0.0009   0.0012   0.0007  -0.0008  -0.0008   0.00    1.3
2022/07/05 01:00:15.000  -2508506.6397  -4637175.0179   3579500.4626   2   8   0.0008   0.0009   0.0012   0.0007  -0.0008  -0.0008   0.00    1.4
2022/07/05 01:00:30.000  -2508506.6396  -4637175.0180   3579500.4626   2   8   0.0008   0.0009   0.0012   0.0007  -0.0008  -0.0008   0.00    1.6
2022/07/05 01:00:45.000  -2508506.6396  -4637175.0180   3579500.4627   2   8   0.0008   0.0009   0.0012   0.0007  -0.0008  -0.0008   0.00    1.7
2022/07/05 01:01:00.000  -2508506.6395  -4637175.0181   3579500.4628   2   8   0.0008   0.0009   0.0012   0.0007  -0.0008  -0.0008   0.00    1.9
2022/07/05 01:01:15.000  -2508506.6394  -4637175.0181   3579500.4628   2   8   0.0008   0.0009   0.0011   0.0007  -0.0008  -0.0008   0.00    2.1
2022/07/05 01:01:30.000  -2508506.6393  -4637175.0182   3579500.4628   2   8   0.0008   0.0009   0.0011   0.0007  -0.0008  -0.0008   0.00    2.4
2022/07/05 01:01:45.000  -2508506.6392  -4637175.0182   3579500.4628   2   8   0.0008   0.0009   0.0011   0.0007  -0.0008  -0.0008   0.00    2.6
2022/07/05 01:02:00.000  -2508506.6391  -4637175.0183   3579500.4628   2   8   0.0008   0.0009   0.0011   0.0007  -0.0008  -0.0008   0.00    2.8
2022/07/05 01:02:15.000  -2508506.6351  -4637175.0165   3579500.4568   1   8   0.0006   0.0007   0.0009   0.0005  -0.0006  -0.0006   0.00    3.1
2022/07/05 01:02:30.000  -2508506.6351  -4637175.0166   3579500.4568   1   8   0.0006   0.0007   0.0009   0.0005  -0.0006  -0.0006   0.00    3.3
2022/07/05 01:02:45.000  -2508506.6350  -4637175.0167   3579500.4569   1   8   0.0006   0.0007   0.0009   0.0005  -0.0006  -0.0006   0.00    3.5
2022/07/05 01:03:00.000  -2508506.6349  -4637175.0167   3579500.4570   1   8   0.0006   0.0007   0.0009   0.0005  -0.0006  -0.0006   0.00    3.7
2022/07/05 01:03:15.000  -2508506.6350  -4637175.0169   3579500.4571   1   8   0.0006   0.0007   0.0009   0.0005  -0.0006  -0.0006   0.00    3.9
2022/07/05 01:03:30.000  -2508506.6350  -4637175.0170   3579500.4573   1   8   0.0006   0.0007   0.0009   0.0005  -0.0006  -0.0006   0.00    4.2
2022/07/05 01:03:45.000  -2508506.6350  -4637175.0171   3579500.4574   1   8   0.0006   0.0007   0.0009   0.0005  -0.0006  -0.0006   0.00    4.3
2022/07/05 01:04:00.000  -2508506.6350  -4637175.0172   3579500.4576   1   8   0.0006   0.0007   0.0009   0.0005  -0.0006  -0.0006   0.00    4.5
2022/07/05 01:04:15.000  -2508506.6351  -4637175.0173   3579500.4579   1   8   0.0006   0.0007   0.0009   0.0005  -0.0006  -0.0006   0.00    4.7
2022/07/05 01:04:30.000  -2508506.6351  -4637175.0175   3579500.4581   1   8   0.0006   0.0007   0.0009   0.0005  -0.0006  -0.0006   0.00    4.9
2022/07/05 01:04:45.000  -2508506.6352  -4637175.0176   3579500.4584   1   8   0.0006   0.0007   0.0008   0.0005  -0.0006  -0.0006   0.00    6.6
2022/07/05 01:05:00.000  -2508506.6354  -4637175.0178   3579500.4588   1   7   0.0006   0.0007   0.0009   0.0005  -0.0006  -0.0006   0.00   11.3
2022/07/05 01:05:15.000  -2508506.6354  -4637175.0179   3579500.4590   1   7   0.0006   0.0007   0.0009   0.0005  -0.0006  -0.0006   0.00   12.9
2022/07/05 01:05:30.000  -2508506.6355  -4637175.0181   3579500.4593   1   7   0.0006   0.0007   0.0009   0.0005  -0.0006  -0.0006   0.00   14.4
2022/07/05 01:05:45.000  -2508506.6356  -4637175.0182   3579500.4596   1   7   0.0006   0.0007   0.0009   0.0005  -0.0006  -0.0006   0.00   16.0
2022/07/05 01:06:00.000  -2508506.6357  -4637175.0183   3579500.4598   1   7   0.0006   0.0007   0.0008   0.0005  -0.0006  -0.0006   0.00   17.4
2022/07/05 01:06:15.000  -2508506.6358  -4637175.0184   3579500.4600   1   7   0.0006   0.0007   0.0008   0.0005  -0.0006  -0.0006   0.00   18.8
2022/07/05 01:06:30.000  -2508506.6359  -4637175.0185   3579500.4603   1   7   0.0006   0.0007   0.0008   0.0005  -0.0006  -0.0006   0.00   20.2
2022/07/05 01:06:45.000  -2508506.6360  -4637175.0186   3579500.4605   1   7   0.0006   0.0007   0.0008   0.0005  -0.0006  -0.0006   0.00   21.5
2022/07/05 01:07:00.000  -2508506.6361  -4637175.0186   3579500.4608   1   7   0.0006   0.0007   0.0008   0.0005  -0.0005  -0.0006   0.00   22.8
2022/07/05 01:07:15.000  -2508506.6362  -4637175.0187   3579500.4611   1   7   0.0006   0.0007   0.0008   0.0005  -0.0005  -0.0006   0.00   24.0
2022/07/05 01:07:30.000  -2508506.6363  -4637175.0188   3579500.4614   1   7   0.0006   0.0007   0.0008   0.0005  -0.0005  -0.0006   0.00   25.1
2022/07/05 01:07:45.000  -2508506.6381  -4637175.0191   3579500.4641   2   8   0.0007   0.0008   0.0010   0.0006  -0.0007  -0.0007   0.00    1.2
2022/07/05 01:08:00.000  -2508506.6380  -4637175.0191   3579500.4641   2   8   0.0007   0.0008   0.0010   0.0006  -0.0007  -0.0007   0.00    1.3
2022/07/05 01:08:15.000  -2508506.6380  -4637175.0191   3579500.4642   2   8   0.0007   0.0008   0.0010   0.0006  -0.0007  -0.0007   0.00    1.4
2022/07/05 01:08:30.000  -2508506.6380  -4637175.0191   3579500.4643   2   8   0.0007   0.0008   0.0010   0.0006  -0.0007  -0.0007   0.00    1.5
2022/07/05 01:08:45.000  -2508506.6380  -4637175.0191   3579500.4644   2   8   0.0007   0.0008   0.0010   0.0006  -0.0007  -0.0007   0.00    1.6
2022/07/05 01:09:00.000  -2508506.6379  -4637175.0191   3579500.4644   2   8   0.0007   0.0008   0.0010   0.0006  -0.0007  -0.0007   0.00    1.6
2022/07/05 01:09:15.000  -2508506.6379  -4637175.0191   3579500.4645   2   8   0.0007   0.0008   0.0010   0.0006  -0.0007  -0.0007   0.00    1.7
2022/07/05 01:09:30.000  -2508506.6379  -4637175.0191   3579500.4645   2   8   0.0007   0.0008   0.0010   0.0006  -0.0007  -0.0007   0.00    1.7
2022/07/05 01:09:45.000  -2508506.6378  -4637175.0190   3579500.4646   2   8   0.0007   0.0008   0.0009   0.0006  -0.0007  -0.0007   0.00    1.8
2022/07/05 01:10:00.000  -2508506.6378  -4637175.0190   3579500.4646   2   8   0.0007   0.0008   0.0009   0.0006  -0.0006  -0.0006   0.00    1.9
2022/07/05 01:10:15.000  -2508506.6377  -4637175.0190   3579500.4647   2   8   0.0007   0.0008   0.0009   0.0006  -0.0006  -0.0006   0.00    1.9
2022/07/05 01:10:30.000  -2508506.6377  -4637175.0190   3579500.4648   2   8   0.0007   0.0008   0.0009   0.0006  -0.0006  -0.0006   0.00    2.0
2022/07/05 01:10:45.000  -2508506.6376  -4637175.0190   3579500.4649   2   8   0.0007   0.0008   0.0009   0.0006  -0.0006  -0.0006   0.00    2.1
2022/07/05 01:11:00.000  -2508506.6375  -4637175.0190   3579500.4649   2   8   0.0007   0.0008   0.0009   0.0006  -0.0006  -0.0006   0.00    2.1
2022/07/05 01:11:15.000  -2508506.6375  -4637175.0190   3579500.4650   2   8   0.0007   0.0008   0.0009   0.0006  -0.0006  -0.0006   0.00    2.2
2022/07/05 01:11:30.000  -2508506.6374  -4637175.0190   3579500.4650   2   8   0.0007   0.0008   0.0009   0.0006  -0.0006  -0.0006   0.00    2.3
2022/07/05 01:11:45.000  -2508506.6373  -4637175.0190   3579500.4651   2   8   0.0007   0.0008   0.0009   0.0006  -0.0006  -0.0006   0.00    2.4
2022/07/05 01:12:00.000  -2508506.6372  -4637175.0189   3579500.4651   2   8   0.0007   0.0008   0.0009   0.0006  -0.0006  -0.0006   0.00    2.4
2022/07/05 01:12:15.000  -2508506.6372  -4637175.0189   3579500.4652   2   8   0.0007   0.0008   0.0009   0.0006  -0.0006  -0.0006   0.00    2.5
2022/07/05 01:12:30.000  -2508506.6371  -4637175.0189   3579500.4652   2   8   0.0007   0.0008   0.0009   0.0006  -0.0006  -0.0006   0.00    2.6
2022/07/05 01:12:45.000  -2508506.6370  -4637175.0189   3579500.4652   2   8   0.0007   0.0008   0.0009   0.0006  -0.0006  -0.0006   0.00    2.7
2022/07/05 01:13:00.000  -2508506.6369  -4637175.0189   3579500.4653   2   8   0.0007   0.0008   0.0009   0.0006  -0.0006  -0.0006   0.00    2.7
2022/07/05 01:13:15.000  -2508506.6368  -4637175.0189   3579500.4654   2   8   0.0007   0.0008   0.0009   0.0006  -0.0006  -0.0006   0.00    2.8
2022/07/05 01:13:30.000  -2508506.6368  -4637175.0189   3579500.4654   2   8   0.0007   0.0008   0.0009   0.0006  -0.0006  -0.0006   0.00    2.9
2022/07/05 01:13:45.000  -2508506.6369  -4637175.0201   3579500.4695   1   8   0.0005   0.0006   0.0007   0.0004  -0.0005  -0.0005   0.00    3.0
2022/07/05 01:14:00.000  -2508506.6369  -4637175.0202   3579500.4697   1   8   0.0005   0.0006   0.0007   0.0004  -0.0005  -0.0005   0.00    3.1
2022/07/05 01:14:15.000  -2508506.6368  -4637175.0202   3579500.4700   1   8   0.0005   0.0006   0.0007   0.0004  -0.0005  -0.0005   0.00    3.2
2022/07/05 01:14:30.000  -2508506.6368  -4637175.0203   3579500.4702   1   8   0.0005   0.0006   0.0007   0.0004  -0.0005  -0.0005   0.00    3.2
2022/07/05 01:14:45.000  -2508506.6367  -4637175.0203   3579500.4704   1   8   0.0005   0.0006   0.0007   0.0004  -0.0005  -0.0005   0.00    3.3
2022/07/05 01:15:00.000  -2508506.6366  -4637175.0203   3579500.4705   1   8   0.0005   0.0006   0.0007   0.0004  -0.0005  -0.0005   0.00    3.4
2022/07/05 01:15:15.000  -2508506.6366  -4637175.0203   3579500.4706   1   8   0.0005   0.0006   0.0007   0.0004  -0.0005  -0.0005   0.00    3.5
2022/07/05 01:15:30.000  -2508506.6365  -4637175.0203   3579500.4708   1   8   0.0005   0.0006   0.0007   0.0004  -0.0005  -0.0005   0.00    3.6
2022/07/05 01:15:45.000  -2508506.6365  -4637175.0203   3579500.4709   1   8   0.0005   0.0006   0.0007   0.0004  -0.0005  -0.0005   0.00    3.7
2022/07/05 01:16:00.000  -2508506.6364  -4637175.0203   3579500.4711   1   8   0.0005   0.0006   0.0007   0.0004  -0.0005  -0.0005   0.00    3.7
2022/07/05 01:16:15.000  -2508506.6364  -4637175.0203   3579500.4712   1   8   0.0005   0.0006   0.0007   0.0004  -0.0005  -0.0005   0.00    4.5
2022/07/05 01:16:30.000  -2508506.6364  -4637175.0204   3579500.4714   1   8   0.0005   0.0006   0.0007   0.0004  -0.0005  -0.0005   0.00    5.3
2022/07/05 01:16:45.000  -2508506.6364  -4637175.0204   3579500.4715   1   8   0.0005   0.0006   0.0007   0.0004  -0.0005  -0.0005   0.00    6.1
2022/07/05 01:17:00.000  -2508506.6363  -4637175.0204   3579500.4717   1   8   0.0005   0.0006   0.0007   0.0004  -0.0005  -0.0005   0.00    7.0
2022/07/05 01:17:15.000  -2508506.6364  -4637175.0204   3579500.4718   1   8   0.0005   0.0006   0.0007   0.0004  -0.0005  -0.0005   0.00    7.8
2022/07/05 01:17:30.000  -2508506.6364  -4637175.0204   3579500.4720   1   8   0.0005   0.0006   0.0007   0.0004  -0.0005  -0.0005   0.00    8.6
2022/07/05 01:17:45.000  -2508506.6364  -4637175.0204   3579500.4722   1   8   0.0005   0.0006   0.0007   0.0004  -0.0004  -0.0004   0.00    9.4
2022/07/05 01:18:00.000  -2508506.6363  -4637175.0204   3579500.4723   1   8   0.0005   0.0006   0.0007   0.0004  -0.0004  -0.0004   0.00   10.3
2022/07/05 01:18:15.000  -2508506.6363  -4637175.0205   3579500.4724   1   8   0.0005   0.0006   0.0007   0.0004  -0.0004  -0.0004   0.00   11.2
2022/07/05 01:18:30.000  -2508506.6363  -4637175.0205   3579500.4725   1   8   0.0005   0.0006   0.0007   0.0004  -0.0004  -0.0004   0.00   12.0
2022/07/05 01:18:45.000  -2508506.6363  -4637175.0205   3579500.4726   1   8   0.0005   0.0006   0.0007   0.0004  -0.0004  -0.0004   0.00   12.8
2022/07/05 01:19:00.000  -2508506.6363  -4637175.0206   3579500.4727   1   8   0.0005   0.0006   0.0006   0.0004  -0.0004  -0.0004   0.00   13.7
2022/07/05 01:19:15.000  -2508506.6362  -4637175.0206   3579500.4728   1   8   0.0005   0.0006   0.0006   0.0004  -0.0004  -0.0004   0.00   14.5
2022/07/05 01:19:30.000  -2508506.6361  -4637175.0206   3579500.4729   1   8   0.0005   0.0006   0.0006   0.0004  -0.0004  -0.0004   0.00   15.4
2022/07/05 01:19:45.000  -2508506.6361  -4637175.0206   3579500.4729   1   8   0.0005   0.0006   0.0006   0.0004  -0.0004  -0.0004   0.00   16.2
2022/07/05 01:20:00.000  -2508506.6360  -4637175.0207   3579500.4730   1   8   0.0005   0.0006   0.0006   0.0004  -0.0004  -0.0004   0.00   17.1
2022/07/05 01:20:15.000  -2508506.6359  -4637175.0207   3579500.4730   1   8   0.0005   0.0006   0.0006   0.0004  -0.0004  -0.0004   0.00   18.1
2022/07/05 01:20:30.000  -2508506.6358  -4637175.0207   3579500.4730   1   8   0.0005   0.0006   0.0006   0.0004  -0.0004  -0.0004   0.00   19.0
2022/07/05 01:20:45.000  -2508506.6357  -4637175.0208   3579500.4730   1   8   0.0005   0.0006   0.0006   0.0004  -0.0004  -0.0004   0.00   19.9
2022/07/05 01:21:00.000  -2508506.6356  -4637175.0208   3579500.4730   1   8   0.0005   0.0006   0.0006   0.0004  -0.0004  -0.0004   0.00   20.9
2022/07/05 01:21:15.000  -2508506.6355  -4637175.0208   3579500.4730   1   8   0.0005   0.0006   0.0006   0.0004  -0.0004  -0.0004   0.00   21.9
2022/07/05 01:21:30.000  -2508506.6355  -4637175.0209   3579500.4730   1   8   0.0005   0.0006   0.0006   0.0004  -0.0004  -0.0004   0.00   22.9
2022/07/05 01:21:45.000  -2508506.6354  -4637175.0209   3579500.4730   1   8   0.0005   0.0006   0.0006   0.0004  -0.0004  -0.0004   0.00   23.9
2022/07/05 01:22:00.000  -2508506.6353  -4637175.0210   3579500.4730   1   8   0.0005   0.0006   0.0006   0.0004  -0.0004  -0.0004   0.00   24.8
2022/07/05 01:22:15.000  -2508506.6351  -4637175.0210   3579500.4729   1   8   0.0005   0.0006   0.0006   0.0004  -0.0004  -0.0004   0.00   25.9
2022/07/05 01:22:30.000  -2508506.6350  -4637175.0211   3579500.4728   1   8   0.0005   0.0006   0.0006   0.0004  -0.0004  -0.0004   0.00   26.9
2022/07/05 01:22:45.000  -2508506.6349  -4637175.0211   3579500.4728   1   8   0.0005   0.0006   0.0006   0.0004  -0.0004  -0.0004   0.00   27.9
2022/07/05 01:23:00.000  -2508506.6348  -4637175.0212   3579500.4727   1   8   0.0005   0.0006   0.0006   0.0004  -0.0004  -0.0004   0.00   28.9
2022/07/05 01:23:15.000  -2508506.6347  -4637175.0212   3579500.4726   1   8   0.0005   0.0006   0.0006   0.0004  -0.0004  -0.0004   0.00   29.9
2022/07/05 01:23:30.000  -2508506.6346  -4637175.0213   3579500.4725   1   8   0.0005   0.0006   0.0006   0.0004  -0.0004  -0.0004   0.00   30.9
2022/07/05 01:23:45.000  -2508506.6345  -4637175.0213   3579500.4724   1   8   0.0005   0.0006   0.0006   0.0004  -0.0004  -0.0004   0.00   31.9
2022/07/05 01:24:00.000  -2508506.6344  -4637175.0214   3579500.4723   1   8   0.0005   0.0006   0.0006   0.0004  -0.0004  -0.0004   0.00   33.0
2022/07/05 01:24:15.000  -2508506.6343  -4637175.0214   3579500.4722   1   8   0.0005   0.0006   0.0006   0.0004  -0.0004  -0.0004   0.00   34.2
2022/07/05 01:24:30.000  -2508506.6342  -4637175.0215   3579500.4721   1   8   0.0005   0.0006   0.0006   0.0004  -0.0004  -0.0004   0.00   35.3
2022/07/05 01:24:45.000  -2508506.6342  -4637175.0216   3579500.4720   1   8   0.0005   0.0006   0.0006   0.0004  -0.0004  -0.0004   0.00   36.4
2022/07/05 01:25:00.000  -2508506.6341  -4637175.0216   3579500.4719   1   8   0.0005   0.0006   0.0006   0.0004  -0.0004  -0.0004   0.00   37.5
2022/07/05 01:25:15.000  -2508506.6340  -4637175.0217   3579500.4718   1   8   0.0005   0.0006   0.0006   0.0004  -0.0004  -0.0004   0.00   38.5
2022/07/05 01:25:30.000  -2508506.6339  -4637175.0217   3579500.4716   1   8   0.0005   0.0006   0.0006   0.0004  -0.0004  -0.0004   0.00   39.6
2022/07/05 01:25:45.000  -2508506.6338  -4637175.0217   3579500.4715   1   8   0.0005   0.0006   0.0006   0.0004  -0.0004  -0.0004   0.00   40.7
2022/07/05 01:26:00.000  -2508506.6338  -4637175.0218   3579500.4714   1   8   0.0005   0.0006   0.0006   0.0004  -0.0004  -0.0004   0.00   41.7
2022/07/05 01:26:15.000  -2508506.6337  -4637175.0219   3579500.4714   1   8   0.0005   0.0006   0.0006   0.0004  -0.0004  -0.0004   0.00   42.7
2022/07/05 01:26:30.000  -2508506.6336  -4637175.0219   3579500.4713   1   8   0.0005   0.0006   0.0006   0.0004  -0.0004  -0.0004   0.00   43.7
2022/07/05 01:26:45.000  -2508506.6336  -4637175.0220   3579500.4713   1   8   0.0005   0.0006   0.0006   0.0004  -0.0004  -0.0004   0.00   44.7
2022/07/05 01:27:00.000  -2508506.6335  -4637175.0220   3579500.4712   1   8   0.0005   0.0006   0.0006   0.0004  -0.0004  -0.0004   0.00   45.6
2022/07/05 01:27:15.000  -2508506.6335  -4637175.0220   3579500.4711   1   8   0.0005   0.0006   0.0006   0.0004  -0.0004  -0.0004   0.00   46.5
2022/07/05 01:27:30.000  -2508506.6334  -4637175.0221   3579500.4711   1   8   0.0005   0.0006   0.0006   0.0004  -0.0004  -0.0004   0.00   47.2
2022/07/05 01:27:45.000  -2508506.6333  -4637175.0221   3579500.4710   1   8   0.0005   0.0006   0.0006   0.0004  -0.0004  -0.0004   0.00   48.0
2022/07/05 01:28:00.000  -2508506.6332  -4637175.0221   3579500.4710   1   8   0.0005   0.0006   0.0006   0.0004  -0.0004  -0.0004   0.00   48.8
2022/07/05 01:28:15.000  -2508506.6332  -4637175.0222   3579500.4710   1   8   0.0005   0.0006   0.0006   0.0004  -0.0004  -0.0004   0.00   49.5
2022/07/05 01:28:30.000  -2508506.6331  -4637175.0222   3579500.4709   1   8   0.0005   0.0006   0.0006   0.0004  -0.0004  -0.0004   0.00   50.4
2022/07/05 01:28:45.000  -2508506.6331  -4637175.0204   3579500.4696   2   9   0.0005   0.0007   0.0006   0.0005  -0.0005  -0.0004   0.00    1.1
2022/07/05 01:29:00.000  -2508506.6330  -4637175.0204   3579500.4695   2   9   0.0005   0.0007   0.0006   0.0005  -0.0005  -0.0004   0.00    1.2
2022/07/05 01:29:15.000  -2508506.6329  -4637175.0204   3579500.4695   2   9   0.0005   0.0007   0.0006   0.0005  -0.0005  -0.0004   0.00    1.3
2022/07/05 01:29:30.000  -2508506.6328  -4637175.0204   3579500.4694   2   9   0.0005   0.0007   0.0006   0.0005  -0.0005  -0.0004   0.00    1.4
2022/07/05 01:29:45.000  -2508506.6327  -4637175.0204   3579500.4693   2   9   0.0005   0.0007   0.0006   0.0005  -0.0005  -0.0004   0.00    1.5
2022/07/05 01:30:00.000  -2508506.6325  -4637175.0204   3579500.4692   2   9   0.0005   0.0007   0.0006   0.0005  -0.0005  -0.0004   0.00    1.6
2022/07/05 01:30:15.000  -2508506.6324  -4637175.0204   3579500.4690   2   9   0.0005   0.0007   0.0006   0.0005  -0.0005  -0.0004   0.00    1.7
2022/07/05 01:30:30.000  -2508506.6323  -4637175.0204   3579500.4689   2   9   0.0005   0.0007   0.0006   0.0005  -0.0005  -0.0004   0.00    1.8
2022/07/05 01:30:45.000  -2508506.6322  -4637175.0204   3579500.4689   2   9   0.0005   0.0007   0.0006   0.0005  -0.0004  -0.0004   0.00    1.9
2022/07/05 01:31:00.000  -2508506.6322  -4637175.0204   3579500.4688   2   9   0.0005   0.0007   0.0006   0.0005  -0.0004  -0.0004   0.00    2.0
2022/07/05 01:31:15.000  -2508506.6321  -4637175.0205   3579500.4687   2   9   0.0005   0.0007   0.0006   0.0005  -0.0004  -0.0004   0.00    2.1
2022/07/05 01:31:30.000  -2508506.6320  -4637175.0205   3579500.4687   2   9   0.0005   0.0007   0.0006   0.0005  -0.0004  -0.0004   0.00    2.3
2022/07/05 01:31:45.000  -2508506.6319  -4637175.0205   3579500.4686   2   9   0.0005   0.0007   0.0006   0.0005  -0.0004  -0.0004   0.00    2.4
2022/07/05 01:32:00.000  -2508506.6318  -4637175.0206   3579500.4685   2   9   0.0005   0.0007   0.0006   0.0005  -0.0004  -0.0004   0.00    2.5
2022/07/05 01:32:15.000  -2508506.6317  -4637175.0206   3579500.4684   2   9   0.0005   0.0007   0.0006   0.0005  -0.0004  -0.0004   0.00    2.6
2022/07/05 01:32:30.000  -2508506.6317  -4637175.0206   3579500.4683   2   9   0.0005   0.0007   0.0006   0.0005  -0.0004  -0.0004   0.00    2.7
2022/07/05 01:32:45.000  -2508506.6316  -4637175.0206   3579500.4682   2   9   0.0005   0.0007   0.0006   0.0005  -0.0004  -0.0004   0.00    2.8
2022/07/05 01:33:00.000  -2508506.6315  -4637175.0206   3579500.4681   2   9   0.0005   0.0007   0.0006   0.0005  -0.0004  -0.0004   0.00    2.9
2022/07/05 01:33:15.000  -2508506.6314  -4637175.0207   3579500.4680   2   9   0.0005   0.0007   0.0006   0.0005  -0.0004  -0.0004   0.00    3.0
2022/07/05 01:33:30.000  -2508506.6312  -4637175.0233   3579500.4687   1   9   0.0004   0.0006   0.0005   0.0004  -0.0004  -0.0003   0.00    3.1
2022/07/05 01:33:45.000  -2508506.6312  -4637175.0233   3579500.4686   1   9   0.0004   0.0006   0.0005   0.0004  -0.0004  -0.0003   0.00    3.2
2022/07/05 01:34:00.000  -2508506.6311  -4637175.0234   3579500.4684   1   9   0.0004   0.0006   0.0005   0.0004  -0.0004  -0.0003   0.00    3.3
2022/07/05 01:34:15.000  -2508506.6310  -4637175.0234   3579500.4683   1   9   0.0004   0.0006   0.0005   0.0004  -0.0004  -0.0003   0.00    3.4
2022/07/05 01:34:30.000  -2508506.6309  -4637175.0235   3579500.4682   1   9   0.0004   0.0006   0.0005   0.0004  -0.0004  -0.0003   0.00    3.5
2022/07/05 01:34:45.000  -2508506.6309  -4637175.0235   3579500.4680   1   9   0.0004   0.0006   0.0005   0.0004  -0.0004  -0.0003   0.00    3.6
2022/07/05 01:35:00.000  -2508506.6308  -4637175.0235   3579500.4678   1   9   0.0004   0.0006   0.0005   0.0004  -0.0004  -0.0003   0.00    3.7
2022/07/05 01:35:15.000  -2508506.6307  -4637175.0235   3579500.4677   1   9   0.0004   0.0006   0.0005   0.0004  -0.0004  -0.0003   0.00    3.8
2022/07/05 01:35:30.000  -2508506.6306  -4637175.0236   3579500.4676   1   9   0.0004   0.0006   0.0005   0.0004  -0.0004  -0.0003   0.00    3.9
2022/07/05 01:35:45.000  -2508506.6306  -4637175.0236   3579500.4674   1   9   0.0004   0.0006   0.0005   0.0004  -0.0004  -0.0003   0.00    4.0
2022/07/05 01:36:00.000  -2508506.6305  -4637175.0236   3579500.4673   1   9   0.0004   0.0006   0.0005   0.0004  -0.0004  -0.0003   0.00   10.7
2022/07/05 01:36:15.000  -2508506.6304  -4637175.0236   3579500.4672   1   9   0.0004   0.0006   0.0005   0.0004  -0.0004  -0.0003   0.00   17.5
2022/07/05 01:36:30.000  -2508506.6303  -4637175.0236   3579500.4670   1   9   0.0004   0.0006   0.0005   0.0004  -0.0004  -0.0003   0.00   24.3
2022/07/05 01:36:45.000  -2508506.6303  -4637175.0236   3579500.4669   1   9   0.0004   0.0006   0.0005   0.0004  -0.0004  -0.0003   0.00   31.0
2022/07/05 01:37:00.000  -2508506.6302  -4637175.0236   3579500.4668   1   9   0.0004   0.0006   0.0005   0.0004  -0.0004  -0.0003   0.00   37.6
2022/07/05 01:37:15.000  -2508506.6301  -4637175.0236   3579500.4667   1   9   0.0004   0.0006   0.0005   0.0004  -0.0004  -0.0003   0.00   44.3
2022/07/05 01:37:30.000  -2508506.6301  -4637175.0236   3579500.4666   1   9   0.0004   0.0006   0.0005   0.0004  -0.0004  -0.0003   0.00   45.1
2022/07/05 01:37:45.000  -2508506.6300  -4637175.0237   3579500.4666   1   9   0.0004   0.0006   0.0005   0.0004  -0.0004  -0.0003   0.00   45.5
2022/07/05 01:38:00.000  -2508506.6300  -4637175.0237   3579500.4666   1   9   0.0004   0.0006   0.0005   0.0004  -0.0004  -0.0003   0.00   45.9
2022/07/05 01:38:15.000  -2508506.6299  -4637175.0237   3579500.4665   1   9   0.0004   0.0006   0.0005   0.0004  -0.0004  -0.0003   0.00   46.5
2022/07/05 01:38:30.000  -2508506.6299  -4637175.0238   3579500.4664   1   9   0.0004   0.0006   0.0005   0.0004  -0.0004  -0.0003   0.00   47.0
2022/07/05 01:38:45.000  -2508506.6298  -4637175.0238   3579500.4664   1   9   0.0004   0.0006   0.0005   0.0004  -0.0004  -0.0003   0.00   47.5
2022/07/05 01:39:00.000  -2508506.6298  -4637175.0239   3579500.4664   1   9   0.0004   0.0006   0.0005   0.0004  -0.0004  -0.0003   0.00   47.9
2022/07/05 01:39:15.000  -2508506.6298  -4637175.0239   3579500.4663   1   9   0.0004   0.0006   0.0005   0.0004  -0.0004  -0.0003   0.00   48.3
2022/07/05 01:39:30.000  -2508506.6297  -4637175.0239   3579500.4663   1   9   0.0004   0.0006   0.0005   0.0004  -0.0004  -0.0003   0.00   48.7
2022/07/05 01:39:45.000  -2508506.6297  -4637175.0240   3579500.4663   1   9   0.0004   0.0006   0.0005   0.0004  -0.0004  -0.0003   0.00   49.0
2022/07/05 01:40:00.000  -2508506.6296  -4637175.0240   3579500.4662   1   9   0.0004   0.0006   0.0005   0.0004  -0.0004  -0.0003   0.00   49.4
2022/07/05 01:40:15.000  -2508506.6296  -4637175.0241   3579500.4662   1   9   0.0004   0.0006   0.0005   0.0004  -0.0004  -0.0003   0.00   49.7
2022/07/05 01:40:30.000  -2508506.6296  -4637175.0242   3579500.4662   1   9   0.0004   0.0006   0.0005   0.0004  -0.0004  -0.0003   0.00   50.0
2022/07/05 01:40:45.000  -2508506.6296  -4637175.0242   3579500.4662   1   9   0.0004   0.0006   0.0005   0.0004  -0.0004  -0.0003   0.00   50.3
