% program   : RTKPOST ver.2.4.3 b34
% inp file  : C:\Users\89231\Documents\Учеба\Диссертация\Данные\Лос-Анджелес 03-05.07.22\04.07.2022\holp1850.22o
% inp file  : C:\Users\89231\Documents\Учеба\Диссертация\Данные\Лос-Анджелес 03-05.07.22\04.07.2022\cit11850.22o
% inp file  : C:\Users\89231\Documents\Учеба\Диссертация\Данные\Лос-Анджелес 03-05.07.22\04.07.2022\cit11850.22n
% inp file  : C:\Users\89231\Documents\Учеба\Диссертация\Данные\Лос-Анджелес 03-05.07.22\04.07.2022\igs22171.sp3
% obs start : 2022/07/04 00:00:00.0 GPST (week2217  86400.0s)
% obs end   : 2022/07/04 23:59:45.0 GPST (week2217 172785.0s)
% pos mode  : Static
% freqs     : L1+2
% solution  : Forward
% elev mask : 15.0 deg
% dynamics  : off
% tidecorr  : off
% ionos opt : Broadcast
% tropo opt : Saastamoinen
% ephemeris : Precise
% navi sys  : GPS
% amb res   : Fix and Hold
% val thres : 3.0
% antenna1  :                       ( 0.0000  0.0000  0.1310)
% antenna2  :                       ( 0.0000  0.0000  0.0000)
% ref pos   : -2491490.2616  -4660803.2317   3559129.0005
%
% (x/y/z-ecef=WGS84,Q=1:fix,2:float,3:sbas,4:dgps,5:single,6:ppp,ns=# of satellites)
%  GPST                      x-ecef(m)      y-ecef(m)      z-ecef(m)   Q  ns   sdx(m)   sdy(m)   sdz(m)  sdxy(m)  sdyz(m)  sdzx(m) age(s)  ratio
2022/07/04 00:00:00.000  -2500946.1925  -4670472.6639   3539500.6890   2   8   0.5224   1.0012   0.7499   0.5624  -0.7371  -0.4846   0.00    2.1
2022/07/04 00:00:15.000  -2500946.2060  -4670472.6164   3539500.5228   2   8   0.3629   0.6942   0.5108   0.3848  -0.5018  -0.3286   0.00    2.1
2022/07/04 00:00:30.000  -2500946.2506  -4670472.8443   3539500.5466   2   8   0.2870   0.5474   0.3922   0.2973  -0.3847  -0.2503   0.00    2.2
2022/07/04 00:00:45.000  -2500946.2355  -4670472.9964   3539500.5546   2   8   0.2390   0.4546   0.3149   0.2403  -0.3083  -0.1987   0.00    2.1
2022/07/04 00:01:00.000  -2500946.2516  -4670473.1002   3539500.5383   2   8   0.2049   0.3889   0.2591   0.1992  -0.2532  -0.1613   0.00    2.0
2022/07/04 00:01:15.000  -2500946.2543  -4670473.1189   3539500.5374   2   8   0.1792   0.3396   0.2171   0.1679  -0.2117  -0.1331   0.00    2.0
2022/07/04 00:01:30.000  -2500946.2121  -4670473.0510   3539500.4814   2   8   0.1589   0.3012   0.1846   0.1433  -0.1797  -0.1112   0.00    1.9
2022/07/04 00:01:45.000  -2500946.2114  -4670473.0044   3539500.4964   2   8   0.1426   0.2705   0.1589   0.1236  -0.1545  -0.0940   0.00    2.0
2022/07/04 00:02:00.000  -2500946.2104  -4670472.9972   3539500.5046   2   8   0.1290   0.2453   0.1383   0.1075  -0.1345  -0.0802   0.00    2.0
2022/07/04 00:02:15.000  -2500946.1901  -4670472.9740   3539500.5316   2   8   0.1176   0.2242   0.1216   0.0942  -0.1182  -0.0691   0.00    2.0
2022/07/04 00:02:30.000  -2500946.1969  -4670472.9947   3539500.5829   2   8   0.1078   0.2063   0.1079   0.0830  -0.1049  -0.0601   0.00    2.1
2022/07/04 00:02:45.000  -2500946.2051  -4670472.9937   3539500.6173   2   8   0.0994   0.1908   0.0965   0.0734  -0.0938  -0.0526   0.00    2.1
2022/07/04 00:03:00.000  -2500946.2219  -4670472.9836   3539500.6355   2   8   0.0920   0.1774   0.0869   0.0653  -0.0846  -0.0464   0.00    2.2
2022/07/04 00:03:15.000  -2500946.2331  -4670473.0023   3539500.6578   2   8   0.0855   0.1655   0.0787   0.0582  -0.0768  -0.0412   0.00    2.3
2022/07/04 00:03:30.000  -2500946.2435  -4670473.0331   3539500.6677   2   8   0.0797   0.1549   0.0717   0.0520  -0.0701  -0.0367   0.00    2.4
2022/07/04 00:03:45.000  -2500946.2607  -4670473.0630   3539500.6891   2   8   0.0745   0.1455   0.0657   0.0467  -0.0643  -0.0330   0.00    2.5
2022/07/04 00:04:00.000  -2500946.2717  -4670473.0836   3539500.6916   2   8   0.0699   0.1370   0.0604   0.0420  -0.0593  -0.0298   0.00    2.6
2022/07/04 00:04:15.000  -2500946.2828  -4670473.0971   3539500.7006   2   8   0.0657   0.1292   0.0558   0.0378  -0.0549  -0.0270   0.00    2.8
2022/07/04 00:04:30.000  -2500946.2959  -4670473.1126   3539500.7027   2   8   0.0619   0.1222   0.0517   0.0341  -0.0511  -0.0246   0.00    2.9
2022/07/04 00:04:45.000  -2500946.1154  -4670472.8701   3539500.5706   1   8   0.0012   0.0023   0.0017   0.0013  -0.0017  -0.0011   0.00    3.1
2022/07/04 00:05:00.000  -2500946.1157  -4670472.8697   3539500.5704   1   8   0.0011   0.0022   0.0017   0.0012  -0.0016  -0.0011   0.00    3.1
2022/07/04 00:05:15.000  -2500946.1161  -4670472.8692   3539500.5702   1   8   0.0011   0.0022   0.0016   0.0012  -0.0016  -0.0010   0.00    3.2
2022/07/04 00:05:30.000  -2500946.1164  -4670472.8688   3539500.5702   1   8   0.0011   0.0021   0.0016   0.0012  -0.0016  -0.0010   0.00    3.3
2022/07/04 00:05:45.000  -2500946.1167  -4670472.8681   3539500.5700   1   8   0.0011   0.0021   0.0016   0.0011  -0.0015  -0.0010   0.00    3.3
2022/07/04 00:06:00.000  -2500946.1169  -4670472.8674   3539500.5699   1   8   0.0011   0.0020   0.0015   0.0011  -0.0015  -0.0010   0.00    3.3
2022/07/04 00:06:15.000  -2500946.1172  -4670472.8668   3539500.5696   1   8   0.0010   0.0020   0.0015   0.0011  -0.0015  -0.0010   0.00    3.4
2022/07/04 00:06:30.000  -2500946.1175  -4670472.8664   3539500.5695   1   8   0.0010   0.0019   0.0015   0.0011  -0.0014  -0.0009   0.00    3.5
2022/07/04 00:06:45.000  -2500946.1178  -4670472.8660   3539500.5693   1   8   0.0010   0.0019   0.0015   0.0011  -0.0014  -0.0009   0.00    3.5
2022/07/04 00:07:00.000  -2500946.1181  -4670472.8656   3539500.5692   1   8   0.0010   0.0019   0.0014   0.0010  -0.0014  -0.0009   0.00    3.6
2022/07/04 00:07:15.000  -2500946.1184  -4670472.8654   3539500.5691   1   8   0.0010   0.0018   0.0014   0.0010  -0.0014  -0.0009   0.00    8.8
2022/07/04 00:07:30.000  -2500946.1188  -4670472.8652   3539500.5691   1   8   0.0009   0.0018   0.0014   0.0010  -0.0013  -0.0009   0.00   10.9
2022/07/04 00:07:45.000  -2500946.1190  -4670472.8648   3539500.5689   1   8   0.0009   0.0018   0.0014   0.0010  -0.0013  -0.0009   0.00   13.2
2022/07/04 00:08:00.000  -2500946.1193  -4670472.8645   3539500.5688   1   8   0.0009   0.0018   0.0014   0.0010  -0.0013  -0.0009   0.00   15.5
2022/07/04 00:08:15.000  -2500946.1195  -4670472.8643   3539500.5686   1   8   0.0009   0.0017   0.0013   0.0010  -0.0013  -0.0009   0.00   17.9
2022/07/04 00:08:30.000  -2500946.1196  -4670472.8638   3539500.5683   1   8   0.0009   0.0017   0.0013   0.0010  -0.0013  -0.0008   0.00   20.3
2022/07/04 00:08:45.000  -2500946.1198  -4670472.8634   3539500.5681   1   8   0.0009   0.0017   0.0013   0.0009  -0.0013  -0.0008   0.00   22.8
2022/07/04 00:09:00.000  -2500946.1199  -4670472.8632   3539500.5679   1   8   0.0009   0.0017   0.0013   0.0009  -0.0012  -0.0008   0.00   25.5
2022/07/04 00:09:15.000  -2500946.1200  -4670472.8629   3539500.5676   1   8   0.0009   0.0017   0.0013   0.0009  -0.0012  -0.0008   0.00   28.2
2022/07/04 00:09:30.000  -2500946.1202  -4670472.8627   3539500.5673   1   8   0.0008   0.0016   0.0013   0.0009  -0.0012  -0.0008   0.00   31.0
2022/07/04 00:09:45.000  -2500946.1204  -4670472.8625   3539500.5671   1   8   0.0008   0.0016   0.0012   0.0009  -0.0012  -0.0008   0.00   33.8
2022/07/04 00:10:00.000  -2500946.1204  -4670472.8624   3539500.5669   1   8   0.0008   0.0016   0.0012   0.0009  -0.0012  -0.0008   0.00   36.4
2022/07/04 00:10:15.000  -2500946.1204  -4670472.8622   3539500.5667   1   8   0.0008   0.0016   0.0012   0.0009  -0.0012  -0.0008   0.00   39.1
2022/07/04 00:10:30.000  -2500946.1204  -4670472.8620   3539500.5665   1   8   0.0008   0.0016   0.0012   0.0009  -0.0012  -0.0008   0.00   42.2
2022/07/04 00:10:45.000  -2500946.1203  -4670472.8617   3539500.5662   1   8   0.0008   0.0015   0.0012   0.0009  -0.0011  -0.0008   0.00   45.3
2022/07/04 00:11:00.000  -2500946.1203  -4670472.8615   3539500.5660   1   8   0.0008   0.0015   0.0012   0.0008  -0.0011  -0.0007   0.00   48.2
2022/07/04 00:11:15.000  -2500946.1203  -4670472.8611   3539500.5657   1   8   0.0008   0.0015   0.0012   0.0008  -0.0011  -0.0007   0.00   51.5
2022/07/04 00:11:30.000  -2500946.1201  -4670472.8607   3539500.5654   1   8   0.0008   0.0015   0.0012   0.0008  -0.0011  -0.0007   0.00   54.8
2022/07/04 00:11:45.000  -2500946.1200  -4670472.8603   3539500.5651   1   8   0.0008   0.0015   0.0011   0.0008  -0.0011  -0.0007   0.00   58.1
2022/07/04 00:12:00.000  -2500946.1199  -4670472.8597   3539500.5647   1   8   0.0008   0.0015   0.0011   0.0008  -0.0011  -0.0007   0.00   61.4
2022/07/04 00:12:15.000  -2500946.1198  -4670472.8592   3539500.5643   1   8   0.0008   0.0015   0.0011   0.0008  -0.0011  -0.0007   0.00   65.0
2022/07/04 00:12:30.000  -2500946.1197  -4670472.8589   3539500.5640   1   8   0.0007   0.0014   0.0011   0.0008  -0.0011  -0.0007   0.00   68.9
2022/07/04 00:12:45.000  -2500946.1196  -4670472.8584   3539500.5636   1   8   0.0007   0.0014   0.0011   0.0008  -0.0011  -0.0007   0.00   72.3
2022/07/04 00:13:00.000  -2500946.1195  -4670472.8581   3539500.5632   1   8   0.0007   0.0014   0.0011   0.0008  -0.0010  -0.0007   0.00   75.7
2022/07/04 00:13:15.000  -2500946.1194  -4670472.8578   3539500.5629   1   8   0.0007   0.0014   0.0011   0.0008  -0.0010  -0.0007   0.00   79.2
2022/07/04 00:13:30.000  -2500946.1192  -4670472.8575   3539500.5626   1   8   0.0007   0.0014   0.0011   0.0008  -0.0010  -0.0007   0.00   82.2
2022/07/04 00:13:45.000  -2500946.1190  -4670472.8571   3539500.5621   1   8   0.0007   0.0014   0.0011   0.0008  -0.0010  -0.0007   0.00   85.7
2022/07/04 00:14:00.000  -2500946.1189  -4670472.8569   3539500.5618   1   8   0.0007   0.0014   0.0011   0.0008  -0.0010  -0.0007   0.00   89.1
2022/07/04 00:14:15.000  -2500946.1188  -4670472.8568   3539500.5615   1   8   0.0007   0.0014   0.0011   0.0007  -0.0010  -0.0007   0.00   92.6
2022/07/04 00:14:30.000  -2500946.1187  -4670472.8566   3539500.5611   1   8   0.0007   0.0013   0.0011   0.0007  -0.0010  -0.0007   0.00   96.4
2022/07/04 00:14:45.000  -2500946.1185  -4670472.8564   3539500.5608   1   8   0.0007   0.0013   0.0010   0.0007  -0.0010  -0.0007   0.00   99.9
2022/07/04 00:15:00.000  -2500946.1185  -4670472.8563   3539500.5605   1   8   0.0007   0.0013   0.0010   0.0007  -0.0010  -0.0007   0.00  103.3
2022/07/04 00:15:15.000  -2500946.1184  -4670472.8562   3539500.5601   1   8   0.0007   0.0013   0.0010   0.0007  -0.0010  -0.0006   0.00  107.1
2022/07/04 00:15:30.000  -2500946.1183  -4670472.8561   3539500.5597   1   8   0.0007   0.0013   0.0010   0.0007  -0.0010  -0.0006   0.00  110.6
2022/07/04 00:15:45.000  -2500946.1182  -4670472.8558   3539500.5593   1   8   0.0007   0.0013   0.0010   0.0007  -0.0010  -0.0006   0.00  114.5
2022/07/04 00:16:00.000  -2500946.1181  -4670472.8558   3539500.5590   1   8   0.0007   0.0013   0.0010   0.0007  -0.0010  -0.0006   0.00  118.2
2022/07/04 00:16:15.000  -2500946.1180  -4670472.8557   3539500.5586   1   8   0.0007   0.0013   0.0010   0.0007  -0.0009  -0.0006   0.00  122.0
2022/07/04 00:16:30.000  -2500946.1180  -4670472.8555   3539500.5582   1   8   0.0007   0.0013   0.0010   0.0007  -0.0009  -0.0006   0.00  124.7
2022/07/04 00:16:45.000  -2500946.1180  -4670472.8554   3539500.5579   1   8   0.0007   0.0013   0.0010   0.0007  -0.0009  -0.0006   0.00  128.3
2022/07/04 00:17:00.000  -2500946.1179  -4670472.8553   3539500.5576   1   8   0.0007   0.0012   0.0010   0.0007  -0.0009  -0.0006   0.00  132.1
2022/07/04 00:17:15.000  -2500946.1179  -4670472.8552   3539500.5573   1   8   0.0007   0.0012   0.0010   0.0007  -0.0009  -0.0006   0.00  135.0
2022/07/04 00:17:30.000  -2500946.1179  -4670472.8551   3539500.5571   1   8   0.0006   0.0012   0.0010   0.0007  -0.0009  -0.0006   0.00  138.6
2022/07/04 00:17:45.000  -2500946.1178  -4670472.8551   3539500.5568   1   8   0.0006   0.0012   0.0010   0.0007  -0.0009  -0.0006   0.00  141.9
2022/07/04 00:18:00.000  -2500946.1178  -4670472.8551   3539500.5567   1   8   0.0006   0.0012   0.0010   0.0007  -0.0009  -0.0006   0.00  145.1
2022/07/04 00:18:15.000  -2500946.1178  -4670472.8550   3539500.5564   1   8   0.0006   0.0012   0.0010   0.0007  -0.0009  -0.0006   0.00  149.5
2022/07/04 00:18:30.000  -2500946.1178  -4670472.8550   3539500.5562   1   8   0.0006   0.0012   0.0010   0.0007  -0.0009  -0.0006   0.00  152.6
2022/07/04 00:18:45.000  -2500946.1178  -4670472.8549   3539500.5560   1   8   0.0006   0.0012   0.0010   0.0007  -0.0009  -0.0006   0.00  155.8
2022/07/04 00:19:00.000  -2500946.1178  -4670472.8548   3539500.5558   1   8   0.0006   0.0012   0.0010   0.0007  -0.0009  -0.0006   0.00  158.9
2022/07/04 00:19:15.000  -2500946.1178  -4670472.8548   3539500.5556   1   8   0.0006   0.0012   0.0009   0.0006  -0.0009  -0.0006   0.00  162.0
2022/07/04 00:19:30.000  -2500946.1178  -4670472.8548   3539500.5554   1   8   0.0006   0.0012   0.0009   0.0006  -0.0009  -0.0006   0.00  164.7
2022/07/04 00:19:45.000  -2500946.1177  -4670472.8547   3539500.5553   1   8   0.0006   0.0012   0.0009   0.0006  -0.0009  -0.0006   0.00  166.1
2022/07/04 00:20:00.000  -2500946.1178  -4670472.8547   3539500.5552   1   8   0.0006   0.0012   0.0009   0.0006  -0.0009  -0.0006   0.00  167.3
2022/07/04 00:20:15.000  -2500946.1178  -4670472.8548   3539500.5552   1   8   0.0006   0.0011   0.0009   0.0006  -0.0009  -0.0006   0.00  169.0
2022/07/04 00:20:30.000  -2500946.1179  -4670472.8549   3539500.5552   1   8   0.0006   0.0011   0.0009   0.0006  -0.0009  -0.0006   0.00  170.9
2022/07/04 00:20:45.000  -2500946.1179  -4670472.8550   3539500.5552   1   8   0.0006   0.0011   0.0009   0.0006  -0.0008  -0.0006   0.00  172.2
2022/07/04 00:21:00.000  -2500946.1180  -4670472.8551   3539500.5552   1   8   0.0006   0.0011   0.0009   0.0006  -0.0008  -0.0006   0.00  172.3
2022/07/04 00:21:15.000  -2500946.1180  -4670472.8551   3539500.5550   1   8   0.0006   0.0011   0.0009   0.0006  -0.0008  -0.0006   0.00  173.0
2022/07/04 00:21:30.000  -2500946.1179  -4670472.8551   3539500.5549   1   8   0.0006   0.0011   0.0009   0.0006  -0.0008  -0.0006   0.00  173.0
2022/07/04 00:21:45.000  -2500946.1179  -4670472.8552   3539500.5548   1   8   0.0006   0.0011   0.0009   0.0006  -0.0008  -0.0006   0.00  173.8
2022/07/04 00:22:00.000  -2500946.1179  -4670472.8552   3539500.5548   1   8   0.0006   0.0011   0.0009   0.0006  -0.0008  -0.0006   0.00  174.1
2022/07/04 00:22:15.000  -2500946.1179  -4670472.8552   3539500.5547   1   8   0.0006   0.0011   0.0009   0.0006  -0.0008  -0.0006   0.00  175.1
2022/07/04 00:22:30.000  -2500946.1179  -4670472.8552   3539500.5546   1   8   0.0006   0.0011   0.0009   0.0006  -0.0008  -0.0006   0.00  175.7
2022/07/04 00:22:45.000  -2500946.1179  -4670472.8552   3539500.5546   1   8   0.0006   0.0011   0.0009   0.0006  -0.0008  -0.0005   0.00  176.3
2022/07/04 00:23:00.000  -2500946.1179  -4670472.8551   3539500.5545   1   8   0.0006   0.0011   0.0009   0.0006  -0.0008  -0.0005   0.00  175.9
2022/07/04 00:23:15.000  -2500946.1186  -4670472.8564   3539500.5558   2   9   0.0007   0.0012   0.0011   0.0007  -0.0010  -0.0007   0.00    1.3
2022/07/04 00:23:30.000  -2500946.1186  -4670472.8564   3539500.5557   2   9   0.0007   0.0012   0.0011   0.0007  -0.0010  -0.0007   0.00    1.6
2022/07/04 00:23:45.000  -2500946.1187  -4670472.8564   3539500.5556   2   9   0.0007   0.0012   0.0011   0.0007  -0.0010  -0.0007   0.00    1.8
2022/07/04 00:24:00.000  -2500946.1187  -4670472.8564   3539500.5555   2   9   0.0007   0.0012   0.0011   0.0007  -0.0010  -0.0007   0.00    2.0
2022/07/04 00:24:15.000  -2500946.1187  -4670472.8564   3539500.5555   2   9   0.0007   0.0012   0.0011   0.0007  -0.0010  -0.0007   0.00    2.3
2022/07/04 00:24:30.000  -2500946.1187  -4670472.8563   3539500.5554   2   9   0.0007   0.0012   0.0011   0.0007  -0.0010  -0.0007   0.00    2.6
2022/07/04 00:24:45.000  -2500946.1187  -4670472.8562   3539500.5552   2   9   0.0007   0.0012   0.0011   0.0007  -0.0010  -0.0007   0.00    2.8
2022/07/04 00:25:00.000  -2500946.1178  -4670472.8541   3539500.5535   1   9   0.0006   0.0010   0.0009   0.0006  -0.0008  -0.0005   0.00    3.0
2022/07/04 00:25:15.000  -2500946.1178  -4670472.8540   3539500.5534   1   9   0.0006   0.0010   0.0009   0.0006  -0.0008  -0.0005   0.00    3.3
2022/07/04 00:25:30.000  -2500946.1178  -4670472.8539   3539500.5534   1   9   0.0006   0.0010   0.0009   0.0006  -0.0008  -0.0005   0.00    3.5
2022/07/04 00:25:45.000  -2500946.1178  -4670472.8537   3539500.5533   1   9   0.0005   0.0010   0.0008   0.0006  -0.0008  -0.0005   0.00    3.8
2022/07/04 00:26:00.000  -2500946.1177  -4670472.8535   3539500.5532   1   9   0.0005   0.0010   0.0008   0.0006  -0.0008  -0.0005   0.00    4.0
2022/07/04 00:26:15.000  -2500946.1176  -4670472.8533   3539500.5530   1   9   0.0005   0.0010   0.0008   0.0005  -0.0007  -0.0005   0.00    4.2
2022/07/04 00:26:30.000  -2500946.1175  -4670472.8531   3539500.5529   1   9   0.0005   0.0010   0.0008   0.0005  -0.0007  -0.0005   0.00    4.5
2022/07/04 00:26:45.000  -2500946.1174  -4670472.8528   3539500.5527   1   9   0.0005   0.0010   0.0008   0.0005  -0.0007  -0.0005   0.00    4.7
2022/07/04 00:27:00.000  -2500946.1173  -4670472.8526   3539500.5525   1   9   0.0005   0.0010   0.0008   0.0005  -0.0007  -0.0005   0.00    4.9
2022/07/04 00:27:15.000  -2500946.1172  -4670472.8523   3539500.5523   1   9   0.0005   0.0010   0.0008   0.0005  -0.0007  -0.0005   0.00    5.1
2022/07/04 00:27:30.000  -2500946.1172  -4670472.8521   3539500.5522   1   9   0.0005   0.0010   0.0008   0.0005  -0.0007  -0.0005   0.00    7.6
2022/07/04 00:27:45.000  -2500946.1171  -4670472.8518   3539500.5520   1   9   0.0005   0.0010   0.0008   0.0005  -0.0007  -0.0005   0.00   10.2
2022/07/04 00:28:00.000  -2500946.1169  -4670472.8515   3539500.5518   1   9   0.0005   0.0009   0.0008   0.0005  -0.0007  -0.0005   0.00   12.8
2022/07/04 00:28:15.000  -2500946.1168  -4670472.8513   3539500.5515   1   9   0.0005   0.0009   0.0008   0.0005  -0.0007  -0.0005   0.00   15.4
2022/07/04 00:28:30.000  -2500946.1167  -4670472.8510   3539500.5513   1   9   0.0005   0.0009   0.0008   0.0005  -0.0007  -0.0005   0.00   18.1
2022/07/04 00:28:45.000  -2500946.1166  -4670472.8507   3539500.5510   1   9   0.0005   0.0009   0.0008   0.0005  -0.0007  -0.0005   0.00   20.8
2022/07/04 00:29:00.000  -2500946.1164  -4670472.8504   3539500.5507   1   9   0.0005   0.0009   0.0008   0.0005  -0.0007  -0.0005   0.00   23.6
2022/07/04 00:29:15.000  -2500946.1163  -4670472.8501   3539500.5504   1   9   0.0005   0.0009   0.0008   0.0005  -0.0007  -0.0005   0.00   26.6
2022/07/04 00:29:30.000  -2500946.1161  -4670472.8497   3539500.5501   1   9   0.0005   0.0009   0.0008   0.0005  -0.0007  -0.0005   0.00   29.5
2022/07/04 00:29:45.000  -2500946.1160  -4670472.8494   3539500.5498   1   9   0.0005   0.0009   0.0008   0.0005  -0.0007  -0.0005   0.00   32.4
2022/07/04 00:30:00.000  -2500946.1158  -4670472.8491   3539500.5494   1   9   0.0005   0.0009   0.0008   0.0005  -0.0007  -0.0005   0.00   35.4
2022/07/04 00:30:15.000  -2500946.1156  -4670472.8487   3539500.5491   1   9   0.0005   0.0009   0.0008   0.0005  -0.0007  -0.0005   0.00   38.5
2022/07/04 00:30:30.000  -2500946.1155  -4670472.8484   3539500.5489   1   9   0.0005   0.0009   0.0008   0.0005  -0.0007  -0.0005   0.00   41.9
2022/07/04 00:30:45.000  -2500946.1152  -4670472.8481   3539500.5486   1   9   0.0005   0.0009   0.0008   0.0005  -0.0007  -0.0005   0.00   45.1
2022/07/04 00:31:00.000  -2500946.1150  -4670472.8478   3539500.5484   1   9   0.0005   0.0009   0.0008   0.0005  -0.0007  -0.0005   0.00   48.8
2022/07/04 00:31:15.000  -2500946.1149  -4670472.8476   3539500.5482   1   9   0.0005   0.0009   0.0008   0.0005  -0.0007  -0.0005   0.00   52.5
2022/07/04 00:31:30.000  -2500946.1147  -4670472.8473   3539500.5481   1   9   0.0005   0.0009   0.0008   0.0005  -0.0007  -0.0005   0.00   56.6
2022/07/04 00:31:45.000  -2500946.1146  -4670472.8471   3539500.5479   1   9   0.0005   0.0009   0.0008   0.0005  -0.0007  -0.0005   0.00   61.2
2022/07/04 00:32:00.000  -2500946.1144  -4670472.8469   3539500.5478   1   9   0.0005   0.0009   0.0008   0.0005  -0.0007  -0.0005   0.00   65.4
2022/07/04 00:32:15.000  -2500946.1143  -4670472.8466   3539500.5476   1   9   0.0005   0.0009   0.0008   0.0005  -0.0007  -0.0005   0.00   69.9
2022/07/04 00:32:30.000  -2500946.1142  -4670472.8464   3539500.5475   1   9   0.0005   0.0009   0.0008   0.0005  -0.0007  -0.0005   0.00   74.7
2022/07/04 00:32:45.000  -2500946.1140  -4670472.8462   3539500.5473   1   9   0.0005   0.0009   0.0008   0.0005  -0.0007  -0.0005   0.00   79.5
2022/07/04 00:33:00.000  -2500946.1139  -4670472.8460   3539500.5472   1   9   0.0005   0.0009   0.0008   0.0005  -0.0007  -0.0005   0.00   83.9
2022/07/04 00:33:15.000  -2500946.1138  -4670472.8458   3539500.5470   1   9   0.0005   0.0008   0.0008   0.0005  -0.0006  -0.0005   0.00   89.4
2022/07/04 00:33:30.000  -2500946.1137  -4670472.8456   3539500.5468   1   9   0.0005   0.0008   0.0008   0.0005  -0.0006  -0.0005   0.00   94.9
2022/07/04 00:33:45.000  -2500946.1136  -4670472.8454   3539500.5467   1   9   0.0005   0.0008   0.0008   0.0005  -0.0006  -0.0005   0.00  100.7
2022/07/04 00:34:00.000  -2500946.1135  -4670472.8452   3539500.5465   1   9   0.0005   0.0008   0.0008   0.0005  -0.0006  -0.0005   0.00  107.0
2022/07/04 00:34:15.000  -2500946.1134  -4670472.8450   3539500.5464   1   9   0.0005   0.0008   0.0008   0.0005  -0.0006  -0.0005   0.00  113.8
2022/07/04 00:34:30.000  -2500946.1134  -4670472.8449   3539500.5462   1   9   0.0005   0.0008   0.0008   0.0005  -0.0006  -0.0005   0.00  121.4
2022/07/04 00:34:45.000  -2500946.1133  -4670472.8447   3539500.5461   1   9   0.0005   0.0008   0.0008   0.0005  -0.0006  -0.0005   0.00  129.7
2022/07/04 00:35:00.000  -2500946.1132  -4670472.8446   3539500.5460   1   9   0.0005   0.0008   0.0008   0.0005  -0.0006  -0.0004   0.00  138.8
2022/07/04 00:35:15.000  -2500946.1132  -4670472.8445   3539500.5459   1   9   0.0005   0.0008   0.0008   0.0005  -0.0006  -0.0004   0.00  148.0
2022/07/04 00:35:30.000  -2500946.1132  -4670472.8444   3539500.5458   1   9   0.0005   0.0008   0.0007   0.0005  -0.0006  -0.0004   0.00  159.3
2022/07/04 00:35:45.000  -2500946.1132  -4670472.8444   3539500.5457   1   9   0.0005   0.0008   0.0007   0.0005  -0.0006  -0.0004   0.00  170.4
2022/07/04 00:36:00.000  -2500946.1132  -4670472.8444   3539500.5457   1   9   0.0005   0.0008   0.0007   0.0005  -0.0006  -0.0004   0.00  183.1
2022/07/04 00:36:15.000  -2500946.1132  -4670472.8443   3539500.5457   1   9   0.0005   0.0008   0.0007   0.0005  -0.0006  -0.0004   0.00  197.7
2022/07/04 00:36:30.000  -2500946.1132  -4670472.8443   3539500.5456   1   9   0.0005   0.0008   0.0007   0.0005  -0.0006  -0.0004   0.00  213.0
2022/07/04 00:36:45.000  -2500946.1132  -4670472.8442   3539500.5456   1   9   0.0005   0.0008   0.0007   0.0004  -0.0006  -0.0004   0.00  227.9
2022/07/04 00:37:00.000  -2500946.1132  -4670472.8442   3539500.5456   1   9   0.0005   0.0008   0.0007   0.0004  -0.0006  -0.0004   0.00  243.4
2022/07/04 00:37:15.000  -2500946.1132  -4670472.8441   3539500.5455   1   9   0.0005   0.0008   0.0007   0.0004  -0.0006  -0.0004   0.00  259.2
2022/07/04 00:37:30.000  -2500946.1132  -4670472.8439   3539500.5454   1   9   0.0005   0.0008   0.0007   0.0004  -0.0006  -0.0004   0.00  274.3
2022/07/04 00:37:45.000  -2500946.1132  -4670472.8438   3539500.5453   1   9   0.0005   0.0008   0.0007   0.0004  -0.0006  -0.0004   0.00  289.0
2022/07/04 00:38:00.000  -2500946.1133  -4670472.8437   3539500.5452   1   9   0.0005   0.0008   0.0007   0.0004  -0.0006  -0.0004   0.00  303.1
2022/07/04 00:38:15.000  -2500946.1133  -4670472.8436   3539500.5451   1   9   0.0005   0.0008   0.0007   0.0004  -0.0006  -0.0004   0.00  316.2
2022/07/04 00:38:30.000  -2500946.1134  -4670472.8436   3539500.5451   1   9   0.0005   0.0008   0.0007   0.0004  -0.0006  -0.0004   0.00  330.5
2022/07/04 00:38:45.000  -2500946.1134  -4670472.8435   3539500.5450   1   9   0.0005   0.0008   0.0007   0.0004  -0.0006  -0.0004   0.00  344.3
2022/07/04 00:39:00.000  -2500946.1135  -4670472.8435   3539500.5450   1   9   0.0005   0.0008   0.0007   0.0004  -0.0006  -0.0004   0.00  359.1
2022/07/04 00:39:15.000  -2500946.1136  -4670472.8435   3539500.5449   1   9   0.0005   0.0008   0.0007   0.0004  -0.0006  -0.0004   0.00  372.4
2022/07/04 00:39:30.000  -2500946.1136  -4670472.8435   3539500.5449   1   9   0.0005   0.0008   0.0007   0.0004  -0.0006  -0.0004   0.00  386.0
2022/07/04 00:39:45.000  -2500946.1137  -4670472.8435   3539500.5448   1   9   0.0005   0.0008   0.0007   0.0004  -0.0006  -0.0004   0.00  399.8
2022/07/04 00:40:00.000  -2500946.1137  -4670472.8435   3539500.5448   1   9   0.0005   0.0008   0.0007   0.0004  -0.0006  -0.0004   0.00  411.1
2022/07/04 00:40:15.000  -2500946.1138  -4670472.8436   3539500.5448   1   9   0.0005   0.0008   0.0007   0.0004  -0.0006  -0.0004   0.00  421.4
2022/07/04 00:40:30.000  -2500946.1139  -4670472.8436   3539500.5448   1   9   0.0005   0.0007   0.0007   0.0004  -0.0006  -0.0004   0.00  430.8
2022/07/04 00:40:45.000  -2500946.1140  -4670472.8436   3539500.5447   1   9   0.0004   0.0007   0.0007   0.0004  -0.0006  -0.0004   0.00  442.7
2022/07/04 00:41:00.000  -2500946.1140  -4670472.8436   3539500.5447   1   9   0.0004   0.0007   0.0007   0.0004  -0.0006  -0.0004   0.00  449.8
2022/07/04 00:41:15.000  -2500946.1141  -4670472.8437   3539500.5446   1   9   0.0004   0.0007   0.0007   0.0004  -0.0006  -0.0004   0.00  459.1
2022/07/04 00:41:30.000  -2500946.1141  -4670472.8436   3539500.5445   1   9   0.0004   0.0007   0.0007   0.0004  -0.0006  -0.0004   0.00  467.7
2022/07/04 00:41:45.000  -2500946.1141  -4670472.8436   3539500.5444   1   9   0.0004   0.0007   0.0007   0.0004  -0.0006  -0.0004   0.00  474.9
2022/07/04 00:42:00.000  -2500946.1141  -4670472.8435   3539500.5443   1   9   0.0004   0.0007   0.0007   0.0004  -0.0006  -0.0004   0.00  480.2
2022/07/04 00:42:15.000  -2500946.1141  -4670472.8434   3539500.5441   1   9   0.0004   0.0007   0.0007   0.0004  -0.0006  -0.0004   0.00  481.5
2022/07/04 00:42:30.000  -2500946.1141  -4670472.8432   3539500.5439   1   9   0.0004   0.0007   0.0007   0.0004  -0.0006  -0.0004   0.00  482.8
2022/07/04 00:42:45.000  -2500946.1141  -4670472.8431   3539500.5437   1   9   0.0004   0.0007   0.0007   0.0004  -0.0006  -0.0004   0.00  483.2
2022/07/04 00:43:00.000  -2500946.1140  -4670472.8429   3539500.5435   1   9   0.0004   0.0007   0.0007   0.0004  -0.0006  -0.0004   0.00  487.1
2022/07/04 00:43:15.000  -2500946.1140  -4670472.8427   3539500.5433   1   9   0.0004   0.0007   0.0007   0.0004  -0.0006  -0.0004   0.00  490.1
2022/07/04 00:43:30.000  -2500946.1140  -4670472.8426   3539500.5432   1   9   0.0004   0.0007   0.0007   0.0004  -0.0006  -0.0004   0.00  496.6
2022/07/04 00:43:45.000  -2500946.1139  -4670472.8425   3539500.5430   1   9   0.0004   0.0007   0.0007   0.0004  -0.0006  -0.0004   0.00  504.5
2022/07/04 00:44:00.000  -2500946.1139  -4670472.8424   3539500.5428   1   9   0.0004   0.0007   0.0007   0.0004  -0.0005  -0.0004   0.00  506.4
2022/07/04 00:44:15.000  -2500946.1139  -4670472.8423   3539500.5427   1   9   0.0004   0.0007   0.0007   0.0004  -0.0005  -0.0004   0.00  508.4
2022/07/04 00:44:30.000  -2500946.1139  -4670472.8422   3539500.5426   1   9   0.0004   0.0007   0.0007   0.0004  -0.0005  -0.0004   0.00  512.1
2022/07/04 00:44:45.000  -2500946.1138  -4670472.8421   3539500.5424   1   9   0.0004   0.0007   0.0007   0.0004  -0.0005  -0.0004   0.00  513.0
2022/07/04 00:45:00.000  -2500946.1138  -4670472.8420   3539500.5423   1   9   0.0004   0.0007   0.0007   0.0004  -0.0005  -0.0004   0.00  512.8
2022/07/04 00:45:15.000  -2500946.1138  -4670472.8419   3539500.5422   1   9   0.0004   0.0007   0.0007   0.0004  -0.0005  -0.0004   0.00  512.0
2022/07/04 00:45:30.000  -2500946.1137  -4670472.8419   3539500.5421   1   9   0.0004   0.0007   0.0007   0.0004  -0.0005  -0.0004   0.00  515.5
2022/07/04 00:45:45.000  -2500946.1137  -4670472.8418   3539500.5420   1   9   0.0004   0.0007   0.0007   0.0004  -0.0005  -0.0004   0.00  518.4
2022/07/04 00:46:00.000  -2500946.1136  -4670472.8417   3539500.5419   1   9   0.0004   0.0007   0.0007   0.0004  -0.0005  -0.0004   0.00  521.3
2022/07/04 00:46:15.000  -2500946.1136  -4670472.8417   3539500.5418   1   9   0.0004   0.0007   0.0007   0.0004  -0.0005  -0.0004   0.00  522.1
2022/07/04 00:46:30.000  -2500946.1140  -4670472.8420   3539500.5424   1   8   0.0004   0.0007   0.0007   0.0004  -0.0005  -0.0004   0.00  612.5
2022/07/04 00:46:45.000  -2500946.1141  -4670472.8421   3539500.5424   1   7   0.0004   0.0007   0.0007   0.0004  -0.0005  -0.0004   0.00  628.9
2022/07/04 00:47:00.000  -2500946.1141  -4670472.8421   3539500.5424   1   7   0.0004   0.0007   0.0007   0.0004  -0.0005  -0.0004   0.00  628.0
2022/07/04 00:47:15.000  -2500946.1142  -4670472.8422   3539500.5424   1   7   0.0004   0.0007   0.0007   0.0004  -0.0005  -0.0004   0.00  628.0
2022/07/04 00:47:30.000  -2500946.1142  -4670472.8422   3539500.5424   1   7   0.0004   0.0007   0.0007   0.0004  -0.0005  -0.0004   0.00  632.0
2022/07/04 00:47:45.000  -2500946.1142  -4670472.8423   3539500.5424   1   7   0.0004   0.0007   0.0007   0.0004  -0.0005  -0.0004   0.00  631.3
2022/07/04 00:48:00.000  -2500946.1142  -4670472.8423   3539500.5424   1   7   0.0004   0.0007   0.0007   0.0004  -0.0005  -0.0004   0.00  631.3
2022/07/04 00:48:15.000  -2500946.1143  -4670472.8423   3539500.5424   1   7   0.0004   0.0007   0.0007   0.0004  -0.0005  -0.0004   0.00  632.8
2022/07/04 00:48:30.000  -2500946.1143  -4670472.8424   3539500.5424   1   7   0.0004   0.0007   0.0007   0.0004  -0.0005  -0.0004   0.00  633.6
2022/07/04 00:48:45.000  -2500946.1143  -4670472.8424   3539500.5424   1   7   0.0004   0.0007   0.0007   0.0004  -0.0005  -0.0004   0.00  632.1
2022/07/04 00:49:00.000  -2500946.1143  -4670472.8424   3539500.5424   1   7   0.0004   0.0007   0.0007   0.0004  -0.0005  -0.0004   0.00  631.1
2022/07/04 00:49:15.000  -2500946.1144  -4670472.8424   3539500.5425   1   7   0.0004   0.0007   0.0007   0.0004  -0.0005  -0.0004   0.00  636.8
2022/07/04 00:49:30.000  -2500946.1144  -4670472.8425   3539500.5425   1   7   0.0004   0.0007   0.0007   0.0004  -0.0005  -0.0004   0.00  637.9
2022/07/04 00:49:45.000  -2500946.1145  -4670472.8425   3539500.5425   1   7   0.0004   0.0007   0.0007   0.0004  -0.0005  -0.0004   0.00  631.0
2022/07/04 00:50:00.000  -2500946.1146  -4670472.8426   3539500.5425   1   7   0.0004   0.0007   0.0007   0.0004  -0.0005  -0.0004   0.00  626.6
2022/07/04 00:50:15.000  -2500946.1146  -4670472.8427   3539500.5426   1   7   0.0004   0.0007   0.0007   0.0004  -0.0005  -0.0004   0.00  626.6
2022/07/04 00:50:30.000  -2500946.1147  -4670472.8428   3539500.5426   1   7   0.0004   0.0007   0.0007   0.0004  -0.0005  -0.0004   0.00  625.1
2022/07/04 00:50:45.000  -2500946.1148  -4670472.8428   3539500.5427   1   7   0.0004   0.0007   0.0007   0.0004  -0.0005  -0.0004   0.00  627.9
2022/07/04 00:51:00.000  -2500946.1148  -4670472.8429   3539500.5427   1   7   0.0004   0.0007   0.0007   0.0004  -0.0005  -0.0004   0.00  628.7
2022/07/04 00:51:15.000  -2500946.1149  -4670472.8429   3539500.5428   1   7   0.0004   0.0007   0.0007   0.0004  -0.0005  -0.0004   0.00  626.1
2022/07/04 00:51:30.000  -2500946.1150  -4670472.8430   3539500.5428   1   7   0.0004   0.0007   0.0007   0.0004  -0.0005  -0.0004   0.00  623.4
2022/07/04 00:51:45.000  -2500946.1150  -4670472.8431   3539500.5429   1   7   0.0004   0.0007   0.0007   0.0004  -0.0005  -0.0004   0.00  618.2
2022/07/04 00:52:00.000  -2500946.1151  -4670472.8432   3539500.5429   1   7   0.0004   0.0007   0.0007   0.0004  -0.0005  -0.0004   0.00  610.2
2022/07/04 00:52:15.000  -2500946.1151  -4670472.8433   3539500.5429   1   7   0.0004   0.0007   0.0007   0.0004  -0.0005  -0.0004   0.00  601.3
2022/07/04 00:52:30.000  -2500946.1152  -4670472.8434   3539500.5430   1   7   0.0004   0.0007   0.0007   0.0004  -0.0005  -0.0004   0.00  593.0
2022/07/04 00:52:45.000  -2500946.1152  -4670472.8434   3539500.5430   1   7   0.0004   0.0006   0.0007   0.0004  -0.0005  -0.0004   0.00  586.8
2022/07/04 00:53:00.000  -2500946.1153  -4670472.8434   3539500.5430   1   7   0.0004   0.0006   0.0007   0.0004  -0.0005  -0.0004   0.00  579.3
2022/07/04 00:53:15.000  -2500946.1153  -4670472.8435   3539500.5430   1   7   0.0004   0.0006   0.0007   0.0004  -0.0005  -0.0004   0.00  575.5
2022/07/04 00:53:30.000  -2500946.1153  -4670472.8435   3539500.5430   1   7   0.0004   0.0006   0.0007   0.0004  -0.0005  -0.0004   0.00  569.6
2022/07/04 00:53:45.000  -2500946.1153  -4670472.8435   3539500.5430   1   7   0.0004   0.0006   0.0007   0.0004  -0.0005  -0.0004   0.00  568.4
2022/07/04 00:54:00.000  -2500946.1154  -4670472.8436   3539500.5430   1   7   0.0004   0.0006   0.0007   0.0004  -0.0005  -0.0004   0.00  566.6
2022/07/04 00:54:15.000  -2500946.1154  -4670472.8436   3539500.5431   1   7   0.0004   0.0006   0.0007   0.0004  -0.0005  -0.0004   0.00  563.8
2022/07/04 00:54:30.000  -2500946.1154  -4670472.8437   3539500.5431   1   7   0.0004   0.0006   0.0007   0.0004  -0.0005  -0.0004   0.00  565.8
2022/07/04 00:54:45.000  -2500946.1155  -4670472.8438   3539500.5432   1   7   0.0004   0.0006   0.0007   0.0004  -0.0005  -0.0004   0.00  567.0
2022/07/04 00:55:00.000  -2500946.1155  -4670472.8438   3539500.5432   1   7   0.0004   0.0006   0.0007   0.0004  -0.0005  -0.0004   0.00  567.6
2022/07/04 00:55:15.000  -2500946.1156  -4670472.8439   3539500.5432   1   7   0.0004   0.0006   0.0007   0.0004  -0.0005  -0.0004   0.00  570.2
2022/07/04 00:55:30.000  -2500946.1156  -4670472.8439   3539500.5432   1   7   0.0004   0.0006   0.0007   0.0004  -0.0005  -0.0004   0.00  572.3
2022/07/04 00:55:45.000  -2500946.1156  -4670472.8439   3539500.5433   1   7   0.0004   0.0006   0.0007   0.0004  -0.0005  -0.0004   0.00  579.5
2022/07/04 00:56:00.000  -2500946.1156  -4670472.8439   3539500.5433   1   7   0.0004   0.0006   0.0007   0.0004  -0.0005  -0.0004   0.00  586.0
2022/07/04 00:56:15.000  -2500946.1156  -4670472.8439   3539500.5433   1   7   0.0004   0.0006   0.0007   0.0004  -0.0005  -0.0004   0.00  594.9
2022/07/04 00:56:30.000  -2500946.1156  -4670472.8439   3539500.5432   1   7   0.0004   0.0006   0.0007   0.0004  -0.0005  -0.0004   0.00  599.8
2022/07/04 00:56:45.000  -2500946.1156  -4670472.8439   3539500.5432   1   7   0.0004   0.0006   0.0007   0.0004  -0.0005  -0.0004   0.00  607.6
2022/07/04 00:57:00.000  -2500946.1156  -4670472.8438   3539500.5432   1   7   0.0004   0.0006   0.0007   0.0004  -0.0005  -0.0004   0.00  615.9
2022/07/04 00:57:15.000  -2500946.1156  -4670472.8438   3539500.5431   1   7   0.0004   0.0006   0.0006   0.0004  -0.0005  -0.0004   0.00  618.8
2022/07/04 00:57:30.000  -2500946.1156  -4670472.8438   3539500.5431   1   7   0.0004   0.0006   0.0006   0.0004  -0.0005  -0.0004   0.00  618.0
2022/07/04 00:57:45.000  -2500946.1156  -4670472.8437   3539500.5430   1   7   0.0004   0.0006   0.0006   0.0004  -0.0005  -0.0004   0.00  617.2
2022/07/04 00:58:00.000  -2500946.1156  -4670472.8436   3539500.5430   1   7   0.0004   0.0006   0.0006   0.0004  -0.0005  -0.0004   0.00  617.7
2022/07/04 00:58:15.000  -2500946.1156  -4670472.8436   3539500.5429   1   7   0.0004   0.0006   0.0006   0.0004  -0.0005  -0.0004   0.00  619.2
2022/07/04 00:58:30.000  -2500946.1156  -4670472.8436   3539500.5428   1   7   0.0004   0.0006   0.0006   0.0004  -0.0005  -0.0004   0.00  620.9
2022/07/04 00:58:45.000  -2500946.1155  -4670472.8435   3539500.5427   1   7   0.0004   0.0006   0.0006   0.0004  -0.0005  -0.0004   0.00  626.3
2022/07/04 00:59:00.000  -2500946.1155  -4670472.8434   3539500.5426   1   7   0.0004   0.0006   0.0006   0.0004  -0.0005  -0.0004   0.00  631.8
2022/07/04 00:59:15.000  -2500946.1155  -4670472.8434   3539500.5425   1   7   0.0004   0.0006   0.0006   0.0004  -0.0005  -0.0004   0.00  637.7
2022/07/04 00:59:30.000  -2500946.1155  -4670472.8433   3539500.5424   1   7   0.0004   0.0006   0.0006   0.0004  -0.0005  -0.0004   0.00  642.7
2022/07/04 00:59:45.000  -2500946.1154  -4670472.8433   3539500.5423   1   7   0.0004   0.0006   0.0006   0.0004  -0.0005  -0.0004   0.00  652.8
2022/07/04 01:00:00.000  -2500946.1154  -4670472.8433   3539500.5423   1   7   0.0004   0.0006   0.0006   0.0004  -0.0005  -0.0004   0.00  658.5
2022/07/04 01:00:15.000  -2500946.1154  -4670472.8433   3539500.5422   1   7   0.0004   0.0006   0.0006   0.0004  -0.0005  -0.0004   0.00  657.6
2022/07/04 01:00:30.000  -2500946.1155  -4670472.8433   3539500.5422   1   7   0.0004   0.0006   0.0006   0.0004  -0.0005  -0.0004   0.00  656.2
2022/07/04 01:00:45.000  -2500946.1155  -4670472.8433   3539500.5421   1   7   0.0004   0.0006   0.0006   0.0004  -0.0005  -0.0004   0.00  654.7
2022/07/04 01:01:00.000  -2500946.1155  -4670472.8434   3539500.5421   1   7   0.0004   0.0006   0.0006   0.0004  -0.0005  -0.0004   0.00  653.5
2022/07/04 01:01:15.000  -2500946.1155  -4670472.8434   3539500.5421   1   7   0.0004   0.0006   0.0006   0.0004  -0.0005  -0.0004   0.00  651.8
2022/07/04 01:01:30.000  -2500946.1155  -4670472.8434   3539500.5420   1   7   0.0004   0.0006   0.0006   0.0004  -0.0005  -0.0004   0.00  643.6
2022/07/04 01:01:45.000  -2500946.1155  -4670472.8434   3539500.5420   1   7   0.0004   0.0006   0.0006   0.0004  -0.0005  -0.0004   0.00  636.5
2022/07/04 01:02:00.000  -2500946.1156  -4670472.8434   3539500.5419   1   7   0.0004   0.0006   0.0006   0.0004  -0.0005  -0.0004   0.00  631.4
2022/07/04 01:02:15.000  -2500946.1156  -4670472.8435   3539500.5419   1   7   0.0004   0.0006   0.0006   0.0004  -0.0005  -0.0004   0.00  622.4
2022/07/04 01:02:30.000  -2500946.1156  -4670472.8435   3539500.5418   1   7   0.0004   0.0006   0.0006   0.0004  -0.0005  -0.0004   0.00  612.3
2022/07/04 01:02:45.000  -2500946.1156  -4670472.8435   3539500.5418   1   7   0.0004   0.0006   0.0006   0.0004  -0.0005  -0.0004   0.00  602.6
2022/07/04 01:03:00.000  -2500946.1156  -4670472.8435   3539500.5418   1   7   0.0004   0.0006   0.0006   0.0004  -0.0005  -0.0004   0.00  595.2
2022/07/04 01:03:15.000  -2500946.1157  -4670472.8435   3539500.5417   1   7   0.0004   0.0006   0.0006   0.0004  -0.0005  -0.0004   0.00  591.6
2022/07/04 01:03:30.000  -2500946.1157  -4670472.8435   3539500.5417   1   7   0.0004   0.0006   0.0006   0.0004  -0.0005  -0.0004   0.00  587.9
2022/07/04 01:03:45.000  -2500946.1157  -4670472.8435   3539500.5417   1   7   0.0004   0.0006   0.0006   0.0004  -0.0005  -0.0004   0.00  588.8
2022/07/04 01:04:00.000  -2500946.1157  -4670472.8435   3539500.5417   1   7   0.0004   0.0006   0.0006   0.0004  -0.0005  -0.0004   0.00  587.4
2022/07/04 01:04:15.000  -2500946.1158  -4670472.8435   3539500.5417   1   7   0.0004   0.0006   0.0006   0.0004  -0.0005  -0.0004   0.00  589.0
2022/07/04 01:04:30.000  -2500946.1158  -4670472.8436   3539500.5417   1   7   0.0004   0.0006   0.0006   0.0004  -0.0005  -0.0004   0.00  590.1
2022/07/04 01:04:45.000  -2500946.1158  -4670472.8436   3539500.5416   1   7   0.0004   0.0006   0.0006   0.0004  -0.0005  -0.0004   0.00  586.5
2022/07/04 01:05:00.000  -2500946.1158  -4670472.8436   3539500.5416   1   7   0.0004   0.0006   0.0006   0.0004  -0.0005  -0.0004   0.00  580.9
2022/07/04 01:05:15.000  -2500946.1158  -4670472.8436   3539500.5416   1   7   0.0004   0.0006   0.0006   0.0004  -0.0005  -0.0004   0.00  577.3
2022/07/04 01:05:30.000  -2500946.1158  -4670472.8436   3539500.5416   1   7   0.0004   0.0006   0.0006   0.0004  -0.0005  -0.0004   0.00  571.4
2022/07/04 01:05:45.000  -2500946.1158  -4670472.8437   3539500.5415   1   7   0.0004   0.0006   0.0006   0.0004  -0.0005  -0.0004   0.00  565.0
2022/07/04 01:06:00.000  -2500946.1158  -4670472.8436   3539500.5415   1   7   0.0004   0.0006   0.0006   0.0004  -0.0005  -0.0004   0.00  557.3
2022/07/04 01:06:15.000  -2500946.1158  -4670472.8436   3539500.5414   1   7   0.0004   0.0006   0.0006   0.0004  -0.0004  -0.0004   0.00  552.6
2022/07/04 01:06:30.000  -2500946.1158  -4670472.8436   3539500.5414   1   7   0.0004   0.0006   0.0006   0.0004  -0.0004  -0.0004   0.00  548.0
2022/07/04 01:06:45.000  -2500946.1158  -4670472.8436   3539500.5414   1   7   0.0004   0.0006   0.0006   0.0004  -0.0004  -0.0004   0.00  546.0
2022/07/04 01:07:00.000  -2500946.1158  -4670472.8437   3539500.5413   1   7   0.0004   0.0006   0.0006   0.0004  -0.0004  -0.0004   0.00  547.9
2022/07/04 01:07:15.000  -2500946.1157  -4670472.8437   3539500.5413   1   7   0.0004   0.0006   0.0006   0.0004  -0.0004  -0.0004   0.00  547.8
2022/07/04 01:07:30.000  -2500946.1157  -4670472.8437   3539500.5413   1   7   0.0004   0.0006   0.0006   0.0004  -0.0004  -0.0004   0.00  545.0
2022/07/04 01:07:45.000  -2500946.1157  -4670472.8437   3539500.5413   1   7   0.0004   0.0006   0.0006   0.0004  -0.0004  -0.0004   0.00  546.9
2022/07/04 01:08:00.000  -2500946.1157  -4670472.8437   3539500.5413   1   7   0.0004   0.0006   0.0006   0.0004  -0.0004  -0.0004   0.00  545.5
2022/07/04 01:08:15.000  -2500946.1157  -4670472.8437   3539500.5412   1   7   0.0004   0.0006   0.0006   0.0004  -0.0004  -0.0004   0.00  547.5
2022/07/04 01:08:30.000  -2500946.1157  -4670472.8437   3539500.5412   1   7   0.0004   0.0006   0.0006   0.0004  -0.0004  -0.0004   0.00  550.8
2022/07/04 01:08:45.000  -2500946.1157  -4670472.8437   3539500.5412   1   7   0.0004   0.0006   0.0006   0.0004  -0.0004  -0.0004   0.00  554.4
2022/07/04 01:09:00.000  -2500946.1157  -4670472.8438   3539500.5412   1   7   0.0004   0.0006   0.0006   0.0004  -0.0004  -0.0004   0.00  555.9
2022/07/04 01:09:15.000  -2500946.1157  -4670472.8438   3539500.5412   1   7   0.0004   0.0006   0.0006   0.0004  -0.0004  -0.0004   0.00  558.8
2022/07/04 01:09:30.000  -2500946.1157  -4670472.8438   3539500.5412   1   7   0.0004   0.0006   0.0006   0.0004  -0.0004  -0.0004   0.00  559.4
2022/07/04 01:09:45.000  -2500946.1157  -4670472.8438   3539500.5412   1   7   0.0004   0.0006   0.0006   0.0003  -0.0004  -0.0004   0.00  563.2
2022/07/04 01:10:00.000  -2500946.1157  -4670472.8438   3539500.5411   1   7   0.0004   0.0006   0.0006   0.0003  -0.0004  -0.0004   0.00  568.3
2022/07/04 01:10:15.000  -2500946.1157  -4670472.8437   3539500.5411   1   7   0.0004   0.0006   0.0006   0.0003  -0.0004  -0.0004   0.00  570.8
2022/07/04 01:10:30.000  -2500946.1157  -4670472.8437   3539500.5411   1   7   0.0004   0.0006   0.0006   0.0003  -0.0004  -0.0004   0.00  570.9
2022/07/04 01:10:45.000  -2500946.1157  -4670472.8437   3539500.5410   1   7   0.0004   0.0006   0.0006   0.0003  -0.0004  -0.0004   0.00  572.8
2022/07/04 01:11:00.000  -2500946.1157  -4670472.8436   3539500.5410   1   7   0.0004   0.0006   0.0006   0.0003  -0.0004  -0.0004   0.00  577.1
2022/07/04 01:11:15.000  -2500946.1157  -4670472.8436   3539500.5409   1   7   0.0004   0.0006   0.0006   0.0003  -0.0004  -0.0004   0.00  586.7
2022/07/04 01:11:30.000  -2500946.1157  -4670472.8436   3539500.5409   1   7   0.0004   0.0006   0.0006   0.0003  -0.0004  -0.0004   0.00  590.9
2022/07/04 01:11:45.000  -2500946.1157  -4670472.8435   3539500.5409   1   7   0.0004   0.0006   0.0006   0.0003  -0.0004  -0.0004   0.00  597.1
2022/07/04 01:12:00.000  -2500946.1158  -4670472.8435   3539500.5408   1   7   0.0004   0.0006   0.0006   0.0003  -0.0004  -0.0004   0.00  607.5
2022/07/04 01:12:15.000  -2500946.1158  -4670472.8435   3539500.5408   1   7   0.0004   0.0006   0.0006   0.0003  -0.0004  -0.0004   0.00  616.9
2022/07/04 01:12:30.000  -2500946.1158  -4670472.8434   3539500.5408   1   7   0.0004   0.0005   0.0006   0.0003  -0.0004  -0.0004   0.00  624.1
2022/07/04 01:12:45.000  -2500946.1158  -4670472.8434   3539500.5408   1   7   0.0004   0.0005   0.0006   0.0003  -0.0004  -0.0004   0.00  631.8
2022/07/04 01:13:00.000  -2500946.1159  -4670472.8433   3539500.5407   1   7   0.0004   0.0005   0.0006   0.0003  -0.0004  -0.0004   0.00  644.8
2022/07/04 01:13:15.000  -2500946.1159  -4670472.8433   3539500.5407   1   7   0.0004   0.0005   0.0006   0.0003  -0.0004  -0.0004   0.00  656.7
2022/07/04 01:13:30.000  -2500946.1159  -4670472.8432   3539500.5407   1   7   0.0004   0.0005   0.0006   0.0003  -0.0004  -0.0004   0.00  664.8
2022/07/04 01:13:45.000  -2500946.1160  -4670472.8432   3539500.5407   1   7   0.0004   0.0005   0.0006   0.0003  -0.0004  -0.0004   0.00  673.5
2022/07/04 01:14:00.000  -2500946.1160  -4670472.8431   3539500.5407   1   7   0.0004   0.0005   0.0006   0.0003  -0.0004  -0.0004   0.00  677.1
2022/07/04 01:14:15.000  -2500946.1160  -4670472.8431   3539500.5406   1   7   0.0004   0.0005   0.0006   0.0003  -0.0004  -0.0004   0.00  679.0
2022/07/04 01:14:30.000  -2500946.1161  -4670472.8431   3539500.5406   1   7   0.0004   0.0005   0.0006   0.0003  -0.0004  -0.0004   0.00  678.8
2022/07/04 01:14:45.000  -2500946.1161  -4670472.8430   3539500.5406   1   7   0.0004   0.0005   0.0006   0.0003  -0.0004  -0.0004   0.00  679.1
2022/07/04 01:15:00.000  -2500946.1161  -4670472.8430   3539500.5406   1   7   0.0004   0.0005   0.0006   0.0003  -0.0004  -0.0004   0.00  688.5
2022/07/04 01:15:15.000  -2500946.1159  -4670472.8428   3539500.5412   2   8   0.0004   0.0006   0.0006   0.0004  -0.0004  -0.0004   0.00    2.7
2022/07/04 01:15:30.000  -2500946.1162  -4670472.8430   3539500.5407   1   8   0.0004   0.0005   0.0006   0.0003  -0.0004  -0.0003   0.00    4.3
2022/07/04 01:15:45.000  -2500946.1162  -4670472.8430   3539500.5407   1   8   0.0004   0.0005   0.0006   0.0003  -0.0004  -0.0003   0.00    6.2
2022/07/04 01:16:00.000  -2500946.1162  -4670472.8430   3539500.5407   1   8   0.0004   0.0005   0.0006   0.0003  -0.0004  -0.0003   0.00    8.1
2022/07/04 01:16:15.000  -2500946.1162  -4670472.8429   3539500.5407   1   8   0.0004   0.0005   0.0006   0.0003  -0.0004  -0.0003   0.00    3.9
2022/07/04 01:16:30.000  -2500946.1162  -4670472.8429   3539500.5407   1   8   0.0004   0.0005   0.0006   0.0003  -0.0004  -0.0003   0.00    6.3
2022/07/04 01:16:45.000  -2500946.1162  -4670472.8429   3539500.5406   1   8   0.0004   0.0005   0.0006   0.0003  -0.0004  -0.0003   0.00    8.9
2022/07/04 01:17:00.000  -2500946.1161  -4670472.8428   3539500.5406   1   8   0.0004   0.0005   0.0006   0.0003  -0.0004  -0.0003   0.00   11.0
2022/07/04 01:17:15.000  -2500946.1161  -4670472.8428   3539500.5405   1   8   0.0004   0.0005   0.0006   0.0003  -0.0004  -0.0003   0.00   13.3
2022/07/04 01:17:30.000  -2500946.1161  -4670472.8428   3539500.5405   1   8   0.0004   0.0005   0.0006   0.0003  -0.0004  -0.0003   0.00   15.9
2022/07/04 01:17:45.000  -2500946.1161  -4670472.8427   3539500.5404   1   8   0.0004   0.0005   0.0006   0.0003  -0.0004  -0.0003   0.00   17.9
2022/07/04 01:18:00.000  -2500946.1161  -4670472.8427   3539500.5403   1   8   0.0004   0.0005   0.0006   0.0003  -0.0004  -0.0003   0.00   27.5
2022/07/04 01:18:15.000  -2500946.1161  -4670472.8427   3539500.5404   1   8   0.0004   0.0005   0.0006   0.0003  -0.0004  -0.0003   0.00    4.0
2022/07/04 01:18:30.000  -2500946.1161  -4670472.8427   3539500.5403   1   8   0.0004   0.0005   0.0006   0.0003  -0.0004  -0.0003   0.00   15.0
2022/07/04 01:18:45.000  -2500946.1161  -4670472.8427   3539500.5403   1   8   0.0004   0.0005   0.0005   0.0003  -0.0004  -0.0003   0.00   26.5
2022/07/04 01:19:00.000  -2500946.1161  -4670472.8426   3539500.5403   1   8   0.0004   0.0005   0.0005   0.0003  -0.0004  -0.0003   0.00   38.7
2022/07/04 01:19:15.000  -2500946.1160  -4670472.8426   3539500.5403   1   8   0.0004   0.0005   0.0005   0.0003  -0.0004  -0.0003   0.00   50.9
2022/07/04 01:19:30.000  -2500946.1160  -4670472.8426   3539500.5402   1   8   0.0004   0.0005   0.0005   0.0003  -0.0004  -0.0003   0.00   63.0
2022/07/04 01:19:45.000  -2500946.1160  -4670472.8426   3539500.5402   1   8   0.0004   0.0005   0.0005   0.0003  -0.0004  -0.0003   0.00   75.2
2022/07/04 01:20:00.000  -2500946.1159  -4670472.8425   3539500.5401   1   8   0.0004   0.0005   0.0005   0.0003  -0.0004  -0.0003   0.00   88.2
2022/07/04 01:20:15.000  -2500946.1159  -4670472.8425   3539500.5401   1   8   0.0004   0.0005   0.0005   0.0003  -0.0004  -0.0003   0.00  101.9
2022/07/04 01:20:30.000  -2500946.1159  -4670472.8425   3539500.5401   1   8   0.0004   0.0005   0.0005   0.0003  -0.0004  -0.0003   0.00  117.3
2022/07/04 01:20:45.000  -2500946.1158  -4670472.8424   3539500.5400   1   8   0.0004   0.0005   0.0005   0.0003  -0.0004  -0.0003   0.00  132.9
2022/07/04 01:21:00.000  -2500946.1158  -4670472.8424   3539500.5400   1   8   0.0004   0.0005   0.0005   0.0003  -0.0004  -0.0003   0.00  148.1
2022/07/04 01:21:15.000  -2500946.1158  -4670472.8423   3539500.5400   1   8   0.0004   0.0005   0.0005   0.0003  -0.0004  -0.0003   0.00  164.4
2022/07/04 01:21:30.000  -2500946.1157  -4670472.8423   3539500.5399   1   8   0.0004   0.0005   0.0005   0.0003  -0.0004  -0.0003   0.00  181.4
2022/07/04 01:21:45.000  -2500946.1157  -4670472.8422   3539500.5398   1   8   0.0004   0.0005   0.0005   0.0003  -0.0004  -0.0003   0.00  197.8
2022/07/04 01:22:00.000  -2500946.1157  -4670472.8422   3539500.5398   1   8   0.0004   0.0005   0.0005   0.0003  -0.0004  -0.0003   0.00  212.5
2022/07/04 01:22:15.000  -2500946.1156  -4670472.8421   3539500.5398   1   8   0.0004   0.0005   0.0005   0.0003  -0.0004  -0.0003   0.00  229.0
2022/07/04 01:22:30.000  -2500946.1156  -4670472.8421   3539500.5397   1   8   0.0004   0.0005   0.0005   0.0003  -0.0004  -0.0003   0.00  245.0
2022/07/04 01:22:45.000  -2500946.1156  -4670472.8420   3539500.5397   1   8   0.0004   0.0005   0.0005   0.0003  -0.0004  -0.0003   0.00  256.9
2022/07/04 01:23:00.000  -2500946.1155  -4670472.8420   3539500.5396   1   8   0.0004   0.0005   0.0005   0.0003  -0.0004  -0.0003   0.00  271.0
2022/07/04 01:23:15.000  -2500946.1155  -4670472.8420   3539500.5396   1   8   0.0004   0.0005   0.0005   0.0003  -0.0004  -0.0003   0.00  286.0
2022/07/04 01:23:30.000  -2500946.1155  -4670472.8419   3539500.5395   1   8   0.0004   0.0005   0.0005   0.0003  -0.0004  -0.0003   0.00  301.3
2022/07/04 01:23:45.000  -2500946.1155  -4670472.8419   3539500.5395   1   8   0.0004   0.0005   0.0005   0.0003  -0.0004  -0.0003   0.00  315.2
2022/07/04 01:24:00.000  -2500946.1154  -4670472.8419   3539500.5394   1   8   0.0004   0.0005   0.0005   0.0003  -0.0004  -0.0003   0.00  326.5
2022/07/04 01:24:15.000  -2500946.1154  -4670472.8419   3539500.5394   1   8   0.0004   0.0005   0.0005   0.0003  -0.0004  -0.0003   0.00  336.5
2022/07/04 01:24:30.000  -2500946.1154  -4670472.8419   3539500.5393   1   8   0.0004   0.0005   0.0005   0.0003  -0.0004  -0.0003   0.00  347.2
2022/07/04 01:24:45.000  -2500946.1153  -4670472.8418   3539500.5392   1   8   0.0004   0.0005   0.0005   0.0003  -0.0004  -0.0003   0.00  356.1
2022/07/04 01:25:00.000  -2500946.1153  -4670472.8418   3539500.5391   1   8   0.0004   0.0005   0.0005   0.0003  -0.0004  -0.0003   0.00  360.6
2022/07/04 01:25:15.000  -2500946.1153  -4670472.8418   3539500.5391   1   8   0.0004   0.0005   0.0005   0.0003  -0.0004  -0.0003   0.00  371.4
2022/07/04 01:25:30.000  -2500946.1152  -4670472.8417   3539500.5390   1   8   0.0004   0.0005   0.0005   0.0003  -0.0004  -0.0003   0.00  382.6
2022/07/04 01:25:45.000  -2500946.1152  -4670472.8417   3539500.5389   1   8   0.0004   0.0005   0.0005   0.0003  -0.0004  -0.0003   0.00  386.2
2022/07/04 01:26:00.000  -2500946.1151  -4670472.8416   3539500.5388   1   8   0.0004   0.0005   0.0005   0.0003  -0.0004  -0.0003   0.00  388.9
2022/07/04 01:26:15.000  -2500946.1151  -4670472.8416   3539500.5389   1   8   0.0004   0.0005   0.0005   0.0003  -0.0004  -0.0003   0.00    4.3
2022/07/04 01:26:30.000  -2500946.1150  -4670472.8415   3539500.5388   1   8   0.0003   0.0005   0.0005   0.0003  -0.0004  -0.0003   0.00   19.1
2022/07/04 01:26:45.000  -2500946.1150  -4670472.8414   3539500.5387   1   8   0.0003   0.0005   0.0005   0.0003  -0.0004  -0.0003   0.00   33.8
2022/07/04 01:27:00.000  -2500946.1149  -4670472.8413   3539500.5387   1   8   0.0003   0.0005   0.0005   0.0003  -0.0004  -0.0003   0.00   49.4
2022/07/04 01:27:15.000  -2500946.1149  -4670472.8413   3539500.5386   1   8   0.0003   0.0005   0.0005   0.0003  -0.0004  -0.0003   0.00   65.4
2022/07/04 01:27:30.000  -2500946.1148  -4670472.8413   3539500.5386   1   8   0.0003   0.0005   0.0005   0.0003  -0.0004  -0.0003   0.00   81.8
2022/07/04 01:27:45.000  -2500946.1148  -4670472.8412   3539500.5386   1   8   0.0003   0.0005   0.0005   0.0003  -0.0004  -0.0003   0.00   97.3
2022/07/04 01:28:00.000  -2500946.1147  -4670472.8412   3539500.5386   1   8   0.0003   0.0005   0.0005   0.0003  -0.0004  -0.0003   0.00  113.5
2022/07/04 01:28:15.000  -2500946.1147  -4670472.8412   3539500.5385   1   8   0.0003   0.0005   0.0005   0.0003  -0.0004  -0.0003   0.00  126.9
2022/07/04 01:28:30.000  -2500946.1147  -4670472.8412   3539500.5385   1   8   0.0003   0.0005   0.0005   0.0003  -0.0004  -0.0003   0.00  145.4
2022/07/04 01:28:45.000  -2500946.1147  -4670472.8411   3539500.5385   1   8   0.0003   0.0005   0.0005   0.0003  -0.0004  -0.0003   0.00  163.5
2022/07/04 01:29:00.000  -2500946.1146  -4670472.8411   3539500.5385   1   8   0.0003   0.0005   0.0005   0.0003  -0.0004  -0.0003   0.00  181.0
2022/07/04 01:29:15.000  -2500946.1146  -4670472.8411   3539500.5385   1   8   0.0003   0.0005   0.0005   0.0003  -0.0003  -0.0003   0.00  198.3
2022/07/04 01:29:30.000  -2500946.1146  -4670472.8411   3539500.5385   1   8   0.0003   0.0005   0.0005   0.0003  -0.0003  -0.0003   0.00  216.2
2022/07/04 01:29:45.000  -2500946.1146  -4670472.8411   3539500.5385   1   8   0.0003   0.0005   0.0005   0.0003  -0.0003  -0.0003   0.00  235.2
2022/07/04 01:30:00.000  -2500946.1146  -4670472.8411   3539500.5385   1   8   0.0003   0.0005   0.0005   0.0003  -0.0003  -0.0003   0.00  258.9
2022/07/04 01:30:15.000  -2500946.1146  -4670472.8411   3539500.5385   1   8   0.0003   0.0005   0.0005   0.0003  -0.0003  -0.0003   0.00  280.7
2022/07/04 01:30:30.000  -2500946.1146  -4670472.8411   3539500.5385   1   8   0.0003   0.0005   0.0005   0.0003  -0.0003  -0.0003   0.00  297.4
2022/07/04 01:30:45.000  -2500946.1146  -4670472.8411   3539500.5385   1   8   0.0003   0.0005   0.0005   0.0003  -0.0003  -0.0003   0.00  322.6
2022/07/04 01:31:00.000  -2500946.1146  -4670472.8412   3539500.5386   1   8   0.0003   0.0005   0.0005   0.0003  -0.0003  -0.0003   0.00  346.9
2022/07/04 01:31:15.000  -2500946.1146  -4670472.8412   3539500.5386   1   8   0.0003   0.0005   0.0005   0.0003  -0.0003  -0.0003   0.00  378.4
2022/07/04 01:31:30.000  -2500946.1145  -4670472.8412   3539500.5386   1   8   0.0003   0.0005   0.0005   0.0003  -0.0003  -0.0003   0.00  412.0
2022/07/04 01:31:45.000  -2500946.1145  -4670472.8412   3539500.5386   1   8   0.0003   0.0005   0.0005   0.0003  -0.0003  -0.0003   0.00  444.8
2022/07/04 01:32:00.000  -2500946.1145  -4670472.8412   3539500.5386   1   8   0.0003   0.0005   0.0005   0.0003  -0.0003  -0.0003   0.00  472.2
2022/07/04 01:32:15.000  -2500946.1145  -4670472.8412   3539500.5386   1   8   0.0003   0.0005   0.0005   0.0003  -0.0003  -0.0003   0.00  500.8
2022/07/04 01:32:30.000  -2500946.1145  -4670472.8412   3539500.5386   1   8   0.0003   0.0005   0.0005   0.0003  -0.0003  -0.0003   0.00  529.6
2022/07/04 01:32:45.000  -2500946.1144  -4670472.8412   3539500.5385   1   8   0.0003   0.0005   0.0005   0.0003  -0.0003  -0.0003   0.00  552.0
2022/07/04 01:33:00.000  -2500946.1144  -4670472.8413   3539500.5385   1   8   0.0003   0.0005   0.0005   0.0003  -0.0003  -0.0003   0.00  567.6
2022/07/04 01:33:15.000  -2500946.1143  -4670472.8413   3539500.5385   1   8   0.0003   0.0005   0.0005   0.0003  -0.0003  -0.0003   0.00  581.7
2022/07/04 01:33:30.000  -2500946.1147  -4670472.8415   3539500.5390   2   9   0.0004   0.0005   0.0005   0.0003  -0.0004  -0.0003   0.00    2.5
2022/07/04 01:33:45.000  -2500946.1142  -4670472.8412   3539500.5384   1   9   0.0003   0.0005   0.0005   0.0003  -0.0003  -0.0003   0.00    4.0
2022/07/04 01:34:00.000  -2500946.1142  -4670472.8412   3539500.5383   1   9   0.0003   0.0005   0.0005   0.0003  -0.0003  -0.0003   0.00    5.4
2022/07/04 01:34:15.000  -2500946.1141  -4670472.8412   3539500.5383   1   9   0.0003   0.0005   0.0005   0.0003  -0.0003  -0.0003   0.00    6.9
2022/07/04 01:34:30.000  -2500946.1141  -4670472.8412   3539500.5382   1   9   0.0003   0.0005   0.0005   0.0003  -0.0003  -0.0003   0.00    8.1
2022/07/04 01:34:45.000  -2500946.1140  -4670472.8412   3539500.5382   1   9   0.0003   0.0005   0.0005   0.0003  -0.0003  -0.0003   0.00    9.3
2022/07/04 01:35:00.000  -2500946.1140  -4670472.8412   3539500.5382   1   9   0.0003   0.0005   0.0005   0.0003  -0.0003  -0.0003   0.00   10.6
2022/07/04 01:35:15.000  -2500946.1140  -4670472.8412   3539500.5381   1   9   0.0003   0.0005   0.0005   0.0003  -0.0003  -0.0003   0.00   11.5
2022/07/04 01:35:30.000  -2500946.1139  -4670472.8413   3539500.5381   1   9   0.0003   0.0005   0.0005   0.0003  -0.0003  -0.0003   0.00   12.3
2022/07/04 01:35:45.000  -2500946.1139  -4670472.8413   3539500.5381   1   9   0.0003   0.0005   0.0005   0.0003  -0.0003  -0.0003   0.00   12.9
2022/07/04 01:36:00.000  -2500946.1139  -4670472.8413   3539500.5381   1   9   0.0003   0.0005   0.0004   0.0003  -0.0003  -0.0003   0.00   13.6
2022/07/04 01:36:15.000  -2500946.1139  -4670472.8414   3539500.5382   1   9   0.0003   0.0005   0.0004   0.0003  -0.0003  -0.0003   0.00  100.8
2022/07/04 01:36:30.000  -2500946.1139  -4670472.8415   3539500.5382   1   9   0.0003   0.0005   0.0004   0.0003  -0.0003  -0.0003   0.00  185.7
2022/07/04 01:36:45.000  -2500946.1139  -4670472.8415   3539500.5382   1   9   0.0003   0.0005   0.0004   0.0003  -0.0003  -0.0003   0.00  270.7
2022/07/04 01:37:00.000  -2500946.1139  -4670472.8416   3539500.5383   1   9   0.0003   0.0005   0.0004   0.0003  -0.0003  -0.0003   0.00  355.6
2022/07/04 01:37:15.000  -2500946.1139  -4670472.8416   3539500.5384   1   9   0.0003   0.0005   0.0004   0.0003  -0.0003  -0.0003   0.00  438.7
2022/07/04 01:37:30.000  -2500946.1139  -4670472.8417   3539500.5384   1   9   0.0003   0.0005   0.0004   0.0003  -0.0003  -0.0003   0.00  493.7
2022/07/04 01:37:45.000  -2500946.1139  -4670472.8417   3539500.5385   1   9   0.0003   0.0005   0.0004   0.0003  -0.0003  -0.0003   0.00  498.9
2022/07/04 01:38:00.000  -2500946.1139  -4670472.8418   3539500.5386   1   9   0.0003   0.0005   0.0004   0.0003  -0.0003  -0.0003   0.00  518.2
2022/07/04 01:38:15.000  -2500946.1139  -4670472.8419   3539500.5387   1   9   0.0003   0.0005   0.0004   0.0003  -0.0003  -0.0003   0.00  534.3
2022/07/04 01:38:30.000  -2500946.1139  -4670472.8419   3539500.5388   1   9   0.0003   0.0005   0.0004   0.0003  -0.0003  -0.0003   0.00  548.1
2022/07/04 01:38:45.000  -2500946.1139  -4670472.8420   3539500.5389   1   9   0.0003   0.0005   0.0004   0.0003  -0.0003  -0.0003   0.00  563.6
2022/07/04 01:39:00.000  -2500946.1139  -4670472.8420   3539500.5390   1   9   0.0003   0.0005   0.0004   0.0003  -0.0003  -0.0003   0.00  586.1
2022/07/04 01:39:15.000  -2500946.1139  -4670472.8420   3539500.5391   1   9   0.0003   0.0005   0.0004   0.0003  -0.0003  -0.0003   0.00  597.4
2022/07/04 01:39:30.000  -2500946.1139  -4670472.8421   3539500.5391   1   9   0.0003   0.0005   0.0004   0.0003  -0.0003  -0.0003   0.00  605.0
2022/07/04 01:39:45.000  -2500946.1140  -4670472.8421   3539500.5392   1   9   0.0003   0.0005   0.0004   0.0003  -0.0003  -0.0003   0.00  623.2
2022/07/04 01:40:00.000  -2500946.1140  -4670472.8421   3539500.5394   1   9   0.0003   0.0005   0.0004   0.0003  -0.0003  -0.0003   0.00  641.1
2022/07/04 01:40:15.000  -2500946.1140  -4670472.8421   3539500.5394   1   9   0.0003   0.0005   0.0004   0.0003  -0.0003  -0.0003   0.00  647.9
2022/07/04 01:40:30.000  -2500946.1140  -4670472.8421   3539500.5395   1   9   0.0003   0.0005   0.0004   0.0003  -0.0003  -0.0003   0.00  652.2
2022/07/04 01:40:45.000  -2500946.1140  -4670472.8421   3539500.5396   1   9   0.0003   0.0005   0.0004   0.0003  -0.0003  -0.0003   0.00  662.7
