% program   : RTKPOST ver.2.4.3 b34
% inp file  : C:\Users\89231\Documents\Учеба\Диссертация\Данные\Лос-Анджелес 03-05.07.22\03.07.2022\wlsn1840.22o
% inp file  : C:\Users\89231\Documents\Учеба\Диссертация\Данные\Лос-Анджелес 03-05.07.22\03.07.2022\cit11840.22o
% inp file  : C:\Users\89231\Documents\Учеба\Диссертация\Данные\Лос-Анджелес 03-05.07.22\03.07.2022\cit11840.22n
% inp file  : C:\Users\89231\Documents\Учеба\Диссертация\Данные\Лос-Анджелес 03-05.07.22\03.07.2022\igs22170.sp3
% obs start : 2022/07/03 00:00:00.0 GPST (week2217      0.0s)
% obs end   : 2022/07/03 23:59:45.0 GPST (week2217  86385.0s)
% pos mode  : Static
% freqs     : L1+2
% solution  : Forward
% elev mask : 15.0 deg
% dynamics  : off
% tidecorr  : off
% ionos opt : Broadcast
% tropo opt : Saastamoinen
% ephemeris : Precise
% navi sys  : GPS
% amb res   : Fix and Hold
% val thres : 3.0
% antenna1  :                       ( 0.0000  0.0000  0.0614)
% antenna2  :                       ( 0.0000  0.0000  0.0000)
% ref pos   : -2491490.2616  -4660803.2317   3559129.0005
%
% (x/y/z-ecef=WGS84,Q=1:fix,2:float,3:sbas,4:dgps,5:single,6:ppp,ns=# of satellites)
%  GPST                      x-ecef(m)      y-ecef(m)      z-ecef(m)   Q  ns   sdx(m)   sdy(m)   sdz(m)  sdxy(m)  sdyz(m)  sdzx(m) age(s)  ratio
2022/07/03 00:00:00.000  -2483640.9463  -4660072.8534   3568172.1674   1   8   0.0054   0.0102   0.0075   0.0058  -0.0075  -0.0049   0.00    3.9
2022/07/03 00:00:15.000  -2483640.9475  -4660072.8537   3568172.1662   1   8   0.0038   0.0072   0.0053   0.0041  -0.0053  -0.0035   0.00    3.9
2022/07/03 00:00:30.000  -2483640.9496  -4660072.8570   3568172.1680   1   8   0.0031   0.0059   0.0043   0.0034  -0.0043  -0.0028   0.00    3.7
2022/07/03 00:00:45.000  -2483640.9503  -4660072.8578   3568172.1680   1   8   0.0027   0.0051   0.0037   0.0029  -0.0037  -0.0024   0.00    3.8
2022/07/03 00:01:00.000  -2483640.9515  -4660072.8595   3568172.1692   1   8   0.0024   0.0046   0.0034   0.0026  -0.0033  -0.0022   0.00    3.6
2022/07/03 00:01:15.000  -2483640.9527  -4660072.8602   3568172.1694   1   8   0.0022   0.0042   0.0031   0.0024  -0.0031  -0.0020   0.00    3.4
2022/07/03 00:01:30.000  -2483640.9534  -4660072.8604   3568172.1692   1   8   0.0020   0.0039   0.0028   0.0022  -0.0028  -0.0019   0.00    3.4
2022/07/03 00:01:45.000  -2483640.9539  -4660072.8599   3568172.1689   1   8   0.0019   0.0036   0.0027   0.0021  -0.0026  -0.0017   0.00    3.4
2022/07/03 00:02:00.000  -2483640.9548  -4660072.8598   3568172.1686   1   8   0.0018   0.0034   0.0025   0.0019  -0.0025  -0.0016   0.00    3.4
2022/07/03 00:02:15.000  -2483640.9556  -4660072.8599   3568172.1687   1   8   0.0017   0.0032   0.0024   0.0018  -0.0024  -0.0015   0.00    3.5
2022/07/03 00:02:30.000  -2483640.9563  -4660072.8601   3568172.1685   1   8   0.0016   0.0031   0.0023   0.0017  -0.0023  -0.0015   0.00   16.1
2022/07/03 00:02:45.000  -2483640.9571  -4660072.8604   3568172.1685   1   8   0.0015   0.0029   0.0022   0.0017  -0.0022  -0.0014   0.00   21.9
2022/07/03 00:03:00.000  -2483640.9578  -4660072.8603   3568172.1681   1   8   0.0015   0.0028   0.0021   0.0016  -0.0021  -0.0014   0.00   27.5
2022/07/03 00:03:15.000  -2483640.9584  -4660072.8603   3568172.1678   1   8   0.0014   0.0027   0.0020   0.0015  -0.0020  -0.0013   0.00   32.1
2022/07/03 00:03:30.000  -2483640.9592  -4660072.8603   3568172.1677   1   8   0.0014   0.0026   0.0019   0.0015  -0.0019  -0.0013   0.00   35.2
2022/07/03 00:03:45.000  -2483640.9598  -4660072.8606   3568172.1676   1   8   0.0013   0.0026   0.0019   0.0014  -0.0019  -0.0012   0.00   38.7
2022/07/03 00:04:00.000  -2483640.9605  -4660072.8609   3568172.1678   1   8   0.0013   0.0025   0.0018   0.0014  -0.0018  -0.0012   0.00   41.5
2022/07/03 00:04:15.000  -2483640.9610  -4660072.8612   3568172.1678   1   8   0.0013   0.0024   0.0018   0.0014  -0.0018  -0.0012   0.00   43.5
2022/07/03 00:04:30.000  -2483640.9614  -4660072.8614   3568172.1677   1   8   0.0012   0.0023   0.0017   0.0013  -0.0017  -0.0011   0.00   45.9
2022/07/03 00:04:45.000  -2483640.9619  -4660072.8619   3568172.1679   1   8   0.0012   0.0023   0.0017   0.0013  -0.0017  -0.0011   0.00   47.1
2022/07/03 00:05:00.000  -2483640.9622  -4660072.8623   3568172.1679   1   8   0.0012   0.0022   0.0017   0.0013  -0.0016  -0.0011   0.00   48.5
2022/07/03 00:05:15.000  -2483640.9626  -4660072.8624   3568172.1679   1   8   0.0011   0.0022   0.0016   0.0012  -0.0016  -0.0011   0.00   49.1
2022/07/03 00:05:30.000  -2483640.9628  -4660072.8627   3568172.1679   1   8   0.0011   0.0021   0.0016   0.0012  -0.0016  -0.0010   0.00   49.6
2022/07/03 00:05:45.000  -2483640.9629  -4660072.8629   3568172.1679   1   8   0.0011   0.0021   0.0016   0.0012  -0.0015  -0.0010   0.00   50.6
2022/07/03 00:06:00.000  -2483640.9631  -4660072.8630   3568172.1680   1   8   0.0011   0.0020   0.0015   0.0012  -0.0015  -0.0010   0.00   51.7
2022/07/03 00:06:15.000  -2483640.9630  -4660072.8630   3568172.1680   1   8   0.0010   0.0020   0.0015   0.0011  -0.0015  -0.0010   0.00   52.7
2022/07/03 00:06:30.000  -2483640.9630  -4660072.8629   3568172.1680   1   8   0.0010   0.0020   0.0015   0.0011  -0.0014  -0.0010   0.00   53.8
2022/07/03 00:06:45.000  -2483640.9630  -4660072.8628   3568172.1680   1   8   0.0010   0.0019   0.0014   0.0011  -0.0014  -0.0009   0.00   54.8
2022/07/03 00:07:00.000  -2483640.9630  -4660072.8629   3568172.1681   1   8   0.0010   0.0019   0.0014   0.0011  -0.0014  -0.0009   0.00   55.3
2022/07/03 00:07:15.000  -2483640.9630  -4660072.8628   3568172.1680   1   8   0.0010   0.0019   0.0014   0.0011  -0.0014  -0.0009   0.00   55.7
2022/07/03 00:07:30.000  -2483640.9631  -4660072.8628   3568172.1680   1   8   0.0010   0.0018   0.0014   0.0010  -0.0014  -0.0009   0.00   55.9
2022/07/03 00:07:45.000  -2483640.9633  -4660072.8629   3568172.1682   1   8   0.0009   0.0018   0.0014   0.0010  -0.0013  -0.0009   0.00   56.2
2022/07/03 00:08:00.000  -2483640.9642  -4660072.8638   3568172.1690   1   7   0.0010   0.0018   0.0013   0.0010  -0.0013  -0.0009   0.00   63.2
2022/07/03 00:08:15.000  -2483640.9644  -4660072.8639   3568172.1691   1   7   0.0009   0.0018   0.0013   0.0010  -0.0013  -0.0009   0.00   63.7
2022/07/03 00:08:30.000  -2483640.9646  -4660072.8640   3568172.1692   1   7   0.0009   0.0018   0.0013   0.0010  -0.0013  -0.0009   0.00   63.9
2022/07/03 00:08:45.000  -2483640.9648  -4660072.8642   3568172.1695   1   7   0.0009   0.0017   0.0013   0.0010  -0.0013  -0.0009   0.00   64.3
2022/07/03 00:09:00.000  -2483640.9650  -4660072.8643   3568172.1697   1   7   0.0009   0.0017   0.0013   0.0010  -0.0013  -0.0008   0.00   64.6
2022/07/03 00:09:15.000  -2483640.9652  -4660072.8645   3568172.1700   1   7   0.0009   0.0017   0.0013   0.0010  -0.0012  -0.0008   0.00   64.8
2022/07/03 00:09:30.000  -2483640.9653  -4660072.8648   3568172.1702   1   7   0.0009   0.0017   0.0013   0.0010  -0.0012  -0.0008   0.00   65.0
2022/07/03 00:09:45.000  -2483640.9655  -4660072.8650   3568172.1705   1   7   0.0009   0.0016   0.0012   0.0009  -0.0012  -0.0008   0.00   65.0
2022/07/03 00:10:00.000  -2483640.9655  -4660072.8651   3568172.1708   1   7   0.0009   0.0016   0.0012   0.0009  -0.0012  -0.0008   0.00   65.1
2022/07/03 00:10:15.000  -2483640.9655  -4660072.8651   3568172.1710   1   7   0.0009   0.0016   0.0012   0.0009  -0.0012  -0.0008   0.00   64.7
2022/07/03 00:10:30.000  -2483640.9655  -4660072.8653   3568172.1712   1   7   0.0009   0.0016   0.0012   0.0009  -0.0012  -0.0008   0.00   64.1
2022/07/03 00:10:45.000  -2483640.9656  -4660072.8654   3568172.1714   1   7   0.0008   0.0016   0.0012   0.0009  -0.0012  -0.0008   0.00   63.8
2022/07/03 00:11:00.000  -2483640.9656  -4660072.8655   3568172.1715   1   7   0.0008   0.0016   0.0012   0.0009  -0.0012  -0.0008   0.00   63.7
2022/07/03 00:11:15.000  -2483640.9657  -4660072.8656   3568172.1716   1   7   0.0008   0.0015   0.0012   0.0009  -0.0011  -0.0008   0.00   63.8
2022/07/03 00:11:30.000  -2483640.9658  -4660072.8658   3568172.1717   1   7   0.0008   0.0015   0.0012   0.0009  -0.0011  -0.0008   0.00   63.9
2022/07/03 00:11:45.000  -2483640.9660  -4660072.8660   3568172.1718   1   7   0.0008   0.0015   0.0011   0.0009  -0.0011  -0.0008   0.00   63.5
2022/07/03 00:12:00.000  -2483640.9663  -4660072.8662   3568172.1719   1   7   0.0008   0.0015   0.0011   0.0009  -0.0011  -0.0007   0.00   63.1
2022/07/03 00:12:15.000  -2483640.9666  -4660072.8663   3568172.1719   1   7   0.0008   0.0015   0.0011   0.0009  -0.0011  -0.0007   0.00   63.3
2022/07/03 00:12:30.000  -2483640.9670  -4660072.8665   3568172.1720   1   7   0.0008   0.0015   0.0011   0.0008  -0.0011  -0.0007   0.00   63.4
2022/07/03 00:12:45.000  -2483640.9672  -4660072.8667   3568172.1721   1   7   0.0008   0.0015   0.0011   0.0008  -0.0011  -0.0007   0.00   63.2
2022/07/03 00:13:00.000  -2483640.9675  -4660072.8669   3568172.1722   1   7   0.0008   0.0014   0.0011   0.0008  -0.0011  -0.0007   0.00   63.2
2022/07/03 00:13:15.000  -2483640.9677  -4660072.8672   3568172.1723   1   7   0.0008   0.0014   0.0011   0.0008  -0.0011  -0.0007   0.00   62.7
2022/07/03 00:13:30.000  -2483640.9680  -4660072.8674   3568172.1723   1   7   0.0008   0.0014   0.0011   0.0008  -0.0011  -0.0007   0.00   61.9
2022/07/03 00:13:45.000  -2483640.9682  -4660072.8676   3568172.1723   1   7   0.0008   0.0014   0.0011   0.0008  -0.0010  -0.0007   0.00   61.5
2022/07/03 00:14:00.000  -2483640.9684  -4660072.8679   3568172.1724   1   7   0.0008   0.0014   0.0011   0.0008  -0.0010  -0.0007   0.00   60.9
2022/07/03 00:14:15.000  -2483640.9686  -4660072.8681   3568172.1723   1   7   0.0008   0.0014   0.0011   0.0008  -0.0010  -0.0007   0.00   60.4
2022/07/03 00:14:30.000  -2483640.9688  -4660072.8683   3568172.1723   1   7   0.0007   0.0014   0.0011   0.0008  -0.0010  -0.0007   0.00   59.9
2022/07/03 00:14:45.000  -2483640.9690  -4660072.8685   3568172.1722   1   7   0.0007   0.0014   0.0010   0.0008  -0.0010  -0.0007   0.00   59.9
2022/07/03 00:15:00.000  -2483640.9692  -4660072.8686   3568172.1722   1   7   0.0007   0.0014   0.0010   0.0008  -0.0010  -0.0007   0.00   59.8
2022/07/03 00:15:15.000  -2483640.9694  -4660072.8689   3568172.1723   1   7   0.0007   0.0013   0.0010   0.0008  -0.0010  -0.0007   0.00   59.4
2022/07/03 00:15:30.000  -2483640.9696  -4660072.8691   3568172.1724   1   7   0.0007   0.0013   0.0010   0.0008  -0.0010  -0.0007   0.00   59.2
2022/07/03 00:15:45.000  -2483640.9699  -4660072.8694   3568172.1725   1   7   0.0007   0.0013   0.0010   0.0008  -0.0010  -0.0007   0.00   58.8
2022/07/03 00:16:00.000  -2483640.9702  -4660072.8698   3568172.1726   1   7   0.0007   0.0013   0.0010   0.0008  -0.0010  -0.0007   0.00   58.4
2022/07/03 00:16:15.000  -2483640.9705  -4660072.8700   3568172.1727   1   7   0.0007   0.0013   0.0010   0.0008  -0.0010  -0.0007   0.00   58.2
2022/07/03 00:16:30.000  -2483640.9706  -4660072.8701   3568172.1727   1   7   0.0007   0.0013   0.0010   0.0008  -0.0010  -0.0007   0.00   58.1
2022/07/03 00:16:45.000  -2483640.9708  -4660072.8703   3568172.1727   1   7   0.0007   0.0013   0.0010   0.0007  -0.0010  -0.0007   0.00   58.1
2022/07/03 00:17:00.000  -2483640.9709  -4660072.8704   3568172.1727   1   7   0.0007   0.0013   0.0010   0.0007  -0.0010  -0.0006   0.00   57.9
2022/07/03 00:17:15.000  -2483640.9711  -4660072.8706   3568172.1729   1   7   0.0007   0.0013   0.0010   0.0007  -0.0009  -0.0006   0.00   57.4
2022/07/03 00:17:30.000  -2483640.9713  -4660072.8707   3568172.1729   1   7   0.0007   0.0013   0.0010   0.0007  -0.0009  -0.0006   0.00   56.9
2022/07/03 00:17:45.000  -2483640.9714  -4660072.8707   3568172.1729   1   7   0.0007   0.0013   0.0010   0.0007  -0.0009  -0.0006   0.00   56.3
2022/07/03 00:18:00.000  -2483640.9715  -4660072.8707   3568172.1729   1   7   0.0007   0.0012   0.0010   0.0007  -0.0009  -0.0006   0.00   55.6
2022/07/03 00:18:15.000  -2483640.9715  -4660072.8707   3568172.1729   1   7   0.0007   0.0012   0.0010   0.0007  -0.0009  -0.0006   0.00   55.2
2022/07/03 00:18:30.000  -2483640.9716  -4660072.8707   3568172.1729   1   7   0.0007   0.0012   0.0010   0.0007  -0.0009  -0.0006   0.00   54.6
2022/07/03 00:18:45.000  -2483640.9716  -4660072.8707   3568172.1730   1   7   0.0007   0.0012   0.0010   0.0007  -0.0009  -0.0006   0.00   54.3
2022/07/03 00:19:00.000  -2483640.9716  -4660072.8708   3568172.1731   1   7   0.0007   0.0012   0.0010   0.0007  -0.0009  -0.0006   0.00   54.1
2022/07/03 00:19:15.000  -2483640.9716  -4660072.8709   3568172.1731   1   7   0.0007   0.0012   0.0009   0.0007  -0.0009  -0.0006   0.00   54.1
2022/07/03 00:19:30.000  -2483640.9716  -4660072.8710   3568172.1732   1   7   0.0007   0.0012   0.0009   0.0007  -0.0009  -0.0006   0.00   54.3
2022/07/03 00:19:45.000  -2483640.9717  -4660072.8712   3568172.1733   1   7   0.0007   0.0012   0.0009   0.0007  -0.0009  -0.0006   0.00   54.5
2022/07/03 00:20:00.000  -2483640.9718  -4660072.8714   3568172.1735   1   7   0.0007   0.0012   0.0009   0.0007  -0.0009  -0.0006   0.00   54.8
2022/07/03 00:20:15.000  -2483640.9718  -4660072.8717   3568172.1736   1   7   0.0007   0.0012   0.0009   0.0007  -0.0009  -0.0006   0.00   54.9
2022/07/03 00:20:30.000  -2483640.9718  -4660072.8719   3568172.1738   1   7   0.0006   0.0012   0.0009   0.0007  -0.0009  -0.0006   0.00   54.9
2022/07/03 00:20:45.000  -2483640.9719  -4660072.8721   3568172.1740   1   7   0.0006   0.0012   0.0009   0.0007  -0.0009  -0.0006   0.00   54.8
2022/07/03 00:21:00.000  -2483640.9720  -4660072.8724   3568172.1741   1   7   0.0006   0.0012   0.0009   0.0007  -0.0009  -0.0006   0.00   54.5
2022/07/03 00:21:15.000  -2483640.9720  -4660072.8726   3568172.1742   1   7   0.0006   0.0012   0.0009   0.0007  -0.0009  -0.0006   0.00   54.4
2022/07/03 00:21:30.000  -2483640.9721  -4660072.8728   3568172.1743   1   7   0.0006   0.0011   0.0009   0.0007  -0.0009  -0.0006   0.00   54.0
2022/07/03 00:21:45.000  -2483640.9721  -4660072.8729   3568172.1744   1   7   0.0006   0.0011   0.0009   0.0007  -0.0009  -0.0006   0.00   53.7
2022/07/03 00:22:00.000  -2483640.9722  -4660072.8731   3568172.1745   1   7   0.0006   0.0011   0.0009   0.0007  -0.0009  -0.0006   0.00   53.4
2022/07/03 00:22:15.000  -2483640.9722  -4660072.8731   3568172.1744   1   7   0.0006   0.0011   0.0009   0.0007  -0.0008  -0.0006   0.00   53.1
2022/07/03 00:22:30.000  -2483640.9722  -4660072.8731   3568172.1744   1   7   0.0006   0.0011   0.0009   0.0007  -0.0008  -0.0006   0.00   52.8
2022/07/03 00:22:45.000  -2483640.9722  -4660072.8730   3568172.1744   1   7   0.0006   0.0011   0.0009   0.0006  -0.0008  -0.0006   0.00   52.6
2022/07/03 00:23:00.000  -2483640.9723  -4660072.8730   3568172.1744   1   7   0.0006   0.0011   0.0009   0.0006  -0.0008  -0.0006   0.00   52.2
2022/07/03 00:23:15.000  -2483640.9724  -4660072.8730   3568172.1744   1   7   0.0006   0.0011   0.0009   0.0006  -0.0008  -0.0006   0.00   51.8
2022/07/03 00:23:30.000  -2483640.9724  -4660072.8729   3568172.1743   1   7   0.0006   0.0011   0.0009   0.0006  -0.0008  -0.0006   0.00   51.6
2022/07/03 00:23:45.000  -2483640.9725  -4660072.8729   3568172.1743   1   7   0.0006   0.0011   0.0009   0.0006  -0.0008  -0.0006   0.00   51.2
2022/07/03 00:24:00.000  -2483640.9726  -4660072.8729   3568172.1744   1   7   0.0006   0.0011   0.0009   0.0006  -0.0008  -0.0006   0.00   50.8
2022/07/03 00:24:15.000  -2483640.9727  -4660072.8729   3568172.1744   1   7   0.0006   0.0011   0.0009   0.0006  -0.0008  -0.0006   0.00   50.2
2022/07/03 00:24:30.000  -2483640.9728  -4660072.8729   3568172.1744   1   7   0.0006   0.0011   0.0009   0.0006  -0.0008  -0.0006   0.00   50.0
2022/07/03 00:24:45.000  -2483640.9729  -4660072.8729   3568172.1744   1   7   0.0006   0.0011   0.0009   0.0006  -0.0008  -0.0006   0.00   49.8
2022/07/03 00:25:00.000  -2483640.9715  -4660072.8724   3568172.1749   1   6   0.0006   0.0011   0.0009   0.0006  -0.0008  -0.0006   0.00   57.2
2022/07/03 00:25:15.000  -2483640.9714  -4660072.8723   3568172.1749   1   6   0.0006   0.0011   0.0009   0.0006  -0.0008  -0.0005   0.00   57.2
2022/07/03 00:25:30.000  -2483640.9713  -4660072.8721   3568172.1748   1   6   0.0006   0.0011   0.0009   0.0006  -0.0008  -0.0005   0.00   57.2
2022/07/03 00:25:45.000  -2483640.9712  -4660072.8719   3568172.1748   1   6   0.0006   0.0011   0.0008   0.0006  -0.0008  -0.0005   0.00   57.1
2022/07/03 00:26:00.000  -2483640.9711  -4660072.8718   3568172.1748   1   6   0.0006   0.0010   0.0008   0.0006  -0.0008  -0.0005   0.00   57.2
2022/07/03 00:26:15.000  -2483640.9709  -4660072.8716   3568172.1747   1   6   0.0006   0.0010   0.0008   0.0006  -0.0008  -0.0005   0.00   57.4
2022/07/03 00:26:30.000  -2483640.9697  -4660072.8670   3568172.1705   2   7   0.0007   0.0011   0.0010   0.0007  -0.0009  -0.0006   0.00    1.5
2022/07/03 00:26:45.000  -2483640.9696  -4660072.8669   3568172.1705   2   8   0.0007   0.0011   0.0010   0.0007  -0.0009  -0.0006   0.00    1.1
2022/07/03 00:27:00.000  -2483640.9695  -4660072.8668   3568172.1704   2   8   0.0007   0.0011   0.0010   0.0007  -0.0009  -0.0006   0.00    1.2
2022/07/03 00:27:15.000  -2483640.9694  -4660072.8667   3568172.1704   2   8   0.0007   0.0011   0.0010   0.0007  -0.0009  -0.0006   0.00    1.3
2022/07/03 00:27:30.000  -2483640.9693  -4660072.8667   3568172.1704   2   8   0.0007   0.0011   0.0010   0.0007  -0.0009  -0.0006   0.00    1.3
2022/07/03 00:27:45.000  -2483640.9692  -4660072.8666   3568172.1704   2   8   0.0007   0.0011   0.0010   0.0007  -0.0009  -0.0006   0.00    1.4
2022/07/03 00:28:00.000  -2483640.9692  -4660072.8667   3568172.1704   2   8   0.0007   0.0011   0.0010   0.0007  -0.0009  -0.0006   0.00    1.4
2022/07/03 00:28:15.000  -2483640.9691  -4660072.8667   3568172.1705   2   8   0.0007   0.0011   0.0010   0.0007  -0.0009  -0.0006   0.00    1.4
2022/07/03 00:28:30.000  -2483640.9690  -4660072.8667   3568172.1705   2   8   0.0007   0.0011   0.0010   0.0007  -0.0009  -0.0006   0.00    1.5
2022/07/03 00:28:45.000  -2483640.9689  -4660072.8666   3568172.1705   2   8   0.0007   0.0011   0.0010   0.0007  -0.0009  -0.0006   0.00    1.5
2022/07/03 00:29:00.000  -2483640.9688  -4660072.8667   3568172.1705   2   8   0.0007   0.0011   0.0010   0.0007  -0.0009  -0.0006   0.00    1.5
2022/07/03 00:29:15.000  -2483640.9687  -4660072.8667   3568172.1705   2   8   0.0007   0.0011   0.0010   0.0007  -0.0009  -0.0006   0.00    1.6
2022/07/03 00:29:30.000  -2483640.9687  -4660072.8668   3568172.1706   2   9   0.0007   0.0011   0.0010   0.0007  -0.0009  -0.0006   0.00    1.1
2022/07/03 00:29:45.000  -2483640.9686  -4660072.8668   3568172.1707   2   9   0.0007   0.0011   0.0010   0.0007  -0.0009  -0.0006   0.00    1.3
2022/07/03 00:30:00.000  -2483640.9686  -4660072.8670   3568172.1707   2   9   0.0007   0.0011   0.0010   0.0007  -0.0009  -0.0006   0.00    1.4
2022/07/03 00:30:15.000  -2483640.9685  -4660072.8670   3568172.1708   2   9   0.0007   0.0011   0.0010   0.0007  -0.0009  -0.0006   0.00    1.5
2022/07/03 00:30:30.000  -2483640.9686  -4660072.8672   3568172.1709   2   9   0.0007   0.0011   0.0010   0.0007  -0.0009  -0.0006   0.00    1.5
2022/07/03 00:30:45.000  -2483640.9685  -4660072.8673   3568172.1709   2   9   0.0007   0.0011   0.0010   0.0007  -0.0009  -0.0006   0.00    1.6
2022/07/03 00:31:00.000  -2483640.9685  -4660072.8674   3568172.1709   2   9   0.0007   0.0011   0.0010   0.0007  -0.0009  -0.0006   0.00    1.7
2022/07/03 00:31:15.000  -2483640.9684  -4660072.8675   3568172.1709   2   9   0.0007   0.0011   0.0009   0.0007  -0.0008  -0.0006   0.00    1.8
2022/07/03 00:31:30.000  -2483640.9684  -4660072.8676   3568172.1709   2   9   0.0007   0.0011   0.0009   0.0007  -0.0008  -0.0006   0.00    1.8
2022/07/03 00:31:45.000  -2483640.9683  -4660072.8676   3568172.1710   2   9   0.0007   0.0011   0.0009   0.0007  -0.0008  -0.0006   0.00    1.9
2022/07/03 00:32:00.000  -2483640.9682  -4660072.8677   3568172.1709   2   9   0.0007   0.0011   0.0009   0.0007  -0.0008  -0.0006   0.00    2.0
2022/07/03 00:32:15.000  -2483640.9682  -4660072.8677   3568172.1709   2   9   0.0007   0.0011   0.0009   0.0007  -0.0008  -0.0006   0.00    2.0
2022/07/03 00:32:30.000  -2483640.9681  -4660072.8677   3568172.1709   2   9   0.0007   0.0011   0.0009   0.0007  -0.0008  -0.0006   0.00    2.0
2022/07/03 00:32:45.000  -2483640.9680  -4660072.8677   3568172.1709   2   9   0.0007   0.0011   0.0009   0.0007  -0.0008  -0.0006   0.00    2.1
2022/07/03 00:33:00.000  -2483640.9680  -4660072.8677   3568172.1708   2   9   0.0007   0.0011   0.0009   0.0007  -0.0008  -0.0006   0.00    2.1
2022/07/03 00:33:15.000  -2483640.9679  -4660072.8677   3568172.1708   2   9   0.0007   0.0011   0.0009   0.0007  -0.0008  -0.0006   0.00    2.2
2022/07/03 00:33:30.000  -2483640.9679  -4660072.8677   3568172.1707   2   9   0.0007   0.0011   0.0009   0.0007  -0.0008  -0.0006   0.00    2.2
2022/07/03 00:33:45.000  -2483640.9678  -4660072.8676   3568172.1707   2   9   0.0006   0.0011   0.0009   0.0006  -0.0008  -0.0006   0.00    2.2
2022/07/03 00:34:00.000  -2483640.9678  -4660072.8676   3568172.1706   2   9   0.0006   0.0010   0.0009   0.0006  -0.0008  -0.0006   0.00    2.2
2022/07/03 00:34:15.000  -2483640.9677  -4660072.8676   3568172.1706   2   9   0.0006   0.0010   0.0009   0.0006  -0.0008  -0.0006   0.00    2.2
2022/07/03 00:34:30.000  -2483640.9677  -4660072.8676   3568172.1705   2   9   0.0006   0.0010   0.0009   0.0006  -0.0008  -0.0006   0.00    2.3
2022/07/03 00:34:45.000  -2483640.9676  -4660072.8675   3568172.1705   2   9   0.0006   0.0010   0.0009   0.0006  -0.0008  -0.0006   0.00    2.3
2022/07/03 00:35:00.000  -2483640.9675  -4660072.8675   3568172.1704   2   9   0.0006   0.0010   0.0009   0.0006  -0.0008  -0.0006   0.00    2.3
2022/07/03 00:35:15.000  -2483640.9675  -4660072.8674   3568172.1703   2   9   0.0006   0.0010   0.0009   0.0006  -0.0008  -0.0006   0.00    2.3
2022/07/03 00:35:30.000  -2483640.9674  -4660072.8674   3568172.1703   2   9   0.0006   0.0010   0.0009   0.0006  -0.0008  -0.0006   0.00    2.3
2022/07/03 00:35:45.000  -2483640.9673  -4660072.8673   3568172.1702   2   9   0.0006   0.0010   0.0009   0.0006  -0.0008  -0.0006   0.00    2.3
2022/07/03 00:36:00.000  -2483640.9673  -4660072.8672   3568172.1701   2   9   0.0006   0.0010   0.0009   0.0006  -0.0008  -0.0006   0.00    2.4
2022/07/03 00:36:15.000  -2483640.9672  -4660072.8671   3568172.1700   2   9   0.0006   0.0010   0.0009   0.0006  -0.0008  -0.0006   0.00    2.4
2022/07/03 00:36:30.000  -2483640.9671  -4660072.8671   3568172.1699   2   9   0.0006   0.0010   0.0009   0.0006  -0.0008  -0.0006   0.00    2.4
2022/07/03 00:36:45.000  -2483640.9671  -4660072.8670   3568172.1699   2   9   0.0006   0.0010   0.0009   0.0006  -0.0008  -0.0006   0.00    2.4
2022/07/03 00:37:00.000  -2483640.9670  -4660072.8670   3568172.1698   2   9   0.0006   0.0010   0.0009   0.0006  -0.0008  -0.0006   0.00    2.5
2022/07/03 00:37:15.000  -2483640.9670  -4660072.8669   3568172.1698   2   9   0.0006   0.0010   0.0009   0.0006  -0.0008  -0.0006   0.00    2.5
2022/07/03 00:37:30.000  -2483640.9669  -4660072.8668   3568172.1697   2   9   0.0006   0.0010   0.0009   0.0006  -0.0008  -0.0006   0.00    2.5
2022/07/03 00:37:45.000  -2483640.9668  -4660072.8667   3568172.1696   2   9   0.0006   0.0010   0.0009   0.0006  -0.0008  -0.0006   0.00    2.5
2022/07/03 00:38:00.000  -2483640.9668  -4660072.8667   3568172.1695   2   9   0.0006   0.0010   0.0009   0.0006  -0.0008  -0.0006   0.00    2.6
2022/07/03 00:38:15.000  -2483640.9667  -4660072.8666   3568172.1695   2   9   0.0006   0.0010   0.0009   0.0006  -0.0008  -0.0006   0.00    2.6
2022/07/03 00:38:30.000  -2483640.9667  -4660072.8666   3568172.1694   2   9   0.0006   0.0010   0.0009   0.0006  -0.0008  -0.0006   0.00    2.6
2022/07/03 00:38:45.000  -2483640.9666  -4660072.8666   3568172.1694   2   9   0.0006   0.0010   0.0009   0.0006  -0.0008  -0.0006   0.00    2.7
2022/07/03 00:39:00.000  -2483640.9666  -4660072.8665   3568172.1694   2   9   0.0006   0.0010   0.0009   0.0006  -0.0008  -0.0006   0.00    2.7
2022/07/03 00:39:15.000  -2483640.9665  -4660072.8666   3568172.1694   2   9   0.0006   0.0010   0.0009   0.0006  -0.0008  -0.0006   0.00    2.7
2022/07/03 00:39:30.000  -2483640.9665  -4660072.8666   3568172.1694   2   9   0.0006   0.0010   0.0009   0.0006  -0.0008  -0.0006   0.00    2.7
2022/07/03 00:39:45.000  -2483640.9664  -4660072.8665   3568172.1693   2   9   0.0006   0.0010   0.0009   0.0006  -0.0008  -0.0006   0.00    2.7
2022/07/03 00:40:00.000  -2483640.9664  -4660072.8665   3568172.1693   2   9   0.0006   0.0010   0.0009   0.0006  -0.0008  -0.0005   0.00    2.7
2022/07/03 00:40:15.000  -2483640.9664  -4660072.8665   3568172.1693   2   9   0.0006   0.0010   0.0009   0.0006  -0.0008  -0.0005   0.00    2.8
2022/07/03 00:40:30.000  -2483640.9663  -4660072.8664   3568172.1693   2   9   0.0006   0.0010   0.0009   0.0006  -0.0008  -0.0005   0.00    1.0
2022/07/03 00:40:45.000  -2483640.9663  -4660072.8664   3568172.1693   2   8   0.0006   0.0010   0.0009   0.0006  -0.0008  -0.0005   0.00    1.1
2022/07/03 00:41:00.000  -2483640.9663  -4660072.8663   3568172.1693   2   8   0.0006   0.0010   0.0009   0.0006  -0.0008  -0.0005   0.00    1.2
2022/07/03 00:41:15.000  -2483640.9662  -4660072.8663   3568172.1693   2   8   0.0006   0.0010   0.0009   0.0006  -0.0008  -0.0005   0.00    1.2
2022/07/03 00:41:30.000  -2483640.9662  -4660072.8662   3568172.1693   2   8   0.0006   0.0010   0.0009   0.0006  -0.0008  -0.0005   0.00    1.2
2022/07/03 00:41:45.000  -2483640.9662  -4660072.8662   3568172.1692   2   8   0.0006   0.0010   0.0009   0.0006  -0.0008  -0.0005   0.00    1.3
2022/07/03 00:42:00.000  -2483640.9662  -4660072.8661   3568172.1692   2   8   0.0006   0.0010   0.0009   0.0006  -0.0008  -0.0005   0.00    1.3
2022/07/03 00:42:15.000  -2483640.9661  -4660072.8661   3568172.1692   2   8   0.0006   0.0010   0.0009   0.0006  -0.0008  -0.0005   0.00    1.4
2022/07/03 00:42:30.000  -2483640.9661  -4660072.8660   3568172.1692   2   8   0.0006   0.0010   0.0009   0.0006  -0.0008  -0.0005   0.00    1.4
2022/07/03 00:42:45.000  -2483640.9660  -4660072.8660   3568172.1691   2   8   0.0006   0.0010   0.0009   0.0006  -0.0008  -0.0005   0.00    1.5
2022/07/03 00:43:00.000  -2483640.9660  -4660072.8660   3568172.1691   2   8   0.0006   0.0010   0.0009   0.0006  -0.0008  -0.0005   0.00    1.5
2022/07/03 00:43:15.000  -2483640.9660  -4660072.8659   3568172.1691   2   8   0.0006   0.0010   0.0009   0.0006  -0.0008  -0.0005   0.00    1.6
2022/07/03 00:43:30.000  -2483640.9659  -4660072.8659   3568172.1691   2   8   0.0006   0.0010   0.0009   0.0006  -0.0008  -0.0005   0.00    1.6
2022/07/03 00:43:45.000  -2483640.9659  -4660072.8659   3568172.1691   2   8   0.0006   0.0010   0.0009   0.0006  -0.0008  -0.0005   0.00    1.7
2022/07/03 00:44:00.000  -2483640.9659  -4660072.8659   3568172.1691   2   8   0.0006   0.0010   0.0009   0.0006  -0.0008  -0.0005   0.00    1.7
2022/07/03 00:44:15.000  -2483640.9658  -4660072.8659   3568172.1690   2   8   0.0006   0.0010   0.0009   0.0006  -0.0008  -0.0005   0.00    1.7
2022/07/03 00:44:30.000  -2483640.9658  -4660072.8659   3568172.1690   2   8   0.0006   0.0010   0.0009   0.0006  -0.0008  -0.0005   0.00    1.8
2022/07/03 00:44:45.000  -2483640.9658  -4660072.8659   3568172.1690   2   8   0.0006   0.0010   0.0009   0.0006  -0.0008  -0.0005   0.00    1.8
2022/07/03 00:45:00.000  -2483640.9657  -4660072.8659   3568172.1690   2   8   0.0006   0.0010   0.0009   0.0006  -0.0008  -0.0005   0.00    1.9
2022/07/03 00:45:15.000  -2483640.9657  -4660072.8659   3568172.1690   2   8   0.0006   0.0010   0.0009   0.0006  -0.0008  -0.0005   0.00    1.9
2022/07/03 00:45:30.000  -2483640.9657  -4660072.8659   3568172.1690   2   8   0.0006   0.0010   0.0009   0.0006  -0.0007  -0.0005   0.00    2.0
2022/07/03 00:45:45.000  -2483640.9657  -4660072.8658   3568172.1690   2   8   0.0006   0.0010   0.0009   0.0006  -0.0007  -0.0005   0.00    2.0
2022/07/03 00:46:00.000  -2483640.9657  -4660072.8658   3568172.1689   2   8   0.0006   0.0010   0.0009   0.0006  -0.0007  -0.0005   0.00    2.1
2022/07/03 00:46:15.000  -2483640.9656  -4660072.8658   3568172.1689   2   8   0.0006   0.0010   0.0009   0.0006  -0.0007  -0.0005   0.00    2.1
2022/07/03 00:46:30.000  -2483640.9656  -4660072.8658   3568172.1689   2   8   0.0006   0.0010   0.0009   0.0006  -0.0007  -0.0005   0.00    2.1
2022/07/03 00:46:45.000  -2483640.9656  -4660072.8658   3568172.1688   2   8   0.0006   0.0010   0.0009   0.0006  -0.0007  -0.0005   0.00    2.2
2022/07/03 00:47:00.000  -2483640.9655  -4660072.8658   3568172.1688   2   8   0.0006   0.0010   0.0009   0.0006  -0.0007  -0.0005   0.00    2.2
2022/07/03 00:47:15.000  -2483640.9654  -4660072.8657   3568172.1687   2   8   0.0006   0.0010   0.0009   0.0006  -0.0007  -0.0005   0.00    2.3
2022/07/03 00:47:30.000  -2483640.9654  -4660072.8657   3568172.1687   2   8   0.0006   0.0010   0.0008   0.0006  -0.0007  -0.0005   0.00    2.3
2022/07/03 00:47:45.000  -2483640.9653  -4660072.8656   3568172.1687   2   8   0.0006   0.0010   0.0008   0.0006  -0.0007  -0.0005   0.00    2.3
2022/07/03 00:48:00.000  -2483640.9653  -4660072.8656   3568172.1686   2   8   0.0006   0.0010   0.0008   0.0006  -0.0007  -0.0005   0.00    2.3
2022/07/03 00:48:15.000  -2483640.9652  -4660072.8655   3568172.1685   2   8   0.0006   0.0010   0.0008   0.0006  -0.0007  -0.0005   0.00    2.4
2022/07/03 00:48:30.000  -2483640.9652  -4660072.8654   3568172.1684   2   8   0.0006   0.0009   0.0008   0.0006  -0.0007  -0.0005   0.00    2.4
2022/07/03 00:48:45.000  -2483640.9651  -4660072.8653   3568172.1683   2   8   0.0006   0.0009   0.0008   0.0006  -0.0007  -0.0005   0.00    2.4
2022/07/03 00:49:00.000  -2483640.9650  -4660072.8652   3568172.1682   2   8   0.0006   0.0009   0.0008   0.0006  -0.0007  -0.0005   0.00    2.5
2022/07/03 00:49:15.000  -2483640.9649  -4660072.8652   3568172.1681   2   8   0.0006   0.0009   0.0008   0.0006  -0.0007  -0.0005   0.00    2.5
2022/07/03 00:49:30.000  -2483640.9649  -4660072.8651   3568172.1680   2   8   0.0006   0.0009   0.0008   0.0006  -0.0007  -0.0005   0.00    2.6
2022/07/03 00:49:45.000  -2483640.9648  -4660072.8650   3568172.1680   2   8   0.0006   0.0009   0.0008   0.0006  -0.0007  -0.0005   0.00    2.7
2022/07/03 00:50:00.000  -2483640.9647  -4660072.8649   3568172.1679   2   8   0.0006   0.0009   0.0008   0.0006  -0.0007  -0.0005   0.00    2.7
2022/07/03 00:50:15.000  -2483640.9647  -4660072.8649   3568172.1678   2   8   0.0006   0.0009   0.0008   0.0006  -0.0007  -0.0005   0.00    2.8
2022/07/03 00:50:30.000  -2483640.9725  -4660072.8716   3568172.1793   1   7   0.0005   0.0007   0.0007   0.0004  -0.0006  -0.0005   0.00    3.1
2022/07/03 00:50:45.000  -2483640.9725  -4660072.8717   3568172.1793   1   7   0.0005   0.0007   0.0007   0.0004  -0.0006  -0.0005   0.00    3.2
2022/07/03 00:51:00.000  -2483640.9724  -4660072.8717   3568172.1794   1   7   0.0005   0.0007   0.0007   0.0004  -0.0006  -0.0005   0.00    3.2
2022/07/03 00:51:15.000  -2483640.9724  -4660072.8717   3568172.1794   1   7   0.0005   0.0007   0.0007   0.0004  -0.0006  -0.0005   0.00    3.3
2022/07/03 00:51:30.000  -2483640.9723  -4660072.8718   3568172.1795   1   7   0.0005   0.0007   0.0007   0.0004  -0.0006  -0.0004   0.00    3.3
2022/07/03 00:51:45.000  -2483640.9742  -4660072.8737   3568172.1809   1   7   0.0005   0.0007   0.0007   0.0005  -0.0006  -0.0005   0.00    7.0
2022/07/03 00:52:00.000  -2483640.9742  -4660072.8737   3568172.1809   1   7   0.0005   0.0007   0.0007   0.0005  -0.0006  -0.0005   0.00    7.1
2022/07/03 00:52:15.000  -2483640.9742  -4660072.8738   3568172.1810   1   7   0.0005   0.0007   0.0007   0.0004  -0.0006  -0.0005   0.00    7.2
2022/07/03 00:52:30.000  -2483640.9742  -4660072.8739   3568172.1811   1   7   0.0005   0.0007   0.0007   0.0004  -0.0006  -0.0005   0.00    7.3
2022/07/03 00:52:45.000  -2483640.9742  -4660072.8739   3568172.1811   1   7   0.0005   0.0007   0.0007   0.0004  -0.0006  -0.0005   0.00    7.4
2022/07/03 00:53:00.000  -2483640.9742  -4660072.8740   3568172.1812   1   7   0.0005   0.0007   0.0007   0.0004  -0.0006  -0.0005   0.00    8.0
2022/07/03 00:53:15.000  -2483640.9741  -4660072.8740   3568172.1812   1   7   0.0005   0.0007   0.0007   0.0004  -0.0006  -0.0005   0.00    8.7
2022/07/03 00:53:30.000  -2483640.9741  -4660072.8741   3568172.1813   1   7   0.0005   0.0007   0.0007   0.0004  -0.0006  -0.0005   0.00    9.3
2022/07/03 00:53:45.000  -2483640.9741  -4660072.8741   3568172.1814   1   7   0.0005   0.0007   0.0007   0.0004  -0.0006  -0.0005   0.00   10.0
2022/07/03 00:54:00.000  -2483640.9740  -4660072.8742   3568172.1814   1   7   0.0005   0.0007   0.0007   0.0004  -0.0006  -0.0005   0.00   10.8
2022/07/03 00:54:15.000  -2483640.9740  -4660072.8742   3568172.1814   1   7   0.0005   0.0007   0.0007   0.0004  -0.0006  -0.0005   0.00   11.5
2022/07/03 00:54:30.000  -2483640.9740  -4660072.8742   3568172.1814   1   7   0.0005   0.0007   0.0007   0.0004  -0.0006  -0.0005   0.00   12.3
2022/07/03 00:54:45.000  -2483640.9739  -4660072.8742   3568172.1815   1   7   0.0005   0.0007   0.0007   0.0004  -0.0006  -0.0005   0.00   13.0
2022/07/03 00:55:00.000  -2483640.9739  -4660072.8743   3568172.1815   1   7   0.0005   0.0007   0.0007   0.0004  -0.0005  -0.0005   0.00   13.8
2022/07/03 00:55:15.000  -2483640.9739  -4660072.8743   3568172.1815   1   7   0.0005   0.0007   0.0007   0.0004  -0.0005  -0.0004   0.00   14.7
2022/07/03 00:55:30.000  -2483640.9739  -4660072.8743   3568172.1816   1   7   0.0005   0.0007   0.0007   0.0004  -0.0005  -0.0004   0.00   15.5
2022/07/03 00:55:45.000  -2483640.9739  -4660072.8743   3568172.1816   1   7   0.0005   0.0007   0.0007   0.0004  -0.0005  -0.0004   0.00   16.3
2022/07/03 00:56:00.000  -2483640.9739  -4660072.8744   3568172.1816   1   7   0.0005   0.0007   0.0007   0.0004  -0.0005  -0.0004   0.00   17.1
2022/07/03 00:56:15.000  -2483640.9739  -4660072.8745   3568172.1817   1   7   0.0005   0.0007   0.0007   0.0004  -0.0005  -0.0004   0.00   18.0
2022/07/03 00:56:30.000  -2483640.9739  -4660072.8746   3568172.1818   1   7   0.0005   0.0007   0.0007   0.0004  -0.0005  -0.0004   0.00   18.8
2022/07/03 00:56:45.000  -2483640.9738  -4660072.8747   3568172.1819   1   7   0.0005   0.0007   0.0007   0.0004  -0.0005  -0.0004   0.00   19.6
2022/07/03 00:57:00.000  -2483640.9738  -4660072.8748   3568172.1820   1   7   0.0005   0.0007   0.0007   0.0004  -0.0005  -0.0004   0.00   20.4
2022/07/03 00:57:15.000  -2483640.9738  -4660072.8749   3568172.1821   1   7   0.0005   0.0007   0.0007   0.0004  -0.0005  -0.0004   0.00   21.3
2022/07/03 00:57:30.000  -2483640.9738  -4660072.8750   3568172.1822   1   7   0.0005   0.0007   0.0007   0.0004  -0.0005  -0.0004   0.00   22.2
2022/07/03 00:57:45.000  -2483640.9738  -4660072.8751   3568172.1823   1   7   0.0005   0.0007   0.0007   0.0004  -0.0005  -0.0004   0.00   23.0
2022/07/03 00:58:00.000  -2483640.9737  -4660072.8752   3568172.1823   1   7   0.0005   0.0007   0.0007   0.0004  -0.0005  -0.0004   0.00   23.9
2022/07/03 00:58:15.000  -2483640.9737  -4660072.8752   3568172.1824   1   7   0.0005   0.0007   0.0007   0.0004  -0.0005  -0.0004   0.00   24.8
2022/07/03 00:58:30.000  -2483640.9736  -4660072.8752   3568172.1824   1   7   0.0005   0.0007   0.0007   0.0004  -0.0005  -0.0004   0.00   25.7
2022/07/03 00:58:45.000  -2483640.9735  -4660072.8752   3568172.1824   1   7   0.0005   0.0007   0.0007   0.0004  -0.0005  -0.0004   0.00   26.6
2022/07/03 00:59:00.000  -2483640.9735  -4660072.8752   3568172.1824   1   7   0.0005   0.0007   0.0007   0.0004  -0.0005  -0.0004   0.00   27.6
2022/07/03 00:59:15.000  -2483640.9734  -4660072.8752   3568172.1824   1   7   0.0005   0.0007   0.0007   0.0004  -0.0005  -0.0004   0.00   28.6
2022/07/03 00:59:30.000  -2483640.9734  -4660072.8752   3568172.1824   1   7   0.0005   0.0007   0.0007   0.0004  -0.0005  -0.0004   0.00   29.7
2022/07/03 00:59:45.000  -2483640.9733  -4660072.8752   3568172.1824   1   7   0.0005   0.0007   0.0007   0.0004  -0.0005  -0.0004   0.00   30.7
2022/07/03 01:00:00.000  -2483640.9732  -4660072.8752   3568172.1824   1   7   0.0005   0.0007   0.0007   0.0004  -0.0005  -0.0004   0.00   31.9
2022/07/03 01:00:15.000  -2483640.9732  -4660072.8752   3568172.1824   1   7   0.0005   0.0007   0.0007   0.0004  -0.0005  -0.0004   0.00   33.1
2022/07/03 01:00:30.000  -2483640.9731  -4660072.8752   3568172.1824   1   7   0.0005   0.0007   0.0007   0.0004  -0.0005  -0.0004   0.00   34.4
2022/07/03 01:00:45.000  -2483640.9730  -4660072.8753   3568172.1824   1   7   0.0005   0.0007   0.0007   0.0004  -0.0005  -0.0004   0.00   35.7
2022/07/03 01:01:00.000  -2483640.9729  -4660072.8753   3568172.1823   1   7   0.0005   0.0007   0.0007   0.0004  -0.0005  -0.0004   0.00   37.1
2022/07/03 01:01:15.000  -2483640.9728  -4660072.8753   3568172.1822   1   7   0.0005   0.0007   0.0007   0.0004  -0.0005  -0.0004   0.00   38.5
2022/07/03 01:01:30.000  -2483640.9727  -4660072.8753   3568172.1822   1   7   0.0005   0.0006   0.0007   0.0004  -0.0005  -0.0004   0.00   40.0
2022/07/03 01:01:45.000  -2483640.9726  -4660072.8753   3568172.1821   1   7   0.0005   0.0006   0.0007   0.0004  -0.0005  -0.0004   0.00   41.6
2022/07/03 01:02:00.000  -2483640.9726  -4660072.8753   3568172.1820   1   7   0.0005   0.0006   0.0007   0.0004  -0.0005  -0.0004   0.00   43.3
2022/07/03 01:02:15.000  -2483640.9725  -4660072.8753   3568172.1819   1   7   0.0005   0.0006   0.0007   0.0004  -0.0005  -0.0004   0.00   44.9
2022/07/03 01:02:30.000  -2483640.9725  -4660072.8754   3568172.1819   1   7   0.0005   0.0006   0.0007   0.0004  -0.0005  -0.0004   0.00   46.6
2022/07/03 01:02:45.000  -2483640.9724  -4660072.8754   3568172.1818   1   7   0.0005   0.0006   0.0007   0.0004  -0.0005  -0.0004   0.00   48.4
2022/07/03 01:03:00.000  -2483640.9724  -4660072.8755   3568172.1818   1   7   0.0005   0.0006   0.0007   0.0004  -0.0005  -0.0004   0.00   50.2
2022/07/03 01:03:15.000  -2483640.9724  -4660072.8756   3568172.1818   1   7   0.0005   0.0006   0.0007   0.0004  -0.0005  -0.0004   0.00   51.8
2022/07/03 01:03:30.000  -2483640.9724  -4660072.8757   3568172.1818   1   7   0.0005   0.0006   0.0007   0.0004  -0.0005  -0.0004   0.00   53.4
2022/07/03 01:03:45.000  -2483640.9723  -4660072.8758   3568172.1818   1   7   0.0005   0.0006   0.0007   0.0004  -0.0005  -0.0004   0.00   54.9
2022/07/03 01:04:00.000  -2483640.9723  -4660072.8758   3568172.1818   1   7   0.0005   0.0006   0.0007   0.0004  -0.0005  -0.0004   0.00   56.3
2022/07/03 01:04:15.000  -2483640.9723  -4660072.8759   3568172.1818   1   7   0.0005   0.0006   0.0007   0.0004  -0.0005  -0.0004   0.00   57.6
2022/07/03 01:04:30.000  -2483640.9723  -4660072.8760   3568172.1818   1   7   0.0005   0.0006   0.0007   0.0004  -0.0005  -0.0004   0.00   59.0
2022/07/03 01:04:45.000  -2483640.9723  -4660072.8761   3568172.1817   1   7   0.0005   0.0006   0.0007   0.0004  -0.0005  -0.0004   0.00   60.7
2022/07/03 01:05:00.000  -2483640.9723  -4660072.8761   3568172.1817   1   7   0.0005   0.0006   0.0007   0.0004  -0.0005  -0.0004   0.00   62.6
2022/07/03 01:05:15.000  -2483640.9722  -4660072.8762   3568172.1817   1   7   0.0005   0.0006   0.0007   0.0004  -0.0005  -0.0004   0.00   64.4
2022/07/03 01:05:30.000  -2483640.9722  -4660072.8763   3568172.1817   1   7   0.0005   0.0006   0.0007   0.0004  -0.0005  -0.0004   0.00   66.3
2022/07/03 01:05:45.000  -2483640.9722  -4660072.8764   3568172.1817   1   7   0.0005   0.0006   0.0007   0.0004  -0.0005  -0.0004   0.00   68.2
2022/07/03 01:06:00.000  -2483640.9722  -4660072.8764   3568172.1817   1   7   0.0005   0.0006   0.0007   0.0004  -0.0005  -0.0004   0.00   70.0
2022/07/03 01:06:15.000  -2483640.9722  -4660072.8765   3568172.1817   1   7   0.0005   0.0006   0.0007   0.0004  -0.0005  -0.0004   0.00   71.8
2022/07/03 01:06:30.000  -2483640.9722  -4660072.8766   3568172.1817   1   7   0.0004   0.0006   0.0007   0.0004  -0.0005  -0.0004   0.00   73.8
2022/07/03 01:06:45.000  -2483640.9722  -4660072.8767   3568172.1817   1   7   0.0004   0.0006   0.0007   0.0004  -0.0005  -0.0004   0.00   75.7
2022/07/03 01:07:00.000  -2483640.9721  -4660072.8768   3568172.1817   1   7   0.0004   0.0006   0.0006   0.0004  -0.0005  -0.0004   0.00   77.8
2022/07/03 01:07:15.000  -2483640.9721  -4660072.8768   3568172.1817   1   7   0.0004   0.0006   0.0006   0.0004  -0.0005  -0.0004   0.00   80.0
2022/07/03 01:07:30.000  -2483640.9720  -4660072.8768   3568172.1816   1   7   0.0004   0.0006   0.0006   0.0004  -0.0005  -0.0004   0.00   82.1
2022/07/03 01:07:45.000  -2483640.9719  -4660072.8768   3568172.1816   1   7   0.0004   0.0006   0.0006   0.0004  -0.0005  -0.0004   0.00   84.5
2022/07/03 01:08:00.000  -2483640.9718  -4660072.8768   3568172.1815   1   7   0.0004   0.0006   0.0006   0.0004  -0.0005  -0.0004   0.00   87.0
2022/07/03 01:08:15.000  -2483640.9717  -4660072.8768   3568172.1815   1   7   0.0004   0.0006   0.0006   0.0004  -0.0005  -0.0004   0.00   89.7
2022/07/03 01:08:30.000  -2483640.9716  -4660072.8768   3568172.1815   1   7   0.0004   0.0006   0.0006   0.0004  -0.0005  -0.0004   0.00   92.2
2022/07/03 01:08:45.000  -2483640.9715  -4660072.8768   3568172.1814   1   7   0.0004   0.0006   0.0006   0.0004  -0.0005  -0.0004   0.00   94.6
2022/07/03 01:09:00.000  -2483640.9714  -4660072.8768   3568172.1814   1   7   0.0004   0.0006   0.0006   0.0004  -0.0005  -0.0004   0.00   97.3
2022/07/03 01:09:15.000  -2483640.9714  -4660072.8769   3568172.1814   1   7   0.0004   0.0006   0.0006   0.0004  -0.0005  -0.0004   0.00  100.3
2022/07/03 01:09:30.000  -2483640.9713  -4660072.8769   3568172.1813   1   7   0.0004   0.0006   0.0006   0.0004  -0.0005  -0.0004   0.00  103.5
2022/07/03 01:09:45.000  -2483640.9712  -4660072.8769   3568172.1813   1   7   0.0004   0.0006   0.0006   0.0004  -0.0005  -0.0004   0.00  106.1
2022/07/03 01:10:00.000  -2483640.9711  -4660072.8769   3568172.1813   1   7   0.0004   0.0006   0.0006   0.0004  -0.0005  -0.0004   0.00  108.8
2022/07/03 01:10:15.000  -2483640.9710  -4660072.8770   3568172.1812   1   7   0.0004   0.0006   0.0006   0.0004  -0.0005  -0.0004   0.00  111.3
2022/07/03 01:10:30.000  -2483640.9709  -4660072.8770   3568172.1812   1   7   0.0004   0.0006   0.0006   0.0004  -0.0005  -0.0004   0.00  114.0
2022/07/03 01:10:45.000  -2483640.9708  -4660072.8770   3568172.1812   1   7   0.0004   0.0006   0.0006   0.0004  -0.0005  -0.0004   0.00  116.9
2022/07/03 01:11:00.000  -2483640.9707  -4660072.8770   3568172.1811   1   7   0.0004   0.0006   0.0006   0.0004  -0.0005  -0.0004   0.00  119.6
2022/07/03 01:11:15.000  -2483640.9707  -4660072.8770   3568172.1811   1   7   0.0004   0.0006   0.0006   0.0004  -0.0005  -0.0004   0.00  122.8
2022/07/03 01:11:30.000  -2483640.9706  -4660072.8770   3568172.1811   1   7   0.0004   0.0006   0.0006   0.0004  -0.0005  -0.0004   0.00  126.1
2022/07/03 01:11:45.000  -2483640.9705  -4660072.8771   3568172.1811   1   7   0.0004   0.0006   0.0006   0.0004  -0.0005  -0.0004   0.00  129.5
2022/07/03 01:12:00.000  -2483640.9704  -4660072.8771   3568172.1811   1   7   0.0004   0.0006   0.0006   0.0004  -0.0005  -0.0004   0.00  133.2
2022/07/03 01:12:15.000  -2483640.9704  -4660072.8771   3568172.1810   1   7   0.0004   0.0006   0.0006   0.0004  -0.0005  -0.0004   0.00  137.1
2022/07/03 01:12:30.000  -2483640.9703  -4660072.8771   3568172.1810   1   7   0.0004   0.0006   0.0006   0.0004  -0.0005  -0.0004   0.00  141.1
2022/07/03 01:12:45.000  -2483640.9702  -4660072.8771   3568172.1810   1   7   0.0004   0.0006   0.0006   0.0004  -0.0005  -0.0004   0.00  145.6
2022/07/03 01:13:00.000  -2483640.9701  -4660072.8771   3568172.1809   1   7   0.0004   0.0006   0.0006   0.0004  -0.0005  -0.0004   0.00  150.1
2022/07/03 01:13:15.000  -2483640.9701  -4660072.8772   3568172.1809   1   7   0.0004   0.0006   0.0006   0.0004  -0.0005  -0.0004   0.00  154.1
2022/07/03 01:13:30.000  -2483640.9700  -4660072.8772   3568172.1809   1   7   0.0004   0.0006   0.0006   0.0004  -0.0005  -0.0004   0.00  157.9
2022/07/03 01:13:45.000  -2483640.9700  -4660072.8773   3568172.1809   1   7   0.0004   0.0006   0.0006   0.0004  -0.0005  -0.0004   0.00  161.7
2022/07/03 01:14:00.000  -2483640.9700  -4660072.8774   3568172.1810   1   7   0.0004   0.0006   0.0006   0.0004  -0.0005  -0.0004   0.00  164.6
2022/07/03 01:14:15.000  -2483640.9699  -4660072.8775   3568172.1810   1   7   0.0004   0.0006   0.0006   0.0004  -0.0005  -0.0004   0.00  168.9
2022/07/03 01:14:30.000  -2483640.9699  -4660072.8775   3568172.1810   1   7   0.0004   0.0006   0.0006   0.0004  -0.0005  -0.0004   0.00  172.0
2022/07/03 01:14:45.000  -2483640.9698  -4660072.8775   3568172.1809   1   7   0.0004   0.0006   0.0006   0.0004  -0.0005  -0.0004   0.00  174.9
2022/07/03 01:15:00.000  -2483640.9697  -4660072.8775   3568172.1809   1   7   0.0004   0.0006   0.0006   0.0004  -0.0005  -0.0004   0.00  178.1
2022/07/03 01:15:15.000  -2483640.9696  -4660072.8775   3568172.1808   1   7   0.0004   0.0006   0.0006   0.0004  -0.0005  -0.0004   0.00  181.7
2022/07/03 01:15:30.000  -2483640.9696  -4660072.8774   3568172.1807   1   7   0.0004   0.0006   0.0006   0.0004  -0.0005  -0.0004   0.00  185.8
2022/07/03 01:15:45.000  -2483640.9695  -4660072.8773   3568172.1806   1   7   0.0004   0.0006   0.0006   0.0004  -0.0005  -0.0004   0.00  189.6
2022/07/03 01:16:00.000  -2483640.9694  -4660072.8772   3568172.1805   1   7   0.0004   0.0006   0.0006   0.0004  -0.0005  -0.0004   0.00  194.2
2022/07/03 01:16:15.000  -2483640.9693  -4660072.8772   3568172.1804   1   7   0.0004   0.0006   0.0006   0.0004  -0.0005  -0.0004   0.00  199.2
2022/07/03 01:16:30.000  -2483640.9693  -4660072.8772   3568172.1803   1   7   0.0004   0.0006   0.0006   0.0004  -0.0005  -0.0004   0.00  203.7
2022/07/03 01:16:45.000  -2483640.9692  -4660072.8771   3568172.1803   1   7   0.0004   0.0006   0.0006   0.0004  -0.0005  -0.0004   0.00  209.7
2022/07/03 01:17:00.000  -2483640.9691  -4660072.8771   3568172.1801   1   7   0.0004   0.0006   0.0006   0.0004  -0.0005  -0.0004   0.00  216.3
2022/07/03 01:17:15.000  -2483640.9690  -4660072.8770   3568172.1800   1   7   0.0004   0.0006   0.0006   0.0004  -0.0004  -0.0004   0.00  222.5
2022/07/03 01:17:30.000  -2483640.9689  -4660072.8769   3568172.1799   1   7   0.0004   0.0006   0.0006   0.0004  -0.0004  -0.0004   0.00  229.9
2022/07/03 01:17:45.000  -2483640.9688  -4660072.8768   3568172.1798   1   7   0.0004   0.0006   0.0006   0.0004  -0.0004  -0.0004   0.00  236.7
2022/07/03 01:18:00.000  -2483640.9688  -4660072.8768   3568172.1796   1   7   0.0004   0.0006   0.0006   0.0004  -0.0004  -0.0004   0.00  243.9
2022/07/03 01:18:15.000  -2483640.9687  -4660072.8767   3568172.1795   1   7   0.0004   0.0006   0.0006   0.0004  -0.0004  -0.0004   0.00  250.4
2022/07/03 01:18:30.000  -2483640.9686  -4660072.8766   3568172.1794   1   7   0.0004   0.0006   0.0006   0.0004  -0.0004  -0.0004   0.00  257.8
2022/07/03 01:18:45.000  -2483640.9685  -4660072.8765   3568172.1793   1   7   0.0004   0.0006   0.0006   0.0004  -0.0004  -0.0004   0.00  265.3
2022/07/03 01:19:00.000  -2483640.9684  -4660072.8765   3568172.1792   1   7   0.0004   0.0006   0.0006   0.0004  -0.0004  -0.0004   0.00  273.5
2022/07/03 01:19:15.000  -2483640.9677  -4660072.8742   3568172.1767   2   8   0.0005   0.0006   0.0006   0.0004  -0.0005  -0.0004   0.00    1.3
2022/07/03 01:19:30.000  -2483640.9677  -4660072.8742   3568172.1767   2   8   0.0005   0.0006   0.0006   0.0004  -0.0005  -0.0004   0.00    1.5
2022/07/03 01:19:45.000  -2483640.9676  -4660072.8742   3568172.1766   2   8   0.0005   0.0006   0.0006   0.0004  -0.0005  -0.0004   0.00    1.7
2022/07/03 01:20:00.000  -2483640.9676  -4660072.8742   3568172.1766   2   8   0.0005   0.0006   0.0006   0.0004  -0.0005  -0.0004   0.00    1.9
2022/07/03 01:20:15.000  -2483640.9675  -4660072.8741   3568172.1765   2   8   0.0005   0.0006   0.0006   0.0004  -0.0005  -0.0004   0.00    2.1
2022/07/03 01:20:30.000  -2483640.9675  -4660072.8741   3568172.1764   2   8   0.0005   0.0006   0.0006   0.0004  -0.0005  -0.0004   0.00    2.3
2022/07/03 01:20:45.000  -2483640.9674  -4660072.8740   3568172.1764   2   8   0.0005   0.0006   0.0006   0.0004  -0.0005  -0.0004   0.00    2.4
2022/07/03 01:21:00.000  -2483640.9674  -4660072.8739   3568172.1763   2   8   0.0004   0.0006   0.0006   0.0004  -0.0005  -0.0004   0.00    2.6
2022/07/03 01:21:15.000  -2483640.9673  -4660072.8738   3568172.1762   2   8   0.0004   0.0006   0.0006   0.0004  -0.0005  -0.0004   0.00    2.8
2022/07/03 01:21:30.000  -2483640.9672  -4660072.8738   3568172.1762   2   8   0.0004   0.0006   0.0006   0.0004  -0.0005  -0.0004   0.00    2.9
2022/07/03 01:21:45.000  -2483640.9672  -4660072.8737   3568172.1761   2   8   0.0004   0.0006   0.0006   0.0004  -0.0005  -0.0004   0.00    2.9
2022/07/03 01:22:00.000  -2483640.9672  -4660072.8736   3568172.1760   2   8   0.0004   0.0006   0.0006   0.0004  -0.0005  -0.0004   0.00    3.0
2022/07/03 01:22:15.000  -2483640.9664  -4660072.8744   3568172.1755   1   8   0.0004   0.0006   0.0006   0.0004  -0.0004  -0.0004   0.00    3.0
2022/07/03 01:22:30.000  -2483640.9662  -4660072.8742   3568172.1752   1   8   0.0004   0.0006   0.0006   0.0004  -0.0004  -0.0004   0.00    3.1
2022/07/03 01:22:45.000  -2483640.9660  -4660072.8740   3568172.1749   1   8   0.0004   0.0006   0.0006   0.0004  -0.0004  -0.0004   0.00    3.1
2022/07/03 01:23:00.000  -2483640.9659  -4660072.8739   3568172.1746   1   8   0.0004   0.0006   0.0006   0.0004  -0.0004  -0.0004   0.00    3.2
2022/07/03 01:23:15.000  -2483640.9657  -4660072.8737   3568172.1744   1   8   0.0004   0.0006   0.0006   0.0004  -0.0004  -0.0004   0.00    3.3
2022/07/03 01:23:30.000  -2483640.9655  -4660072.8736   3568172.1741   1   8   0.0004   0.0006   0.0006   0.0004  -0.0004  -0.0004   0.00    3.4
2022/07/03 01:23:45.000  -2483640.9654  -4660072.8735   3568172.1739   1   8   0.0004   0.0006   0.0006   0.0004  -0.0004  -0.0004   0.00    3.6
2022/07/03 01:24:00.000  -2483640.9653  -4660072.8733   3568172.1736   1   8   0.0004   0.0006   0.0006   0.0004  -0.0004  -0.0004   0.00    3.8
2022/07/03 01:24:15.000  -2483640.9652  -4660072.8732   3568172.1735   1   8   0.0004   0.0006   0.0006   0.0004  -0.0004  -0.0004   0.00    4.1
2022/07/03 01:24:30.000  -2483640.9651  -4660072.8731   3568172.1733   1   8   0.0004   0.0006   0.0006   0.0004  -0.0004  -0.0004   0.00    4.3
2022/07/03 01:24:45.000  -2483640.9651  -4660072.8731   3568172.1731   1   8   0.0004   0.0006   0.0005   0.0004  -0.0004  -0.0004   0.00    6.5
2022/07/03 01:25:00.000  -2483640.9650  -4660072.8730   3568172.1730   1   8   0.0004   0.0006   0.0005   0.0004  -0.0004  -0.0004   0.00    9.0
2022/07/03 01:25:15.000  -2483640.9649  -4660072.8729   3568172.1728   1   8   0.0004   0.0006   0.0005   0.0004  -0.0004  -0.0003   0.00   11.7
2022/07/03 01:25:30.000  -2483640.9648  -4660072.8729   3568172.1726   1   8   0.0004   0.0006   0.0005   0.0004  -0.0004  -0.0003   0.00   14.5
2022/07/03 01:25:45.000  -2483640.9657  -4660072.8725   3568172.1734   2   8   0.0004   0.0006   0.0006   0.0004  -0.0005  -0.0004   0.00    1.5
2022/07/03 01:26:00.000  -2483640.9657  -4660072.8725   3568172.1733   2   8   0.0004   0.0006   0.0006   0.0004  -0.0005  -0.0004   0.00    2.0
2022/07/03 01:26:15.000  -2483640.9656  -4660072.8725   3568172.1733   2   8   0.0004   0.0006   0.0006   0.0004  -0.0005  -0.0004   0.00    2.5
2022/07/03 01:26:30.000  -2483640.9648  -4660072.8729   3568172.1728   1   8   0.0004   0.0005   0.0005   0.0004  -0.0004  -0.0003   0.00    3.1
2022/07/03 01:26:45.000  -2483640.9646  -4660072.8729   3568172.1727   1   8   0.0004   0.0005   0.0005   0.0004  -0.0004  -0.0003   0.00    3.7
2022/07/03 01:27:00.000  -2483640.9645  -4660072.8728   3568172.1725   1   8   0.0004   0.0005   0.0005   0.0004  -0.0004  -0.0003   0.00    4.2
2022/07/03 01:27:15.000  -2483640.9645  -4660072.8728   3568172.1724   1   8   0.0004   0.0005   0.0005   0.0004  -0.0004  -0.0003   0.00    4.8
2022/07/03 01:27:30.000  -2483640.9644  -4660072.8728   3568172.1723   1   8   0.0004   0.0005   0.0005   0.0004  -0.0004  -0.0003   0.00    5.3
2022/07/03 01:27:45.000  -2483640.9643  -4660072.8728   3568172.1722   1   8   0.0004   0.0005   0.0005   0.0004  -0.0004  -0.0003   0.00    5.9
2022/07/03 01:28:00.000  -2483640.9642  -4660072.8728   3568172.1721   1   8   0.0004   0.0005   0.0005   0.0004  -0.0004  -0.0003   0.00    6.4
2022/07/03 01:28:15.000  -2483640.9642  -4660072.8728   3568172.1720   1   8   0.0004   0.0005   0.0005   0.0004  -0.0004  -0.0003   0.00    7.0
2022/07/03 01:28:30.000  -2483640.9641  -4660072.8728   3568172.1719   1   8   0.0004   0.0005   0.0005   0.0004  -0.0004  -0.0003   0.00    7.6
2022/07/03 01:28:45.000  -2483640.9641  -4660072.8728   3568172.1718   1   8   0.0004   0.0005   0.0005   0.0004  -0.0004  -0.0003   0.00    8.2
2022/07/03 01:29:00.000  -2483640.9641  -4660072.8728   3568172.1717   1   8   0.0004   0.0005   0.0005   0.0004  -0.0004  -0.0003   0.00   11.8
2022/07/03 01:29:15.000  -2483640.9640  -4660072.8728   3568172.1717   1   8   0.0004   0.0005   0.0005   0.0004  -0.0004  -0.0003   0.00   15.4
2022/07/03 01:29:30.000  -2483640.9640  -4660072.8728   3568172.1716   1   8   0.0004   0.0005   0.0005   0.0004  -0.0004  -0.0003   0.00   19.2
2022/07/03 01:29:45.000  -2483640.9640  -4660072.8729   3568172.1716   1   8   0.0004   0.0005   0.0005   0.0004  -0.0004  -0.0003   0.00   23.3
2022/07/03 01:30:00.000  -2483640.9639  -4660072.8728   3568172.1715   1   8   0.0004   0.0005   0.0005   0.0004  -0.0004  -0.0003   0.00   27.3
2022/07/03 01:30:15.000  -2483640.9638  -4660072.8728   3568172.1714   1   8   0.0004   0.0005   0.0005   0.0004  -0.0004  -0.0003   0.00   31.5
2022/07/03 01:30:30.000  -2483640.9637  -4660072.8728   3568172.1713   1   8   0.0004   0.0005   0.0005   0.0004  -0.0004  -0.0003   0.00   35.8
2022/07/03 01:30:45.000  -2483640.9636  -4660072.8728   3568172.1712   1   8   0.0004   0.0005   0.0005   0.0004  -0.0004  -0.0003   0.00   40.4
2022/07/03 01:31:00.000  -2483640.9636  -4660072.8728   3568172.1711   1   8   0.0004   0.0005   0.0005   0.0004  -0.0004  -0.0003   0.00   44.9
2022/07/03 01:31:15.000  -2483640.9635  -4660072.8727   3568172.1710   1   8   0.0004   0.0005   0.0005   0.0004  -0.0004  -0.0003   0.00   49.2
2022/07/03 01:31:30.000  -2483640.9634  -4660072.8727   3568172.1710   1   8   0.0004   0.0005   0.0005   0.0004  -0.0004  -0.0003   0.00   54.0
2022/07/03 01:31:45.000  -2483640.9633  -4660072.8727   3568172.1709   1   8   0.0004   0.0005   0.0005   0.0003  -0.0004  -0.0003   0.00   58.1
2022/07/03 01:32:00.000  -2483640.9632  -4660072.8727   3568172.1707   1   8   0.0004   0.0005   0.0005   0.0003  -0.0004  -0.0003   0.00   62.4
2022/07/03 01:32:15.000  -2483640.9632  -4660072.8726   3568172.1707   1   8   0.0004   0.0005   0.0005   0.0003  -0.0004  -0.0003   0.00   67.3
2022/07/03 01:32:30.000  -2483640.9631  -4660072.8726   3568172.1706   1   8   0.0004   0.0005   0.0005   0.0003  -0.0004  -0.0003   0.00   71.6
2022/07/03 01:32:45.000  -2483640.9630  -4660072.8726   3568172.1705   1   8   0.0004   0.0005   0.0005   0.0003  -0.0004  -0.0003   0.00   75.0
2022/07/03 01:33:00.000  -2483640.9630  -4660072.8726   3568172.1704   1   8   0.0004   0.0005   0.0005   0.0003  -0.0004  -0.0003   0.00   78.9
2022/07/03 01:33:15.000  -2483640.9629  -4660072.8725   3568172.1702   1   8   0.0004   0.0005   0.0005   0.0003  -0.0004  -0.0003   0.00   82.5
2022/07/03 01:33:30.000  -2483640.9628  -4660072.8725   3568172.1701   1   8   0.0004   0.0005   0.0005   0.0003  -0.0004  -0.0003   0.00   86.2
2022/07/03 01:33:45.000  -2483640.9627  -4660072.8725   3568172.1701   1   8   0.0004   0.0005   0.0005   0.0003  -0.0004  -0.0003   0.00   90.3
2022/07/03 01:34:00.000  -2483640.9626  -4660072.8724   3568172.1699   1   8   0.0004   0.0005   0.0005   0.0003  -0.0004  -0.0003   0.00   93.8
2022/07/03 01:34:15.000  -2483640.9625  -4660072.8724   3568172.1698   1   8   0.0004   0.0005   0.0005   0.0003  -0.0004  -0.0003   0.00   97.4
2022/07/03 01:34:30.000  -2483640.9624  -4660072.8723   3568172.1697   1   8   0.0004   0.0005   0.0005   0.0003  -0.0004  -0.0003   0.00  101.3
2022/07/03 01:34:45.000  -2483640.9623  -4660072.8723   3568172.1696   1   8   0.0004   0.0005   0.0005   0.0003  -0.0004  -0.0003   0.00  105.3
2022/07/03 01:35:00.000  -2483640.9623  -4660072.8722   3568172.1696   1   8   0.0004   0.0005   0.0005   0.0003  -0.0004  -0.0003   0.00  109.6
2022/07/03 01:35:15.000  -2483640.9622  -4660072.8722   3568172.1695   1   8   0.0004   0.0005   0.0005   0.0003  -0.0004  -0.0003   0.00  113.4
2022/07/03 01:35:30.000  -2483640.9622  -4660072.8722   3568172.1694   1   8   0.0004   0.0005   0.0005   0.0003  -0.0004  -0.0003   0.00  118.6
2022/07/03 01:35:45.000  -2483640.9621  -4660072.8722   3568172.1694   1   8   0.0004   0.0005   0.0005   0.0003  -0.0004  -0.0003   0.00  123.6
2022/07/03 01:36:00.000  -2483640.9621  -4660072.8722   3568172.1694   1   8   0.0004   0.0005   0.0005   0.0003  -0.0004  -0.0003   0.00  128.7
2022/07/03 01:36:15.000  -2483640.9621  -4660072.8722   3568172.1694   1   8   0.0004   0.0005   0.0005   0.0003  -0.0004  -0.0003   0.00  134.1
2022/07/03 01:36:30.000  -2483640.9620  -4660072.8722   3568172.1693   1   8   0.0004   0.0005   0.0005   0.0003  -0.0004  -0.0003   0.00  139.3
2022/07/03 01:36:45.000  -2483640.9620  -4660072.8722   3568172.1693   1   8   0.0004   0.0005   0.0005   0.0003  -0.0004  -0.0003   0.00  144.7
2022/07/03 01:37:00.000  -2483640.9620  -4660072.8721   3568172.1692   1   8   0.0004   0.0005   0.0005   0.0003  -0.0004  -0.0003   0.00  149.5
2022/07/03 01:37:15.000  -2483640.9627  -4660072.8719   3568172.1699   2   9   0.0004   0.0006   0.0005   0.0004  -0.0004  -0.0003   0.00    1.4
2022/07/03 01:37:30.000  -2483640.9626  -4660072.8719   3568172.1699   2   9   0.0004   0.0006   0.0005   0.0004  -0.0004  -0.0003   0.00    1.8
2022/07/03 01:37:45.000  -2483640.9626  -4660072.8718   3568172.1699   2   9   0.0004   0.0006   0.0005   0.0004  -0.0004  -0.0003   0.00    2.2
2022/07/03 01:38:00.000  -2483640.9625  -4660072.8718   3568172.1699   2   9   0.0004   0.0006   0.0005   0.0004  -0.0004  -0.0003   0.00    2.7
2022/07/03 01:38:15.000  -2483640.9618  -4660072.8721   3568172.1691   1   9   0.0004   0.0005   0.0005   0.0003  -0.0004  -0.0003   0.00    3.1
2022/07/03 01:38:30.000  -2483640.9617  -4660072.8721   3568172.1691   1   9   0.0004   0.0005   0.0005   0.0003  -0.0004  -0.0003   0.00    3.4
2022/07/03 01:38:45.000  -2483640.9619  -4660072.8723   3568172.1699   1   9   0.0004   0.0005   0.0005   0.0003  -0.0004  -0.0003   0.00    3.5
2022/07/03 01:39:00.000  -2483640.9619  -4660072.8723   3568172.1698   1   9   0.0004   0.0005   0.0005   0.0003  -0.0004  -0.0003   0.00    5.1
2022/07/03 01:39:15.000  -2483640.9618  -4660072.8723   3568172.1698   1   9   0.0004   0.0005   0.0005   0.0003  -0.0004  -0.0003   0.00    5.5
2022/07/03 01:39:30.000  -2483640.9618  -4660072.8723   3568172.1698   1   9   0.0004   0.0005   0.0005   0.0003  -0.0004  -0.0003   0.00    5.9
2022/07/03 01:39:45.000  -2483640.9617  -4660072.8723   3568172.1698   1   9   0.0004   0.0005   0.0005   0.0003  -0.0004  -0.0003   0.00    6.2
2022/07/03 01:40:00.000  -2483640.9617  -4660072.8723   3568172.1698   1   9   0.0004   0.0005   0.0005   0.0003  -0.0004  -0.0003   0.00    6.5
2022/07/03 01:40:15.000  -2483640.9616  -4660072.8723   3568172.1698   1   9   0.0004   0.0005   0.0005   0.0003  -0.0004  -0.0003   0.00    7.0
2022/07/03 01:40:30.000  -2483640.9616  -4660072.8723   3568172.1698   1   9   0.0004   0.0005   0.0005   0.0003  -0.0004  -0.0003   0.00    7.5
2022/07/03 01:40:45.000  -2483640.9616  -4660072.8723   3568172.1699   1   9   0.0004   0.0005   0.0005   0.0003  -0.0004  -0.0003   0.00   29.8
