% program   : RTKPOST ver.2.4.3 b34
% inp file  : C:\Users\89231\Documents\Учеба\Диссертация\Данные\Лос-Анджелес 03-05.07.22\04.07.2022\jplm1850.22o
% inp file  : C:\Users\89231\Documents\Учеба\Диссертация\Данные\Лос-Анджелес 03-05.07.22\04.07.2022\cmp91850.22o
% inp file  : C:\Users\89231\Documents\Учеба\Диссертация\Данные\Лос-Анджелес 03-05.07.22\04.07.2022\jplm1850.22n
% inp file  : C:\Users\89231\Documents\Учеба\Диссертация\Данные\Лос-Анджелес 03-05.07.22\04.07.2022\igs22171.sp3
% obs start : 2022/07/04 00:00:00.0 GPST (week2217  86400.0s)
% obs end   : 2022/07/04 23:59:30.0 GPST (week2217 172770.0s)
% pos mode  : Static
% freqs     : L1+2
% solution  : Forward
% elev mask : 15.0 deg
% dynamics  : off
% tidecorr  : off
% ionos opt : Broadcast
% tropo opt : Saastamoinen
% ephemeris : Precise
% navi sys  : GPS
% amb res   : Fix and Hold
% val thres : 3.0
% antenna1  :                       ( 0.0000  0.0000  0.0610)
% antenna2  :                       ( 0.0000  0.0000  0.1265)
% ref pos   : -2508506.2038  -4637174.8877   3579500.0070
%
% (x/y/z-ecef=WGS84,Q=1:fix,2:float,3:sbas,4:dgps,5:single,6:ppp,ns=# of satellites)
%  GPST                      x-ecef(m)      y-ecef(m)      z-ecef(m)   Q  ns   sdx(m)   sdy(m)   sdz(m)  sdxy(m)  sdyz(m)  sdzx(m) age(s)  ratio
2022/07/04 00:00:00.000  -2493304.7133  -4655215.3557   3565497.5248   2   8   0.5220   0.9982   0.7488   0.5613  -0.7348  -0.4838   0.00    2.2
2022/07/04 00:00:30.000  -2493304.6238  -4655215.4793   3565497.5789   2   8   0.3427   0.6511   0.4584   0.3486  -0.4483  -0.2905   0.00    2.9
2022/07/04 00:01:00.000  -2493304.6326  -4655215.3099   3565497.5889   1   8   0.0030   0.0058   0.0044   0.0033  -0.0043  -0.0028   0.00    3.2
2022/07/04 00:01:30.000  -2493304.6332  -4655215.3104   3565497.5904   1   8   0.0026   0.0050   0.0038   0.0028  -0.0037  -0.0024   0.00    3.1
2022/07/04 00:02:00.000  -2493304.6330  -4655215.3109   3565497.5915   1   8   0.0024   0.0045   0.0034   0.0025  -0.0033  -0.0022   0.00    3.2
2022/07/04 00:02:30.000  -2493304.6322  -4655215.3101   3565497.5920   1   8   0.0021   0.0041   0.0031   0.0023  -0.0030  -0.0020   0.00    3.4
2022/07/04 00:03:00.000  -2493304.6315  -4655215.3096   3565497.5923   1   8   0.0020   0.0038   0.0029   0.0021  -0.0028  -0.0018   0.00    3.5
2022/07/04 00:03:30.000  -2493304.6305  -4655215.3093   3565497.5922   1   8   0.0019   0.0036   0.0027   0.0020  -0.0026  -0.0017   0.00    3.6
2022/07/04 00:04:00.000  -2493304.6294  -4655215.3083   3565497.5917   1   8   0.0017   0.0033   0.0025   0.0019  -0.0025  -0.0016   0.00    3.5
2022/07/04 00:04:30.000  -2493304.6285  -4655215.3071   3565497.5912   1   8   0.0017   0.0032   0.0024   0.0018  -0.0023  -0.0015   0.00    3.5
2022/07/04 00:05:00.000  -2493304.6274  -4655215.3060   3565497.5906   1   8   0.0016   0.0030   0.0023   0.0017  -0.0022  -0.0015   0.00    3.6
2022/07/04 00:05:30.000  -2493304.6266  -4655215.3050   3565497.5902   1   8   0.0015   0.0029   0.0022   0.0016  -0.0021  -0.0014   0.00    3.6
2022/07/04 00:06:00.000  -2493304.6258  -4655215.3041   3565497.5902   1   8   0.0015   0.0028   0.0021   0.0016  -0.0021  -0.0014   0.00   10.8
2022/07/04 00:06:30.000  -2493304.6253  -4655215.3032   3565497.5898   1   8   0.0014   0.0027   0.0020   0.0015  -0.0020  -0.0013   0.00   14.4
2022/07/04 00:07:00.000  -2493304.6248  -4655215.3024   3565497.5895   1   8   0.0014   0.0026   0.0020   0.0014  -0.0019  -0.0013   0.00   17.9
2022/07/04 00:07:30.000  -2493304.6246  -4655215.3023   3565497.5896   1   8   0.0013   0.0025   0.0019   0.0014  -0.0019  -0.0012   0.00   21.3
2022/07/04 00:08:00.000  -2493304.6243  -4655215.3021   3565497.5895   1   8   0.0013   0.0024   0.0019   0.0014  -0.0018  -0.0012   0.00   24.6
2022/07/04 00:08:30.000  -2493304.6243  -4655215.3020   3565497.5894   1   8   0.0012   0.0024   0.0018   0.0013  -0.0017  -0.0012   0.00   27.7
2022/07/04 00:09:00.000  -2493304.6244  -4655215.3017   3565497.5894   1   8   0.0012   0.0023   0.0018   0.0013  -0.0017  -0.0011   0.00   30.7
2022/07/04 00:09:30.000  -2493304.6246  -4655215.3013   3565497.5893   1   8   0.0012   0.0022   0.0017   0.0012  -0.0017  -0.0011   0.00   33.5
2022/07/04 00:10:00.000  -2493304.6249  -4655215.3008   3565497.5893   1   8   0.0011   0.0022   0.0017   0.0012  -0.0016  -0.0011   0.00   36.2
2022/07/04 00:10:30.000  -2493304.6253  -4655215.3004   3565497.5893   1   8   0.0011   0.0021   0.0017   0.0012  -0.0016  -0.0011   0.00   39.2
2022/07/04 00:11:00.000  -2493304.6258  -4655215.3000   3565497.5892   1   8   0.0011   0.0021   0.0016   0.0012  -0.0015  -0.0010   0.00   42.3
2022/07/04 00:11:30.000  -2493304.6263  -4655215.2997   3565497.5893   1   8   0.0011   0.0021   0.0016   0.0011  -0.0015  -0.0010   0.00   45.7
2022/07/04 00:12:00.000  -2493304.6267  -4655215.2993   3565497.5895   1   8   0.0011   0.0020   0.0016   0.0011  -0.0015  -0.0010   0.00   49.0
2022/07/04 00:12:30.000  -2493304.6272  -4655215.2990   3565497.5898   1   8   0.0010   0.0020   0.0015   0.0011  -0.0015  -0.0010   0.00   52.2
2022/07/04 00:13:00.000  -2493304.6277  -4655215.2987   3565497.5901   1   8   0.0010   0.0019   0.0015   0.0011  -0.0014  -0.0010   0.00   55.8
2022/07/04 00:13:30.000  -2493304.6281  -4655215.2983   3565497.5903   1   8   0.0010   0.0019   0.0015   0.0010  -0.0014  -0.0009   0.00   59.9
2022/07/04 00:14:00.000  -2493304.6283  -4655215.2978   3565497.5905   1   8   0.0010   0.0019   0.0015   0.0010  -0.0014  -0.0009   0.00   64.3
2022/07/04 00:14:30.000  -2493304.6285  -4655215.2970   3565497.5906   1   8   0.0010   0.0018   0.0014   0.0010  -0.0014  -0.0009   0.00   69.2
2022/07/04 00:15:00.000  -2493304.6286  -4655215.2962   3565497.5906   1   8   0.0009   0.0018   0.0014   0.0010  -0.0013  -0.0009   0.00   74.0
2022/07/04 00:15:30.000  -2493304.6286  -4655215.2953   3565497.5907   1   8   0.0009   0.0018   0.0014   0.0010  -0.0013  -0.0009   0.00   78.5
2022/07/04 00:16:00.000  -2493304.6286  -4655215.2944   3565497.5908   1   8   0.0009   0.0018   0.0014   0.0010  -0.0013  -0.0009   0.00   81.8
2022/07/04 00:16:30.000  -2493304.6288  -4655215.2938   3565497.5910   1   8   0.0009   0.0017   0.0014   0.0009  -0.0013  -0.0009   0.00   85.8
2022/07/04 00:17:00.000  -2493304.6288  -4655215.2931   3565497.5911   1   8   0.0009   0.0017   0.0013   0.0009  -0.0013  -0.0008   0.00   89.8
2022/07/04 00:17:30.000  -2493304.6290  -4655215.2925   3565497.5912   1   8   0.0009   0.0017   0.0013   0.0009  -0.0012  -0.0008   0.00   92.9
2022/07/04 00:18:00.000  -2493304.6292  -4655215.2920   3565497.5912   1   8   0.0009   0.0017   0.0013   0.0009  -0.0012  -0.0008   0.00   95.6
2022/07/04 00:18:30.000  -2493304.6294  -4655215.2917   3565497.5914   1   8   0.0009   0.0016   0.0013   0.0009  -0.0012  -0.0008   0.00   98.0
2022/07/04 00:19:00.000  -2493304.6298  -4655215.2917   3565497.5916   1   8   0.0009   0.0016   0.0013   0.0009  -0.0012  -0.0008   0.00  100.2
2022/07/04 00:19:30.000  -2493304.6301  -4655215.2918   3565497.5917   1   8   0.0008   0.0016   0.0013   0.0009  -0.0012  -0.0008   0.00  103.0
2022/07/04 00:20:00.000  -2493304.6305  -4655215.2919   3565497.5919   1   8   0.0008   0.0016   0.0013   0.0009  -0.0012  -0.0008   0.00  105.9
2022/07/04 00:20:30.000  -2493304.6308  -4655215.2920   3565497.5921   1   8   0.0008   0.0016   0.0012   0.0009  -0.0012  -0.0008   0.00  108.3
2022/07/04 00:21:00.000  -2493304.6312  -4655215.2923   3565497.5924   1   8   0.0008   0.0015   0.0012   0.0008  -0.0011  -0.0008   0.00  111.6
2022/07/04 00:21:30.000  -2493304.6316  -4655215.2926   3565497.5927   1   8   0.0008   0.0015   0.0012   0.0008  -0.0011  -0.0008   0.00  114.1
2022/07/04 00:22:00.000  -2493304.6331  -4655215.3004   3565497.5955   2   8   0.0010   0.0018   0.0016   0.0010  -0.0014  -0.0010   0.00    1.6
2022/07/04 00:22:30.000  -2493304.6333  -4655215.3007   3565497.5957   2   9   0.0010   0.0018   0.0016   0.0010  -0.0014  -0.0010   0.00    1.1
2022/07/04 00:23:00.000  -2493304.6335  -4655215.3009   3565497.5959   2   9   0.0010   0.0017   0.0016   0.0010  -0.0014  -0.0010   0.00    1.2
2022/07/04 00:23:30.000  -2493304.6337  -4655215.3012   3565497.5962   2   9   0.0010   0.0017   0.0016   0.0010  -0.0014  -0.0009   0.00    1.3
2022/07/04 00:24:00.000  -2493304.6340  -4655215.3014   3565497.5965   2   9   0.0010   0.0017   0.0016   0.0010  -0.0014  -0.0009   0.00    1.4
2022/07/04 00:24:30.000  -2493304.6342  -4655215.3017   3565497.5969   2   9   0.0010   0.0017   0.0016   0.0010  -0.0014  -0.0009   0.00    1.6
2022/07/04 00:25:00.000  -2493304.6345  -4655215.3022   3565497.5973   2   9   0.0010   0.0017   0.0016   0.0010  -0.0014  -0.0009   0.00    1.8
2022/07/04 00:25:30.000  -2493304.6348  -4655215.3027   3565497.5977   2   9   0.0010   0.0017   0.0016   0.0010  -0.0014  -0.0009   0.00    2.0
2022/07/04 00:26:00.000  -2493304.6351  -4655215.3033   3565497.5982   2   9   0.0010   0.0017   0.0016   0.0010  -0.0013  -0.0009   0.00    1.5
2022/07/04 00:26:30.000  -2493304.6355  -4655215.3039   3565497.5987   2   9   0.0010   0.0017   0.0016   0.0010  -0.0013  -0.0009   0.00    2.1
2022/07/04 00:27:00.000  -2493304.6357  -4655215.3041   3565497.5989   2   8   0.0010   0.0016   0.0016   0.0010  -0.0013  -0.0009   0.00    2.3
2022/07/04 00:27:30.000  -2493304.6359  -4655215.3044   3565497.5990   2   8   0.0010   0.0016   0.0015   0.0010  -0.0013  -0.0009   0.00    1.7
2022/07/04 00:28:00.000  -2493304.6360  -4655215.3046   3565497.5990   2   8   0.0010   0.0016   0.0015   0.0010  -0.0013  -0.0009   0.00    1.8
2022/07/04 00:28:30.000  -2493304.6362  -4655215.3047   3565497.5989   2   8   0.0010   0.0016   0.0015   0.0010  -0.0013  -0.0009   0.00    1.1
2022/07/04 00:29:00.000  -2493304.6363  -4655215.3048   3565497.5988   2   8   0.0010   0.0016   0.0015   0.0010  -0.0013  -0.0009   0.00    2.9
2022/07/04 00:29:30.000  -2493304.6364  -4655215.3048   3565497.5987   2   8   0.0009   0.0016   0.0015   0.0010  -0.0013  -0.0009   0.00    1.6
2022/07/04 00:30:00.000  -2493304.6359  -4655215.3042   3565497.5988   1   8   0.0007   0.0012   0.0011   0.0007  -0.0010  -0.0007   0.00    3.3
2022/07/04 00:30:30.000  -2493304.6365  -4655215.3045   3565497.5981   2   8   0.0009   0.0016   0.0015   0.0010  -0.0013  -0.0009   0.00    2.6
2022/07/04 00:31:00.000  -2493304.6365  -4655215.3043   3565497.5977   2   8   0.0009   0.0016   0.0015   0.0009  -0.0013  -0.0009   0.00    1.1
2022/07/04 00:31:30.000  -2493304.6365  -4655215.3040   3565497.5974   2   8   0.0009   0.0016   0.0015   0.0009  -0.0013  -0.0009   0.00    2.6
2022/07/04 00:32:00.000  -2493304.6371  -4655215.3047   3565497.6001   1   8   0.0007   0.0012   0.0011   0.0007  -0.0009  -0.0007   0.00    3.3
2022/07/04 00:32:30.000  -2493304.6357  -4655215.3037   3565497.5976   1   8   0.0007   0.0012   0.0011   0.0007  -0.0009  -0.0007   0.00    3.5
2022/07/04 00:33:00.000  -2493304.6342  -4655215.3028   3565497.5952   1   8   0.0007   0.0012   0.0011   0.0007  -0.0009  -0.0007   0.00    3.3
2022/07/04 00:33:30.000  -2493304.6364  -4655215.3030   3565497.5962   2   8   0.0009   0.0015   0.0015   0.0009  -0.0012  -0.0009   0.00    2.8
2022/07/04 00:34:00.000  -2493304.6362  -4655215.3026   3565497.5958   2   8   0.0009   0.0015   0.0015   0.0009  -0.0012  -0.0009   0.00    2.2
2022/07/04 00:34:30.000  -2493304.6361  -4655215.3021   3565497.5954   2   8   0.0009   0.0015   0.0015   0.0009  -0.0012  -0.0009   0.00    1.5
2022/07/04 00:35:00.000  -2493304.6359  -4655215.3016   3565497.5950   2   8   0.0009   0.0015   0.0015   0.0009  -0.0012  -0.0009   0.00    1.0
2022/07/04 00:35:30.000  -2493304.6351  -4655215.3028   3565497.5970   1   8   0.0007   0.0011   0.0011   0.0007  -0.0009  -0.0007   0.00    3.8
2022/07/04 00:36:00.000  -2493304.6350  -4655215.3026   3565497.5968   1   8   0.0007   0.0011   0.0011   0.0007  -0.0009  -0.0007   0.00    3.9
2022/07/04 00:36:30.000  -2493304.6348  -4655215.3024   3565497.5967   1   8   0.0007   0.0011   0.0011   0.0007  -0.0009  -0.0007   0.00    4.0
2022/07/04 00:37:00.000  -2493304.6347  -4655215.3023   3565497.5966   1   8   0.0007   0.0011   0.0011   0.0006  -0.0009  -0.0007   0.00    4.0
2022/07/04 00:37:30.000  -2493304.6346  -4655215.3023   3565497.5965   1   8   0.0007   0.0011   0.0011   0.0006  -0.0009  -0.0007   0.00    4.0
2022/07/04 00:38:00.000  -2493304.6346  -4655215.3023   3565497.5966   1   8   0.0007   0.0011   0.0011   0.0006  -0.0009  -0.0007   0.00    4.1
2022/07/04 00:38:30.000  -2493304.6347  -4655215.3024   3565497.5967   1   8   0.0007   0.0011   0.0011   0.0006  -0.0009  -0.0007   0.00    4.1
2022/07/04 00:39:00.000  -2493304.6347  -4655215.3026   3565497.5968   1   8   0.0007   0.0011   0.0011   0.0006  -0.0009  -0.0007   0.00    4.2
2022/07/04 00:39:30.000  -2493304.6348  -4655215.3028   3565497.5970   1   8   0.0007   0.0011   0.0011   0.0006  -0.0008  -0.0007   0.00    4.3
2022/07/04 00:40:00.000  -2493304.6349  -4655215.3029   3565497.5970   1   8   0.0007   0.0010   0.0011   0.0006  -0.0008  -0.0007   0.00    4.4
2022/07/04 00:40:30.000  -2493304.6349  -4655215.3030   3565497.5971   1   8   0.0007   0.0010   0.0011   0.0006  -0.0008  -0.0007   0.00    5.8
2022/07/04 00:41:00.000  -2493304.6349  -4655215.3032   3565497.5972   1   8   0.0007   0.0010   0.0011   0.0006  -0.0008  -0.0007   0.00    7.3
2022/07/04 00:41:30.000  -2493304.6349  -4655215.3034   3565497.5974   1   8   0.0007   0.0010   0.0011   0.0006  -0.0008  -0.0007   0.00    8.9
2022/07/04 00:42:00.000  -2493304.6349  -4655215.3036   3565497.5975   1   8   0.0007   0.0010   0.0011   0.0006  -0.0008  -0.0007   0.00   10.6
2022/07/04 00:42:30.000  -2493304.6349  -4655215.3037   3565497.5977   1   8   0.0007   0.0010   0.0011   0.0006  -0.0008  -0.0007   0.00   12.4
2022/07/04 00:43:00.000  -2493304.6348  -4655215.3039   3565497.5978   1   8   0.0007   0.0010   0.0011   0.0006  -0.0008  -0.0007   0.00   14.3
2022/07/04 00:43:30.000  -2493304.6348  -4655215.3041   3565497.5980   1   8   0.0007   0.0010   0.0011   0.0006  -0.0008  -0.0007   0.00   16.2
2022/07/04 00:44:00.000  -2493304.6348  -4655215.3043   3565497.5981   1   8   0.0007   0.0010   0.0011   0.0006  -0.0008  -0.0007   0.00   18.0
2022/07/04 00:44:30.000  -2493304.6346  -4655215.3044   3565497.5982   1   8   0.0007   0.0010   0.0011   0.0006  -0.0008  -0.0007   0.00   19.8
2022/07/04 00:45:00.000  -2493304.6345  -4655215.3046   3565497.5983   1   8   0.0007   0.0010   0.0011   0.0006  -0.0008  -0.0007   0.00   21.6
2022/07/04 00:45:30.000  -2493304.6343  -4655215.3046   3565497.5982   1   8   0.0007   0.0010   0.0011   0.0006  -0.0008  -0.0007   0.00   23.4
2022/07/04 00:46:00.000  -2493304.6342  -4655215.3046   3565497.5982   1   8   0.0007   0.0010   0.0011   0.0006  -0.0008  -0.0007   0.00   25.1
2022/07/04 00:46:30.000  -2493304.6340  -4655215.3043   3565497.5981   1   8   0.0007   0.0010   0.0011   0.0006  -0.0008  -0.0007   0.00   26.8
2022/07/04 00:47:00.000  -2493304.6337  -4655215.3040   3565497.5978   1   8   0.0006   0.0010   0.0010   0.0006  -0.0008  -0.0007   0.00   28.5
2022/07/04 00:47:30.000  -2493304.6315  -4655215.3020   3565497.5958   1   7   0.0007   0.0010   0.0011   0.0006  -0.0008  -0.0007   0.00   33.9
2022/07/04 00:48:00.000  -2493304.6312  -4655215.3016   3565497.5955   1   7   0.0007   0.0010   0.0011   0.0006  -0.0008  -0.0007   0.00   35.7
2022/07/04 00:48:30.000  -2493304.6308  -4655215.3012   3565497.5951   1   7   0.0007   0.0010   0.0011   0.0006  -0.0008  -0.0007   0.00   37.6
2022/07/04 00:49:00.000  -2493304.6303  -4655215.3008   3565497.5947   1   7   0.0007   0.0010   0.0011   0.0006  -0.0008  -0.0007   0.00   39.4
2022/07/04 00:49:30.000  -2493304.6300  -4655215.3004   3565497.5944   1   7   0.0007   0.0010   0.0011   0.0006  -0.0008  -0.0007   0.00   41.4
2022/07/04 00:50:00.000  -2493304.6297  -4655215.3000   3565497.5941   1   7   0.0007   0.0009   0.0010   0.0006  -0.0008  -0.0007   0.00   43.3
2022/07/04 00:50:30.000  -2493304.6293  -4655215.2996   3565497.5938   1   7   0.0007   0.0009   0.0010   0.0006  -0.0008  -0.0007   0.00   45.0
2022/07/04 00:51:00.000  -2493304.6290  -4655215.2992   3565497.5934   1   7   0.0007   0.0009   0.0010   0.0006  -0.0008  -0.0007   0.00   46.5
2022/07/04 00:51:30.000  -2493304.6288  -4655215.2989   3565497.5930   1   7   0.0007   0.0009   0.0010   0.0006  -0.0008  -0.0007   0.00   47.7
2022/07/04 00:52:00.000  -2493304.6285  -4655215.2985   3565497.5927   1   7   0.0007   0.0009   0.0010   0.0006  -0.0008  -0.0007   0.00   49.1
2022/07/04 00:52:30.000  -2493304.6283  -4655215.2982   3565497.5924   1   7   0.0007   0.0009   0.0010   0.0006  -0.0008  -0.0007   0.00   50.6
2022/07/04 00:53:00.000  -2493304.6281  -4655215.2980   3565497.5922   1   7   0.0007   0.0009   0.0010   0.0006  -0.0008  -0.0007   0.00   51.8
2022/07/04 00:53:30.000  -2493304.6279  -4655215.2978   3565497.5920   1   7   0.0007   0.0009   0.0010   0.0006  -0.0008  -0.0007   0.00   52.9
2022/07/04 00:54:00.000  -2493304.6277  -4655215.2975   3565497.5919   1   7   0.0007   0.0009   0.0010   0.0006  -0.0008  -0.0007   0.00   54.1
2022/07/04 00:54:30.000  -2493304.6275  -4655215.2973   3565497.5917   1   7   0.0006   0.0009   0.0010   0.0006  -0.0008  -0.0007   0.00   55.0
2022/07/04 00:55:00.000  -2493304.6273  -4655215.2972   3565497.5915   1   7   0.0006   0.0009   0.0010   0.0006  -0.0007  -0.0007   0.00   56.1
2022/07/04 00:55:30.000  -2493304.6271  -4655215.2970   3565497.5914   1   7   0.0006   0.0009   0.0010   0.0006  -0.0007  -0.0007   0.00   57.3
2022/07/04 00:56:00.000  -2493304.6269  -4655215.2968   3565497.5911   1   7   0.0006   0.0009   0.0010   0.0006  -0.0007  -0.0007   0.00   58.1
2022/07/04 00:56:30.000  -2493304.6267  -4655215.2966   3565497.5910   1   7   0.0006   0.0009   0.0010   0.0006  -0.0007  -0.0007   0.00   59.5
2022/07/04 00:57:00.000  -2493304.6265  -4655215.2965   3565497.5907   1   7   0.0006   0.0009   0.0010   0.0006  -0.0007  -0.0007   0.00   60.6
2022/07/04 00:57:30.000  -2493304.6262  -4655215.2963   3565497.5904   1   7   0.0006   0.0009   0.0010   0.0006  -0.0007  -0.0006   0.00   61.4
2022/07/04 00:58:00.000  -2493304.6259  -4655215.2961   3565497.5901   1   7   0.0006   0.0009   0.0010   0.0006  -0.0007  -0.0006   0.00   62.3
2022/07/04 00:58:30.000  -2493304.6257  -4655215.2959   3565497.5898   1   7   0.0006   0.0009   0.0010   0.0006  -0.0007  -0.0006   0.00   63.4
2022/07/04 00:59:00.000  -2493304.6254  -4655215.2957   3565497.5895   1   7   0.0006   0.0009   0.0010   0.0006  -0.0007  -0.0006   0.00   65.0
2022/07/04 00:59:30.000  -2493304.6252  -4655215.2956   3565497.5893   1   7   0.0006   0.0009   0.0010   0.0006  -0.0007  -0.0006   0.00   66.2
2022/07/04 01:00:00.000  -2493304.6249  -4655215.2954   3565497.5890   1   7   0.0006   0.0009   0.0010   0.0006  -0.0007  -0.0006   0.00   67.7
2022/07/04 01:00:30.000  -2493304.6247  -4655215.2952   3565497.5886   1   7   0.0006   0.0009   0.0010   0.0006  -0.0007  -0.0006   0.00   69.1
2022/07/04 01:01:00.000  -2493304.6244  -4655215.2950   3565497.5883   1   7   0.0006   0.0009   0.0010   0.0006  -0.0007  -0.0006   0.00   70.3
2022/07/04 01:01:30.000  -2493304.6242  -4655215.2948   3565497.5879   1   7   0.0006   0.0009   0.0010   0.0006  -0.0007  -0.0006   0.00   71.2
2022/07/04 01:02:00.000  -2493304.6239  -4655215.2946   3565497.5875   1   7   0.0006   0.0008   0.0010   0.0005  -0.0007  -0.0006   0.00   72.0
2022/07/04 01:02:30.000  -2493304.6236  -4655215.2943   3565497.5871   1   7   0.0006   0.0008   0.0010   0.0005  -0.0007  -0.0006   0.00   72.9
2022/07/04 01:03:00.000  -2493304.6233  -4655215.2940   3565497.5867   1   7   0.0006   0.0008   0.0010   0.0005  -0.0007  -0.0006   0.00   73.6
2022/07/04 01:03:30.000  -2493304.6268  -4655215.2969   3565497.5879   2   8   0.0007   0.0010   0.0011   0.0006  -0.0008  -0.0007   0.00    1.2
2022/07/04 01:04:00.000  -2493304.6266  -4655215.2967   3565497.5875   2   8   0.0007   0.0009   0.0011   0.0006  -0.0008  -0.0007   0.00    1.4
2022/07/04 01:04:30.000  -2493304.6265  -4655215.2965   3565497.5872   2   8   0.0007   0.0009   0.0011   0.0006  -0.0008  -0.0007   0.00    1.6
2022/07/04 01:05:00.000  -2493304.6263  -4655215.2964   3565497.5869   2   8   0.0007   0.0009   0.0011   0.0006  -0.0008  -0.0007   0.00    1.7
2022/07/04 01:05:30.000  -2493304.6262  -4655215.2962   3565497.5867   2   8   0.0007   0.0009   0.0011   0.0006  -0.0008  -0.0007   0.00    1.9
2022/07/04 01:06:00.000  -2493304.6261  -4655215.2961   3565497.5864   2   8   0.0007   0.0009   0.0010   0.0006  -0.0008  -0.0007   0.00    2.1
2022/07/04 01:06:30.000  -2493304.6260  -4655215.2959   3565497.5862   2   8   0.0007   0.0009   0.0010   0.0006  -0.0008  -0.0006   0.00    2.2
2022/07/04 01:07:00.000  -2493304.6259  -4655215.2958   3565497.5859   2   8   0.0007   0.0009   0.0010   0.0006  -0.0008  -0.0006   0.00    2.4
2022/07/04 01:07:30.000  -2493304.6258  -4655215.2957   3565497.5857   2   8   0.0007   0.0009   0.0010   0.0006  -0.0008  -0.0006   0.00    2.5
2022/07/04 01:08:00.000  -2493304.6257  -4655215.2955   3565497.5855   2   8   0.0007   0.0009   0.0010   0.0006  -0.0008  -0.0006   0.00    2.7
2022/07/04 01:08:30.000  -2493304.6256  -4655215.2954   3565497.5853   2   8   0.0007   0.0009   0.0010   0.0006  -0.0007  -0.0006   0.00    2.8
2022/07/04 01:09:00.000  -2493304.6217  -4655215.2922   3565497.5834   1   7   0.0006   0.0008   0.0009   0.0005  -0.0006  -0.0006   0.00    4.4
2022/07/04 01:09:30.000  -2493304.6215  -4655215.2921   3565497.5832   1   7   0.0006   0.0008   0.0009   0.0005  -0.0006  -0.0006   0.00    4.6
2022/07/04 01:10:00.000  -2493304.6214  -4655215.2921   3565497.5830   1   7   0.0006   0.0008   0.0009   0.0005  -0.0006  -0.0006   0.00    4.9
2022/07/04 01:10:30.000  -2493304.6213  -4655215.2920   3565497.5829   1   7   0.0006   0.0008   0.0009   0.0005  -0.0006  -0.0006   0.00    5.1
2022/07/04 01:11:00.000  -2493304.6212  -4655215.2920   3565497.5828   1   7   0.0006   0.0008   0.0009   0.0005  -0.0006  -0.0006   0.00    5.3
2022/07/04 01:11:30.000  -2493304.6211  -4655215.2920   3565497.5828   1   7   0.0006   0.0008   0.0009   0.0005  -0.0006  -0.0006   0.00    5.5
2022/07/04 01:12:00.000  -2493304.6249  -4655215.2949   3565497.5842   2   8   0.0006   0.0009   0.0010   0.0006  -0.0007  -0.0006   0.00    1.2
2022/07/04 01:12:30.000  -2493304.6248  -4655215.2949   3565497.5841   2   8   0.0006   0.0009   0.0010   0.0006  -0.0007  -0.0006   0.00    1.4
2022/07/04 01:13:00.000  -2493304.6247  -4655215.2948   3565497.5840   2   8   0.0006   0.0009   0.0010   0.0006  -0.0007  -0.0006   0.00    1.6
2022/07/04 01:13:30.000  -2493304.6246  -4655215.2948   3565497.5839   2   8   0.0006   0.0009   0.0010   0.0006  -0.0007  -0.0006   0.00    1.8
2022/07/04 01:14:00.000  -2493304.6246  -4655215.2947   3565497.5839   2   8   0.0006   0.0009   0.0010   0.0006  -0.0007  -0.0006   0.00    2.0
2022/07/04 01:14:30.000  -2493304.6245  -4655215.2947   3565497.5838   2   8   0.0006   0.0009   0.0010   0.0006  -0.0007  -0.0006   0.00    2.2
2022/07/04 01:15:00.000  -2493304.6245  -4655215.2946   3565497.5838   2   8   0.0006   0.0009   0.0010   0.0006  -0.0007  -0.0006   0.00    2.4
2022/07/04 01:15:30.000  -2493304.6245  -4655215.2945   3565497.5837   2   8   0.0006   0.0009   0.0010   0.0006  -0.0007  -0.0006   0.00    2.6
2022/07/04 01:16:00.000  -2493304.6245  -4655215.2944   3565497.5837   2   8   0.0006   0.0009   0.0010   0.0006  -0.0007  -0.0006   0.00    2.8
2022/07/04 01:16:30.000  -2493304.6244  -4655215.2942   3565497.5836   2   8   0.0006   0.0009   0.0010   0.0006  -0.0007  -0.0006   0.00    3.0
2022/07/04 01:17:00.000  -2493304.6202  -4655215.2906   3565497.5821   1   8   0.0006   0.0008   0.0008   0.0005  -0.0006  -0.0005   0.00    3.2
2022/07/04 01:17:30.000  -2493304.6202  -4655215.2905   3565497.5822   1   8   0.0006   0.0008   0.0008   0.0005  -0.0006  -0.0005   0.00    3.3
2022/07/04 01:18:00.000  -2493304.6203  -4655215.2905   3565497.5824   1   8   0.0005   0.0008   0.0008   0.0005  -0.0006  -0.0005   0.00    3.4
2022/07/04 01:18:30.000  -2493304.6203  -4655215.2904   3565497.5825   1   8   0.0005   0.0008   0.0008   0.0005  -0.0006  -0.0005   0.00    3.6
2022/07/04 01:19:00.000  -2493304.6203  -4655215.2903   3565497.5825   1   8   0.0005   0.0007   0.0008   0.0005  -0.0006  -0.0005   0.00    3.7
2022/07/04 01:19:30.000  -2493304.6202  -4655215.2903   3565497.5825   1   8   0.0005   0.0007   0.0008   0.0005  -0.0006  -0.0005   0.00    3.8
2022/07/04 01:20:00.000  -2493304.6202  -4655215.2902   3565497.5825   1   8   0.0005   0.0007   0.0008   0.0005  -0.0006  -0.0005   0.00    3.9
2022/07/04 01:20:30.000  -2493304.6201  -4655215.2901   3565497.5824   1   8   0.0005   0.0007   0.0008   0.0005  -0.0006  -0.0005   0.00    4.0
2022/07/04 01:21:00.000  -2493304.6200  -4655215.2900   3565497.5823   1   8   0.0005   0.0007   0.0008   0.0005  -0.0005  -0.0005   0.00    4.1
2022/07/04 01:21:30.000  -2493304.6200  -4655215.2899   3565497.5821   1   8   0.0005   0.0007   0.0008   0.0005  -0.0005  -0.0005   0.00    4.2
2022/07/04 01:22:00.000  -2493304.6199  -4655215.2897   3565497.5820   1   8   0.0005   0.0007   0.0008   0.0005  -0.0005  -0.0005   0.00    5.5
2022/07/04 01:22:30.000  -2493304.6198  -4655215.2896   3565497.5819   1   8   0.0005   0.0007   0.0008   0.0005  -0.0005  -0.0005   0.00    6.8
2022/07/04 01:23:00.000  -2493304.6197  -4655215.2895   3565497.5818   1   8   0.0005   0.0007   0.0008   0.0005  -0.0005  -0.0005   0.00    8.2
2022/07/04 01:23:30.000  -2493304.6196  -4655215.2893   3565497.5817   1   8   0.0005   0.0007   0.0008   0.0005  -0.0005  -0.0005   0.00    9.7
2022/07/04 01:24:00.000  -2493304.6195  -4655215.2892   3565497.5816   1   8   0.0005   0.0007   0.0008   0.0005  -0.0005  -0.0005   0.00   11.2
2022/07/04 01:24:30.000  -2493304.6194  -4655215.2890   3565497.5815   1   8   0.0005   0.0007   0.0007   0.0005  -0.0005  -0.0005   0.00   12.7
2022/07/04 01:25:00.000  -2493304.6194  -4655215.2889   3565497.5815   1   8   0.0005   0.0007   0.0007   0.0005  -0.0005  -0.0005   0.00   14.3
2022/07/04 01:25:30.000  -2493304.6193  -4655215.2887   3565497.5815   1   8   0.0005   0.0007   0.0007   0.0005  -0.0005  -0.0005   0.00   15.8
2022/07/04 01:26:00.000  -2493304.6193  -4655215.2886   3565497.5816   1   8   0.0005   0.0007   0.0007   0.0005  -0.0005  -0.0005   0.00   17.4
2022/07/04 01:26:30.000  -2493304.6193  -4655215.2885   3565497.5817   1   8   0.0005   0.0007   0.0007   0.0005  -0.0005  -0.0005   0.00   19.1
2022/07/04 01:27:00.000  -2493304.6192  -4655215.2884   3565497.5817   1   8   0.0005   0.0007   0.0007   0.0005  -0.0005  -0.0005   0.00   20.9
2022/07/04 01:27:30.000  -2493304.6192  -4655215.2883   3565497.5819   1   8   0.0005   0.0007   0.0007   0.0005  -0.0005  -0.0005   0.00   22.7
2022/07/04 01:28:00.000  -2493304.6192  -4655215.2883   3565497.5820   1   8   0.0005   0.0007   0.0007   0.0005  -0.0005  -0.0005   0.00   24.6
2022/07/04 01:28:30.000  -2493304.6192  -4655215.2882   3565497.5821   1   8   0.0005   0.0007   0.0007   0.0005  -0.0005  -0.0004   0.00   26.4
2022/07/04 01:29:00.000  -2493304.6191  -4655215.2882   3565497.5821   1   8   0.0005   0.0007   0.0007   0.0005  -0.0005  -0.0004   0.00   28.4
2022/07/04 01:29:30.000  -2493304.6191  -4655215.2882   3565497.5822   1   8   0.0005   0.0007   0.0007   0.0005  -0.0005  -0.0004   0.00   30.6
2022/07/04 01:30:00.000  -2493304.6191  -4655215.2882   3565497.5823   1   8   0.0005   0.0007   0.0007   0.0005  -0.0005  -0.0004   0.00   32.9
2022/07/04 01:30:30.000  -2493304.6191  -4655215.2882   3565497.5824   1   8   0.0005   0.0007   0.0007   0.0005  -0.0005  -0.0004   0.00   35.4
2022/07/04 01:31:00.000  -2493304.6191  -4655215.2883   3565497.5825   1   8   0.0005   0.0007   0.0007   0.0005  -0.0005  -0.0004   0.00   38.0
2022/07/04 01:31:30.000  -2493304.6191  -4655215.2883   3565497.5826   1   8   0.0005   0.0007   0.0007   0.0005  -0.0005  -0.0004   0.00   40.7
2022/07/04 01:32:00.000  -2493304.6190  -4655215.2884   3565497.5827   1   8   0.0005   0.0007   0.0007   0.0004  -0.0005  -0.0004   0.00   43.2
2022/07/04 01:32:30.000  -2493304.6190  -4655215.2885   3565497.5828   1   8   0.0005   0.0007   0.0007   0.0004  -0.0005  -0.0004   0.00   45.9
2022/07/04 01:33:00.000  -2493304.6227  -4655215.2918   3565497.5844   2   9   0.0006   0.0008   0.0008   0.0005  -0.0006  -0.0005   0.00    1.0
2022/07/04 01:33:30.000  -2493304.6227  -4655215.2918   3565497.5845   2   9   0.0006   0.0008   0.0008   0.0005  -0.0006  -0.0005   0.00    1.1
2022/07/04 01:34:00.000  -2493304.6228  -4655215.2919   3565497.5847   2   9   0.0006   0.0008   0.0008   0.0005  -0.0006  -0.0005   0.00    1.1
2022/07/04 01:34:30.000  -2493304.6228  -4655215.2920   3565497.5848   2   9   0.0006   0.0008   0.0008   0.0005  -0.0006  -0.0005   0.00    1.2
2022/07/04 01:35:00.000  -2493304.6228  -4655215.2921   3565497.5849   2   9   0.0006   0.0008   0.0008   0.0005  -0.0006  -0.0005   0.00    1.2
2022/07/04 01:35:30.000  -2493304.6228  -4655215.2921   3565497.5850   2   9   0.0006   0.0008   0.0008   0.0005  -0.0006  -0.0005   0.00    1.3
2022/07/04 01:36:00.000  -2493304.6228  -4655215.2922   3565497.5851   2   9   0.0006   0.0008   0.0008   0.0005  -0.0006  -0.0005   0.00    1.4
2022/07/04 01:36:30.000  -2493304.6228  -4655215.2923   3565497.5853   2   9   0.0006   0.0008   0.0008   0.0005  -0.0006  -0.0005   0.00    1.4
2022/07/04 01:37:00.000  -2493304.6229  -4655215.2924   3565497.5854   2   9   0.0006   0.0008   0.0008   0.0005  -0.0006  -0.0005   0.00    1.5
2022/07/04 01:37:30.000  -2493304.6229  -4655215.2925   3565497.5857   2   9   0.0006   0.0008   0.0007   0.0005  -0.0006  -0.0005   0.00    1.6
2022/07/04 01:38:00.000  -2493304.6230  -4655215.2926   3565497.5859   2   9   0.0006   0.0008   0.0007   0.0005  -0.0006  -0.0005   0.00    1.7
2022/07/04 01:38:30.000  -2493304.6231  -4655215.2927   3565497.5861   2   9   0.0006   0.0008   0.0007   0.0005  -0.0005  -0.0005   0.00    1.9
2022/07/04 01:39:00.000  -2493304.6231  -4655215.2929   3565497.5864   2   9   0.0005   0.0008   0.0007   0.0005  -0.0005  -0.0005   0.00    2.0
2022/07/04 01:39:30.000  -2493304.6232  -4655215.2930   3565497.5866   2   9   0.0005   0.0008   0.0007   0.0005  -0.0005  -0.0005   0.00    2.1
2022/07/04 01:40:00.000  -2493304.6233  -4655215.2931   3565497.5869   2   9   0.0005   0.0008   0.0007   0.0005  -0.0005  -0.0005   0.00    2.2
2022/07/04 01:40:30.000  -2493304.6234  -4655215.2933   3565497.5871   2   9   0.0005   0.0008   0.0007   0.0005  -0.0005  -0.0005   0.00    2.4
2022/07/04 01:41:00.000  -2493304.6235  -4655215.2934   3565497.5874   2   9   0.0005   0.0008   0.0007   0.0005  -0.0005  -0.0005   0.00    2.6
2022/07/04 01:41:30.000  -2493304.6236  -4655215.2935   3565497.5877   2   9   0.0005   0.0008   0.0007   0.0005  -0.0005  -0.0005   0.00    2.8
2022/07/04 01:42:00.000  -2493304.6237  -4655215.2937   3565497.5880   2   9   0.0005   0.0008   0.0007   0.0005  -0.0005  -0.0005   0.00    3.0
2022/07/04 01:42:30.000  -2493304.6209  -4655215.2939   3565497.5879   1   9   0.0005   0.0007   0.0006   0.0004  -0.0005  -0.0004   0.00    3.2
2022/07/04 01:43:00.000  -2493304.6210  -4655215.2941   3565497.5883   1   9   0.0005   0.0007   0.0006   0.0004  -0.0004  -0.0004   0.00    3.4
2022/07/04 01:43:30.000  -2493304.6211  -4655215.2943   3565497.5886   1   9   0.0005   0.0007   0.0006   0.0004  -0.0004  -0.0004   0.00    3.6
2022/07/04 01:44:00.000  -2493304.6213  -4655215.2945   3565497.5890   1   9   0.0005   0.0007   0.0006   0.0004  -0.0004  -0.0004   0.00    3.7
2022/07/04 01:44:30.000  -2493304.6214  -4655215.2947   3565497.5893   1   9   0.0005   0.0007   0.0006   0.0004  -0.0004  -0.0004   0.00    3.9
2022/07/04 01:45:00.000  -2493304.6215  -4655215.2949   3565497.5896   1   9   0.0005   0.0007   0.0006   0.0004  -0.0004  -0.0004   0.00    4.2
2022/07/04 01:45:30.000  -2493304.6215  -4655215.2950   3565497.5898   1   9   0.0005   0.0007   0.0006   0.0004  -0.0004  -0.0004   0.00    4.4
2022/07/04 01:46:00.000  -2493304.6216  -4655215.2952   3565497.5901   1   9   0.0005   0.0007   0.0006   0.0004  -0.0004  -0.0004   0.00    4.6
2022/07/04 01:46:30.000  -2493304.6217  -4655215.2953   3565497.5902   1   9   0.0005   0.0007   0.0006   0.0004  -0.0004  -0.0004   0.00    4.7
2022/07/04 01:47:00.000  -2493304.6217  -4655215.2955   3565497.5904   1   9   0.0005   0.0007   0.0006   0.0004  -0.0004  -0.0004   0.00    4.8
2022/07/04 01:47:30.000  -2493304.6218  -4655215.2956   3565497.5905   1   9   0.0005   0.0007   0.0006   0.0004  -0.0004  -0.0004   0.00   18.6
2022/07/04 01:48:00.000  -2493304.6218  -4655215.2957   3565497.5906   1   9   0.0005   0.0007   0.0006   0.0004  -0.0004  -0.0004   0.00   32.9
2022/07/04 01:48:30.000  -2493304.6217  -4655215.2957   3565497.5906   1   8   0.0005   0.0007   0.0006   0.0004  -0.0004  -0.0004   0.00   47.3
2022/07/04 01:49:00.000  -2493304.6216  -4655215.2957   3565497.5906   1   8   0.0005   0.0007   0.0006   0.0004  -0.0004  -0.0004   0.00   57.2
2022/07/04 01:49:30.000  -2493304.6216  -4655215.2958   3565497.5907   1   8   0.0005   0.0007   0.0006   0.0004  -0.0004  -0.0004   0.00   59.0
2022/07/04 01:50:00.000  -2493304.6215  -4655215.2958   3565497.5907   1   8   0.0005   0.0007   0.0006   0.0004  -0.0004  -0.0004   0.00   60.6
2022/07/04 01:50:30.000  -2493304.6215  -4655215.2959   3565497.5907   1   8   0.0005   0.0007   0.0006   0.0004  -0.0004  -0.0004   0.00   62.0
2022/07/04 01:51:00.000  -2493304.6214  -4655215.2959   3565497.5907   1   8   0.0005   0.0007   0.0006   0.0004  -0.0004  -0.0004   0.00   63.3
2022/07/04 01:51:30.000  -2493304.6214  -4655215.2959   3565497.5907   1   8   0.0005   0.0007   0.0006   0.0004  -0.0004  -0.0004   0.00   64.7
2022/07/04 01:52:00.000  -2493304.6213  -4655215.2959   3565497.5907   1   8   0.0005   0.0007   0.0006   0.0004  -0.0004  -0.0004   0.00   66.0
2022/07/04 01:52:30.000  -2493304.6213  -4655215.2959   3565497.5907   1   8   0.0005   0.0007   0.0006   0.0004  -0.0004  -0.0004   0.00   67.6
2022/07/04 01:53:00.000  -2493304.6213  -4655215.2960   3565497.5908   1   8   0.0005   0.0007   0.0006   0.0004  -0.0004  -0.0004   0.00   69.5
2022/07/04 01:53:30.000  -2493304.6213  -4655215.2961   3565497.5908   1   8   0.0005   0.0007   0.0006   0.0004  -0.0004  -0.0004   0.00   71.7
2022/07/04 01:54:00.000  -2493304.6213  -4655215.2962   3565497.5908   1   8   0.0005   0.0007   0.0006   0.0004  -0.0004  -0.0004   0.00   74.4
2022/07/04 01:54:30.000  -2493304.6214  -4655215.2963   3565497.5909   1   8   0.0005   0.0007   0.0006   0.0004  -0.0004  -0.0004   0.00   77.3
2022/07/04 01:55:00.000  -2493304.6214  -4655215.2965   3565497.5910   1   8   0.0005   0.0007   0.0006   0.0004  -0.0004  -0.0004   0.00   80.7
2022/07/04 01:55:30.000  -2493304.6214  -4655215.2963   3565497.5904   1   7   0.0005   0.0007   0.0006   0.0004  -0.0004  -0.0004   0.00   87.2
2022/07/04 01:56:00.000  -2493304.6215  -4655215.2964   3565497.5905   1   7   0.0005   0.0007   0.0006   0.0004  -0.0004  -0.0004   0.00   91.1
2022/07/04 01:56:30.000  -2493304.6215  -4655215.2966   3565497.5905   1   7   0.0005   0.0007   0.0006   0.0004  -0.0004  -0.0004   0.00   95.6
2022/07/04 01:57:00.000  -2493304.6216  -4655215.2968   3565497.5906   1   7   0.0005   0.0007   0.0006   0.0004  -0.0004  -0.0004   0.00  100.6
2022/07/04 01:57:30.000  -2493304.6216  -4655215.2970   3565497.5907   1   7   0.0005   0.0007   0.0006   0.0004  -0.0004  -0.0004   0.00  106.2
2022/07/04 01:58:00.000  -2493304.6217  -4655215.2971   3565497.5908   1   7   0.0005   0.0007   0.0006   0.0004  -0.0004  -0.0004   0.00  112.1
2022/07/04 01:58:30.000  -2493304.6217  -4655215.2973   3565497.5908   1   7   0.0005   0.0007   0.0006   0.0004  -0.0004  -0.0004   0.00  117.9
2022/07/04 01:59:00.000  -2493304.6217  -4655215.2975   3565497.5909   1   7   0.0005   0.0007   0.0006   0.0004  -0.0004  -0.0004   0.00  123.9
2022/07/04 01:59:30.000  -2493304.6218  -4655215.2977   3565497.5910   1   7   0.0005   0.0007   0.0006   0.0004  -0.0004  -0.0004   0.00  129.5
2022/07/04 02:00:00.000  -2493304.6218  -4655215.2979   3565497.5910   1   7   0.0005   0.0007   0.0006   0.0004  -0.0004  -0.0004   0.00  134.7
2022/07/04 02:00:30.000  -2493304.6218  -4655215.2980   3565497.5911   1   7   0.0005   0.0007   0.0006   0.0004  -0.0004  -0.0004   0.00  139.6
2022/07/04 02:01:00.000  -2493304.6218  -4655215.2982   3565497.5912   1   7   0.0005   0.0006   0.0006   0.0004  -0.0004  -0.0004   0.00  144.2
2022/07/04 02:01:30.000  -2493304.6217  -4655215.2983   3565497.5912   1   7   0.0005   0.0006   0.0006   0.0004  -0.0004  -0.0004   0.00  148.3
2022/07/04 02:02:00.000  -2493304.6217  -4655215.2985   3565497.5913   1   7   0.0005   0.0006   0.0006   0.0004  -0.0004  -0.0004   0.00  151.9
2022/07/04 02:02:30.000  -2493304.6217  -4655215.2987   3565497.5913   1   7   0.0005   0.0006   0.0006   0.0004  -0.0004  -0.0004   0.00  155.1
2022/07/04 02:03:00.000  -2493304.6216  -4655215.2988   3565497.5914   1   7   0.0005   0.0006   0.0006   0.0004  -0.0004  -0.0004   0.00  157.9
2022/07/04 02:03:30.000  -2493304.6216  -4655215.2989   3565497.5913   1   7   0.0005   0.0006   0.0006   0.0004  -0.0004  -0.0004   0.00  161.1
2022/07/04 02:04:00.000  -2493304.6215  -4655215.2990   3565497.5913   1   7   0.0005   0.0006   0.0006   0.0004  -0.0004  -0.0004   0.00  164.2
2022/07/04 02:04:30.000  -2493304.6215  -4655215.2991   3565497.5913   1   7   0.0005   0.0006   0.0006   0.0004  -0.0004  -0.0004   0.00  167.6
2022/07/04 02:05:00.000  -2493304.6214  -4655215.2991   3565497.5912   1   7   0.0005   0.0006   0.0006   0.0004  -0.0004  -0.0004   0.00  170.9
2022/07/04 02:05:30.000  -2493304.6214  -4655215.2992   3565497.5912   1   7   0.0005   0.0006   0.0006   0.0004  -0.0004  -0.0004   0.00  174.8
2022/07/04 02:06:00.000  -2493304.6213  -4655215.2992   3565497.5912   1   7   0.0005   0.0006   0.0006   0.0004  -0.0004  -0.0004   0.00  178.0
2022/07/04 02:06:30.000  -2493304.6213  -4655215.2993   3565497.5912   1   7   0.0005   0.0006   0.0006   0.0004  -0.0004  -0.0004   0.00  181.8
2022/07/04 02:07:00.000  -2493304.6212  -4655215.2993   3565497.5911   1   7   0.0005   0.0006   0.0006   0.0004  -0.0004  -0.0004   0.00  185.4
2022/07/04 02:07:30.000  -2493304.6212  -4655215.2994   3565497.5911   1   7   0.0005   0.0006   0.0006   0.0004  -0.0004  -0.0004   0.00  189.3
2022/07/04 02:08:00.000  -2493304.6211  -4655215.2994   3565497.5910   1   7   0.0005   0.0006   0.0006   0.0004  -0.0004  -0.0004   0.00  193.8
2022/07/04 02:08:30.000  -2493304.6211  -4655215.2994   3565497.5910   1   7   0.0005   0.0006   0.0006   0.0004  -0.0004  -0.0004   0.00  198.4
2022/07/04 02:09:00.000  -2493304.6211  -4655215.2994   3565497.5910   1   7   0.0005   0.0006   0.0006   0.0004  -0.0004  -0.0004   0.00  203.0
2022/07/04 02:09:30.000  -2493304.6210  -4655215.2994   3565497.5910   1   7   0.0005   0.0006   0.0006   0.0004  -0.0004  -0.0004   0.00  207.1
2022/07/04 02:10:00.000  -2493304.6210  -4655215.2995   3565497.5909   1   7   0.0005   0.0006   0.0006   0.0004  -0.0004  -0.0004   0.00  210.4
2022/07/04 02:10:30.000  -2493304.6209  -4655215.2995   3565497.5909   1   7   0.0005   0.0006   0.0006   0.0004  -0.0004  -0.0004   0.00  213.0
2022/07/04 02:11:00.000  -2493304.6209  -4655215.2995   3565497.5908   1   7   0.0005   0.0006   0.0006   0.0004  -0.0004  -0.0004   0.00  215.8
2022/07/04 02:11:30.000  -2493304.6208  -4655215.2995   3565497.5908   1   7   0.0005   0.0006   0.0006   0.0004  -0.0004  -0.0004   0.00  217.9
2022/07/04 02:12:00.000  -2493304.6208  -4655215.2995   3565497.5907   1   7   0.0005   0.0006   0.0006   0.0004  -0.0004  -0.0004   0.00  220.4
2022/07/04 02:12:30.000  -2493304.6207  -4655215.2995   3565497.5907   1   7   0.0005   0.0006   0.0006   0.0004  -0.0004  -0.0004   0.00  222.8
2022/07/04 02:13:00.000  -2493304.6207  -4655215.2995   3565497.5906   1   7   0.0005   0.0006   0.0006   0.0004  -0.0004  -0.0004   0.00  225.4
2022/07/04 02:13:30.000  -2493304.6207  -4655215.2996   3565497.5906   1   7   0.0005   0.0006   0.0006   0.0004  -0.0004  -0.0004   0.00  228.5
2022/07/04 02:14:00.000  -2493304.6206  -4655215.2996   3565497.5907   1   7   0.0005   0.0006   0.0006   0.0004  -0.0004  -0.0004   0.00  231.9
2022/07/04 02:14:30.000  -2493304.6206  -4655215.2996   3565497.5907   1   7   0.0005   0.0006   0.0005   0.0004  -0.0004  -0.0004   0.00  235.2
2022/07/04 02:15:00.000  -2493304.6206  -4655215.2996   3565497.5907   1   7   0.0005   0.0006   0.0005   0.0004  -0.0004  -0.0004   0.00  238.8
2022/07/04 02:15:30.000  -2493304.6206  -4655215.2996   3565497.5908   1   7   0.0005   0.0006   0.0005   0.0004  -0.0004  -0.0004   0.00  242.3
2022/07/04 02:16:00.000  -2493304.6206  -4655215.2996   3565497.5908   1   7   0.0005   0.0006   0.0005   0.0004  -0.0004  -0.0004   0.00  245.3
2022/07/04 02:16:30.000  -2493304.6206  -4655215.2996   3565497.5909   1   7   0.0005   0.0006   0.0005   0.0004  -0.0004  -0.0004   0.00  249.4
2022/07/04 02:17:00.000  -2493304.6206  -4655215.2996   3565497.5910   1   7   0.0005   0.0006   0.0005   0.0004  -0.0004  -0.0004   0.00  253.1
2022/07/04 02:17:30.000  -2493304.6206  -4655215.2996   3565497.5911   1   7   0.0005   0.0006   0.0005   0.0004  -0.0004  -0.0004   0.00  258.3
2022/07/04 02:18:00.000  -2493304.6206  -4655215.2996   3565497.5911   1   7   0.0005   0.0006   0.0005   0.0004  -0.0004  -0.0004   0.00  265.5
2022/07/04 02:18:30.000  -2493304.6206  -4655215.2996   3565497.5912   1   7   0.0005   0.0006   0.0005   0.0004  -0.0004  -0.0004   0.00  275.2
2022/07/04 02:19:00.000  -2493304.6207  -4655215.2997   3565497.5913   1   7   0.0005   0.0006   0.0005   0.0004  -0.0004  -0.0004   0.00  284.9
2022/07/04 02:19:30.000  -2493304.6207  -4655215.2997   3565497.5914   1   7   0.0005   0.0006   0.0005   0.0004  -0.0004  -0.0004   0.00  293.6
2022/07/04 02:20:00.000  -2493304.6207  -4655215.2997   3565497.5914   1   7   0.0005   0.0006   0.0005   0.0004  -0.0004  -0.0004   0.00  300.5
2022/07/04 02:20:30.000  -2493304.6207  -4655215.2997   3565497.5914   1   7   0.0005   0.0006   0.0005   0.0004  -0.0004  -0.0004   0.00  308.2
2022/07/04 02:21:00.000  -2493304.6207  -4655215.2996   3565497.5914   1   7   0.0005   0.0006   0.0005   0.0004  -0.0004  -0.0003   0.00  315.1
2022/07/04 02:21:30.000  -2493304.6207  -4655215.2995   3565497.5914   1   7   0.0005   0.0006   0.0005   0.0004  -0.0004  -0.0003   0.00  321.2
2022/07/04 02:22:00.000  -2493304.6207  -4655215.2994   3565497.5913   1   7   0.0005   0.0006   0.0005   0.0004  -0.0004  -0.0003   0.00  326.7
2022/07/04 02:22:30.000  -2493304.6207  -4655215.2993   3565497.5912   1   7   0.0005   0.0006   0.0005   0.0004  -0.0004  -0.0003   0.00  332.8
2022/07/04 02:23:00.000  -2493304.6207  -4655215.2992   3565497.5912   1   7   0.0005   0.0006   0.0005   0.0004  -0.0004  -0.0003   0.00  340.9
2022/07/04 02:23:30.000  -2493304.6206  -4655215.2991   3565497.5911   1   7   0.0005   0.0006   0.0005   0.0004  -0.0004  -0.0003   0.00  347.8
2022/07/04 02:24:00.000  -2493304.6206  -4655215.2990   3565497.5910   1   7   0.0005   0.0006   0.0005   0.0004  -0.0004  -0.0003   0.00  352.0
2022/07/04 02:24:30.000  -2493304.6206  -4655215.2989   3565497.5909   1   7   0.0005   0.0006   0.0005   0.0004  -0.0004  -0.0003   0.00  352.1
2022/07/04 02:25:00.000  -2493304.6205  -4655215.2988   3565497.5908   1   7   0.0005   0.0006   0.0005   0.0004  -0.0004  -0.0003   0.00  352.1
2022/07/04 02:25:30.000  -2493304.6205  -4655215.2989   3565497.5909   1   6   0.0005   0.0006   0.0005   0.0004  -0.0004  -0.0003   0.00  375.2
2022/07/04 02:26:00.000  -2493304.6204  -4655215.2988   3565497.5909   1   6   0.0005   0.0006   0.0005   0.0004  -0.0004  -0.0003   0.00  377.3
2022/07/04 02:26:30.000  -2493304.6204  -4655215.2988   3565497.5909   1   6   0.0004   0.0006   0.0005   0.0004  -0.0004  -0.0003   0.00  378.6
2022/07/04 02:27:00.000  -2493304.6203  -4655215.2988   3565497.5909   1   6   0.0004   0.0006   0.0005   0.0004  -0.0004  -0.0003   0.00  379.2
2022/07/04 02:27:30.000  -2493304.6203  -4655215.2987   3565497.5909   1   6   0.0004   0.0006   0.0005   0.0004  -0.0004  -0.0003   0.00  378.8
2022/07/04 02:28:00.000  -2493304.6202  -4655215.2987   3565497.5909   1   6   0.0004   0.0006   0.0005   0.0004  -0.0004  -0.0003   0.00  378.7
2022/07/04 02:28:30.000  -2493304.6202  -4655215.2987   3565497.5909   1   6   0.0004   0.0006   0.0005   0.0004  -0.0004  -0.0003   0.00  380.2
2022/07/04 02:29:00.000  -2493304.6202  -4655215.2987   3565497.5910   1   6   0.0004   0.0006   0.0005   0.0004  -0.0004  -0.0003   0.00  381.7
2022/07/04 02:29:30.000  -2493304.6202  -4655215.2987   3565497.5910   1   6   0.0004   0.0006   0.0005   0.0004  -0.0004  -0.0003   0.00  383.9
2022/07/04 02:30:00.000  -2493304.6202  -4655215.2987   3565497.5911   1   6   0.0004   0.0006   0.0005   0.0004  -0.0004  -0.0003   0.00  387.0
2022/07/04 02:30:30.000  -2493304.6202  -4655215.2987   3565497.5912   1   6   0.0004   0.0006   0.0005   0.0004  -0.0004  -0.0003   0.00  390.3
2022/07/04 02:31:00.000  -2493304.6202  -4655215.2987   3565497.5913   1   6   0.0004   0.0006   0.0005   0.0004  -0.0004  -0.0003   0.00  391.1
2022/07/04 02:31:30.000  -2493304.6202  -4655215.2988   3565497.5915   1   6   0.0004   0.0006   0.0005   0.0004  -0.0004  -0.0003   0.00  391.3
2022/07/04 02:32:00.000  -2493304.6203  -4655215.2988   3565497.5916   1   6   0.0004   0.0006   0.0005   0.0004  -0.0004  -0.0003   0.00  389.4
2022/07/04 02:32:30.000  -2493304.6203  -4655215.2989   3565497.5918   1   6   0.0004   0.0006   0.0005   0.0004  -0.0004  -0.0003   0.00  382.5
2022/07/04 02:33:00.000  -2493304.6203  -4655215.2989   3565497.5919   1   6   0.0004   0.0006   0.0005   0.0004  -0.0004  -0.0003   0.00  371.4
2022/07/04 02:33:30.000  -2493304.6203  -4655215.2989   3565497.5921   1   6   0.0004   0.0006   0.0005   0.0004  -0.0004  -0.0003   0.00  359.6
2022/07/04 02:34:00.000  -2493304.6203  -4655215.2989   3565497.5922   1   6   0.0004   0.0006   0.0005   0.0004  -0.0004  -0.0003   0.00  345.7
2022/07/04 02:34:30.000  -2493304.6204  -4655215.2989   3565497.5924   1   6   0.0004   0.0006   0.0005   0.0004  -0.0004  -0.0003   0.00  332.6
2022/07/04 02:35:00.000  -2493304.6204  -4655215.2989   3565497.5925   1   6   0.0004   0.0006   0.0005   0.0004  -0.0004  -0.0003   0.00  320.1
2022/07/04 02:35:30.000  -2493304.6204  -4655215.2989   3565497.5927   1   6   0.0004   0.0006   0.0005   0.0004  -0.0004  -0.0003   0.00  310.5
2022/07/04 02:36:00.000  -2493304.6204  -4655215.2990   3565497.5928   1   6   0.0004   0.0006   0.0005   0.0004  -0.0004  -0.0003   0.00  304.0
2022/07/04 02:36:30.000  -2493304.6205  -4655215.2990   3565497.5930   1   6   0.0004   0.0006   0.0005   0.0004  -0.0004  -0.0003   0.00  297.6
2022/07/04 02:37:00.000  -2493304.6205  -4655215.2990   3565497.5931   1   6   0.0004   0.0006   0.0005   0.0004  -0.0004  -0.0003   0.00  292.5
2022/07/04 02:37:30.000  -2493304.6206  -4655215.2990   3565497.5932   1   6   0.0004   0.0006   0.0005   0.0004  -0.0004  -0.0003   0.00  289.8
2022/07/04 02:38:00.000  -2493304.6207  -4655215.2990   3565497.5933   1   6   0.0004   0.0006   0.0005   0.0004  -0.0004  -0.0003   0.00  287.5
2022/07/04 02:38:30.000  -2493304.6207  -4655215.2990   3565497.5935   1   6   0.0004   0.0006   0.0005   0.0004  -0.0004  -0.0003   0.00  283.8
2022/07/04 02:39:00.000  -2493304.6208  -4655215.2990   3565497.5936   1   6   0.0004   0.0006   0.0005   0.0004  -0.0004  -0.0003   0.00  281.2
2022/07/04 02:39:30.000  -2493304.6209  -4655215.2989   3565497.5937   1   6   0.0004   0.0006   0.0005   0.0004  -0.0004  -0.0003   0.00  279.8
2022/07/04 02:40:00.000  -2493304.6210  -4655215.2989   3565497.5939   1   6   0.0004   0.0006   0.0005   0.0004  -0.0004  -0.0003   0.00  278.3
2022/07/04 02:40:30.000  -2493304.6214  -4655215.2989   3565497.5929   2   7   0.0004   0.0006   0.0005   0.0004  -0.0004  -0.0003   0.00    1.4
2022/07/04 02:41:00.000  -2493304.6214  -4655215.2989   3565497.5930   2   7   0.0004   0.0006   0.0005   0.0004  -0.0004  -0.0003   0.00    1.8
2022/07/04 02:41:30.000  -2493304.6215  -4655215.2989   3565497.5930   2   7   0.0004   0.0006   0.0005   0.0004  -0.0004  -0.0003   0.00    2.1
2022/07/04 02:42:00.000  -2493304.6215  -4655215.2989   3565497.5931   2   7   0.0004   0.0006   0.0005   0.0004  -0.0004  -0.0003   0.00    2.4
2022/07/04 02:42:30.000  -2493304.6216  -4655215.2990   3565497.5932   2   7   0.0004   0.0006   0.0005   0.0004  -0.0004  -0.0003   0.00    2.7
2022/07/04 02:43:00.000  -2493304.6216  -4655215.2990   3565497.5933   2   7   0.0004   0.0006   0.0005   0.0004  -0.0004  -0.0003   0.00    3.0
2022/07/04 02:43:30.000  -2493304.6216  -4655215.2994   3565497.5949   1   7   0.0004   0.0006   0.0005   0.0004  -0.0004  -0.0003   0.00    3.3
2022/07/04 02:44:00.000  -2493304.6217  -4655215.2994   3565497.5950   1   7   0.0004   0.0006   0.0005   0.0004  -0.0004  -0.0003   0.00    3.5
2022/07/04 02:44:30.000  -2493304.6218  -4655215.2995   3565497.5952   1   7   0.0004   0.0006   0.0005   0.0004  -0.0004  -0.0003   0.00    3.7
2022/07/04 02:45:00.000  -2493304.6219  -4655215.2996   3565497.5953   1   7   0.0004   0.0006   0.0005   0.0004  -0.0004  -0.0003   0.00    4.0
2022/07/04 02:45:30.000  -2493304.6220  -4655215.2997   3565497.5955   1   7   0.0004   0.0006   0.0005   0.0004  -0.0004  -0.0003   0.00    4.2
2022/07/04 02:46:00.000  -2493304.6220  -4655215.2998   3565497.5956   1   7   0.0004   0.0006   0.0005   0.0004  -0.0004  -0.0003   0.00    4.4
2022/07/04 02:46:30.000  -2493304.6221  -4655215.2999   3565497.5957   1   7   0.0004   0.0006   0.0005   0.0004  -0.0004  -0.0003   0.00    4.6
2022/07/04 02:47:00.000  -2493304.6222  -4655215.2999   3565497.5959   1   7   0.0004   0.0006   0.0005   0.0004  -0.0004  -0.0003   0.00    4.8
2022/07/04 02:47:30.000  -2493304.6222  -4655215.3000   3565497.5960   1   7   0.0004   0.0006   0.0005   0.0004  -0.0004  -0.0003   0.00    5.0
2022/07/04 02:48:00.000  -2493304.6223  -4655215.3001   3565497.5962   1   7   0.0004   0.0006   0.0005   0.0004  -0.0004  -0.0003   0.00    5.2
2022/07/04 02:48:30.000  -2493304.6223  -4655215.3001   3565497.5963   1   7   0.0004   0.0006   0.0005   0.0004  -0.0004  -0.0003   0.00    8.2
2022/07/04 02:49:00.000  -2493304.6223  -4655215.3002   3565497.5964   1   7   0.0004   0.0006   0.0005   0.0004  -0.0004  -0.0003   0.00   11.1
2022/07/04 02:49:30.000  -2493304.6224  -4655215.3002   3565497.5966   1   7   0.0004   0.0006   0.0005   0.0004  -0.0004  -0.0003   0.00   13.9
2022/07/04 02:50:00.000  -2493304.6224  -4655215.3002   3565497.5967   1   7   0.0004   0.0006   0.0005   0.0004  -0.0004  -0.0003   0.00   16.4
2022/07/04 02:50:30.000  -2493304.6224  -4655215.3002   3565497.5969   1   7   0.0004   0.0006   0.0005   0.0004  -0.0004  -0.0003   0.00   18.8
2022/07/04 02:51:00.000  -2493304.6224  -4655215.3002   3565497.5970   1   7   0.0004   0.0006   0.0005   0.0004  -0.0004  -0.0003   0.00   21.0
2022/07/04 02:51:30.000  -2493304.6224  -4655215.3002   3565497.5971   1   7   0.0004   0.0006   0.0005   0.0004  -0.0004  -0.0003   0.00   22.9
2022/07/04 02:52:00.000  -2493304.6224  -4655215.3002   3565497.5973   1   7   0.0004   0.0006   0.0005   0.0004  -0.0004  -0.0003   0.00   24.5
2022/07/04 02:52:30.000  -2493304.6225  -4655215.3002   3565497.5975   1   7   0.0004   0.0006   0.0005   0.0004  -0.0004  -0.0003   0.00   25.9
2022/07/04 02:53:00.000  -2493304.6225  -4655215.3003   3565497.5977   1   7   0.0004   0.0006   0.0005   0.0004  -0.0004  -0.0003   0.00   27.2
2022/07/04 02:53:30.000  -2493304.6226  -4655215.3003   3565497.5979   1   7   0.0004   0.0006   0.0005   0.0004  -0.0004  -0.0003   0.00   28.5
2022/07/04 02:54:00.000  -2493304.6226  -4655215.3003   3565497.5980   1   7   0.0004   0.0006   0.0005   0.0004  -0.0004  -0.0003   0.00   29.8
2022/07/04 02:54:30.000  -2493304.6227  -4655215.3003   3565497.5982   1   7   0.0004   0.0006   0.0005   0.0004  -0.0004  -0.0003   0.00   31.0
2022/07/04 02:55:00.000  -2493304.6227  -4655215.3003   3565497.5984   1   7   0.0004   0.0006   0.0005   0.0004  -0.0004  -0.0003   0.00   32.3
2022/07/04 02:55:30.000  -2493304.6228  -4655215.3004   3565497.5986   1   7   0.0004   0.0006   0.0005   0.0004  -0.0004  -0.0003   0.00   33.6
2022/07/04 02:56:00.000  -2493304.6229  -4655215.3004   3565497.5987   1   7   0.0004   0.0006   0.0005   0.0004  -0.0004  -0.0003   0.00   34.9
2022/07/04 02:56:30.000  -2493304.6231  -4655215.3005   3565497.5989   1   7   0.0004   0.0006   0.0005   0.0004  -0.0004  -0.0003   0.00   36.0
2022/07/04 02:57:00.000  -2493304.6232  -4655215.3005   3565497.5991   1   7   0.0004   0.0006   0.0005   0.0004  -0.0004  -0.0003   0.00   37.0
2022/07/04 02:57:30.000  -2493304.6233  -4655215.3006   3565497.5993   1   7   0.0004   0.0006   0.0005   0.0004  -0.0004  -0.0003   0.00   38.0
2022/07/04 02:58:00.000  -2493304.6234  -4655215.3007   3565497.5995   1   7   0.0004   0.0006   0.0005   0.0004  -0.0004  -0.0003   0.00   39.1
2022/07/04 02:58:30.000  -2493304.6235  -4655215.3007   3565497.5997   1   7   0.0004   0.0006   0.0005   0.0004  -0.0004  -0.0003   0.00   40.1
2022/07/04 02:59:00.000  -2493304.6237  -4655215.3008   3565497.5999   1   7   0.0004   0.0006   0.0005   0.0004  -0.0004  -0.0003   0.00   41.3
2022/07/04 02:59:30.000  -2493304.6238  -4655215.3009   3565497.6001   1   7   0.0004   0.0006   0.0005   0.0004  -0.0004  -0.0003   0.00   42.5
2022/07/04 03:00:00.000  -2493304.6239  -4655215.3009   3565497.6002   1   7   0.0004   0.0006   0.0005   0.0004  -0.0004  -0.0003   0.00   43.7
2022/07/04 03:00:30.000  -2493304.6240  -4655215.3010   3565497.6004   1   7   0.0004   0.0006   0.0005   0.0004  -0.0004  -0.0003   0.00   44.9
2022/07/04 03:01:00.000  -2493304.6242  -4655215.3010   3565497.6006   1   7   0.0004   0.0006   0.0005   0.0004  -0.0004  -0.0003   0.00   46.0
2022/07/04 03:01:30.000  -2493304.6243  -4655215.3011   3565497.6007   1   7   0.0004   0.0006   0.0005   0.0004  -0.0004  -0.0003   0.00   47.3
2022/07/04 03:02:00.000  -2493304.6244  -4655215.3011   3565497.6009   1   7   0.0004   0.0006   0.0005   0.0004  -0.0004  -0.0003   0.00   48.7
2022/07/04 03:02:30.000  -2493304.6246  -4655215.3012   3565497.6010   1   7   0.0004   0.0006   0.0005   0.0004  -0.0004  -0.0003   0.00   49.9
2022/07/04 03:03:00.000  -2493304.6247  -4655215.3012   3565497.6012   1   7   0.0004   0.0006   0.0005   0.0004  -0.0004  -0.0003   0.00   51.2
2022/07/04 03:03:30.000  -2493304.6248  -4655215.3013   3565497.6013   1   7   0.0004   0.0006   0.0005   0.0004  -0.0004  -0.0003   0.00   52.4
2022/07/04 03:04:00.000  -2493304.6249  -4655215.3013   3565497.6014   1   7   0.0004   0.0006   0.0005   0.0004  -0.0004  -0.0003   0.00   53.6
2022/07/04 03:04:30.000  -2493304.6250  -4655215.3013   3565497.6016   1   7   0.0004   0.0006   0.0005   0.0004  -0.0004  -0.0003   0.00   54.7
2022/07/04 03:05:00.000  -2493304.6251  -4655215.3013   3565497.6017   1   7   0.0004   0.0006   0.0005   0.0004  -0.0004  -0.0003   0.00   55.8
2022/07/04 03:05:30.000  -2493304.6252  -4655215.3013   3565497.6018   1   7   0.0004   0.0006   0.0005   0.0004  -0.0004  -0.0003   0.00   57.0
2022/07/04 03:06:00.000  -2493304.6253  -4655215.3013   3565497.6019   1   7   0.0004   0.0006   0.0005   0.0004  -0.0004  -0.0003   0.00   58.4
2022/07/04 03:06:30.000  -2493304.6254  -4655215.3013   3565497.6020   1   7   0.0004   0.0006   0.0005   0.0004  -0.0004  -0.0003   0.00   59.7
2022/07/04 03:07:00.000  -2493304.6255  -4655215.3012   3565497.6021   1   7   0.0004   0.0005   0.0005   0.0004  -0.0004  -0.0003   0.00   60.8
2022/07/04 03:07:30.000  -2493304.6251  -4655215.3010   3565497.6000   2   8   0.0004   0.0006   0.0005   0.0004  -0.0004  -0.0003   0.00    1.2
2022/07/04 03:08:00.000  -2493304.6252  -4655215.3010   3565497.6001   2   8   0.0004   0.0006   0.0005   0.0004  -0.0004  -0.0003   0.00    1.4
2022/07/04 03:08:30.000  -2493304.6252  -4655215.3010   3565497.6001   2   8   0.0004   0.0006   0.0005   0.0004  -0.0004  -0.0003   0.00    1.5
2022/07/04 03:09:00.000  -2493304.6253  -4655215.3010   3565497.6002   2   8   0.0004   0.0006   0.0005   0.0004  -0.0004  -0.0003   0.00    1.6
2022/07/04 03:09:30.000  -2493304.6253  -4655215.3010   3565497.6003   2   8   0.0004   0.0006   0.0005   0.0004  -0.0004  -0.0003   0.00    1.8
2022/07/04 03:10:00.000  -2493304.6254  -4655215.3010   3565497.6004   2   8   0.0004   0.0006   0.0005   0.0004  -0.0004  -0.0003   0.00    1.9
2022/07/04 03:10:30.000  -2493304.6255  -4655215.3010   3565497.6005   2   8   0.0004   0.0006   0.0005   0.0004  -0.0004  -0.0003   0.00    2.0
2022/07/04 03:11:00.000  -2493304.6256  -4655215.3010   3565497.6006   2   8   0.0004   0.0006   0.0005   0.0004  -0.0004  -0.0003   0.00    2.2
2022/07/04 03:11:30.000  -2493304.6256  -4655215.3011   3565497.6007   2   8   0.0004   0.0006   0.0005   0.0004  -0.0004  -0.0003   0.00    2.4
2022/07/04 03:12:00.000  -2493304.6257  -4655215.3011   3565497.6008   2   8   0.0004   0.0006   0.0005   0.0004  -0.0004  -0.0003   0.00    2.5
2022/07/04 03:12:30.000  -2493304.6258  -4655215.3011   3565497.6009   2   8   0.0004   0.0006   0.0005   0.0004  -0.0004  -0.0003   0.00    2.7
2022/07/04 03:13:00.000  -2493304.6259  -4655215.3012   3565497.6009   2   8   0.0004   0.0006   0.0005   0.0004  -0.0004  -0.0003   0.00    2.8
2022/07/04 03:13:30.000  -2493304.6260  -4655215.3012   3565497.6010   2   8   0.0004   0.0006   0.0005   0.0004  -0.0004  -0.0003   0.00    3.0
2022/07/04 03:14:00.000  -2493304.6268  -4655215.3013   3565497.6035   1   8   0.0004   0.0005   0.0005   0.0004  -0.0004  -0.0003   0.00    3.1
2022/07/04 03:14:30.000  -2493304.6269  -4655215.3014   3565497.6036   1   8   0.0004   0.0005   0.0005   0.0004  -0.0004  -0.0003   0.00    3.2
2022/07/04 03:15:00.000  -2493304.6271  -4655215.3015   3565497.6037   1   8   0.0004   0.0005   0.0005   0.0004  -0.0004  -0.0003   0.00    3.4
2022/07/04 03:15:30.000  -2493304.6272  -4655215.3016   3565497.6038   1   8   0.0004   0.0005   0.0005   0.0004  -0.0004  -0.0003   0.00    3.5
2022/07/04 03:16:00.000  -2493304.6274  -4655215.3017   3565497.6040   1   8   0.0004   0.0005   0.0005   0.0004  -0.0004  -0.0003   0.00    3.6
2022/07/04 03:16:30.000  -2493304.6275  -4655215.3018   3565497.6041   1   8   0.0004   0.0005   0.0005   0.0004  -0.0004  -0.0003   0.00    3.7
2022/07/04 03:17:00.000  -2493304.6276  -4655215.3019   3565497.6042   1   8   0.0004   0.0005   0.0005   0.0004  -0.0004  -0.0003   0.00    3.8
2022/07/04 03:17:30.000  -2493304.6277  -4655215.3019   3565497.6043   1   8   0.0004   0.0005   0.0005   0.0004  -0.0004  -0.0003   0.00    3.9
2022/07/04 03:18:00.000  -2493304.6278  -4655215.3020   3565497.6044   1   8   0.0004   0.0005   0.0005   0.0004  -0.0004  -0.0003   0.00    4.0
2022/07/04 03:18:30.000  -2493304.6279  -4655215.3020   3565497.6045   1   8   0.0004   0.0005   0.0005   0.0004  -0.0004  -0.0003   0.00    4.2
2022/07/04 03:19:00.000  -2493304.6279  -4655215.3020   3565497.6045   1   8   0.0004   0.0005   0.0005   0.0004  -0.0004  -0.0003   0.00    5.4
2022/07/04 03:19:30.000  -2493304.6274  -4655215.3016   3565497.6041   1   7   0.0004   0.0005   0.0005   0.0004  -0.0004  -0.0003   0.00    7.4
2022/07/04 03:20:00.000  -2493304.6274  -4655215.3016   3565497.6041   1   7   0.0004   0.0005   0.0005   0.0004  -0.0004  -0.0003   0.00    8.8
2022/07/04 03:20:30.000  -2493304.6273  -4655215.3015   3565497.6041   1   7   0.0004   0.0005   0.0005   0.0004  -0.0004  -0.0003   0.00   10.2
2022/07/04 03:21:00.000  -2493304.6273  -4655215.3014   3565497.6041   1   7   0.0004   0.0005   0.0005   0.0004  -0.0004  -0.0003   0.00   11.6
2022/07/04 03:21:30.000  -2493304.6262  -4655215.3006   3565497.6029   1   7   0.0004   0.0005   0.0005   0.0004  -0.0004  -0.0003   0.00   30.9
