% program   : RTKPOST ver.2.4.3 b34
% inp file  : C:\Users\89231\Documents\Учеба\Диссертация\Данные\Лос-Анджелес 03-05.07.22\05.07.2022\whc11860.22o
% inp file  : C:\Users\89231\Documents\Учеба\Диссертация\Данные\Лос-Анджелес 03-05.07.22\05.07.2022\holp1860.22o
% inp file  : C:\Users\89231\Documents\Учеба\Диссертация\Данные\Лос-Анджелес 03-05.07.22\05.07.2022\jplm1860.22n
% inp file  : C:\Users\89231\Documents\Учеба\Диссертация\Данные\Лос-Анджелес 03-05.07.22\05.07.2022\igs22172.sp3
% obs start : 2022/07/05 00:00:00.0 GPST (week2217 172800.0s)
% obs end   : 2022/07/05 23:59:45.0 GPST (week2217 259185.0s)
% pos mode  : Static
% freqs     : L1+2
% solution  : Forward
% elev mask : 15.0 deg
% dynamics  : off
% tidecorr  : off
% ionos opt : Broadcast
% tropo opt : Saastamoinen
% ephemeris : Precise
% navi sys  : GPS
% amb res   : Fix and Hold
% val thres : 3.0
% antenna1  :                       ( 0.0000  0.0000  0.0000)
% antenna2  :                       ( 0.0000  0.0000  0.1310)
% ref pos   : -2500946.5070  -4670472.6804   3539500.6833
%
% (x/y/z-ecef=WGS84,Q=1:fix,2:float,3:sbas,4:dgps,5:single,6:ppp,ns=# of satellites)
%  GPST                      x-ecef(m)      y-ecef(m)      z-ecef(m)   Q  ns   sdx(m)   sdy(m)   sdz(m)  sdxy(m)  sdyz(m)  sdzx(m) age(s)  ratio
2022/07/05 00:00:00.000  -2488199.5458  -4673486.7482   3544649.2869   2   8   0.5133   0.9875   0.7546   0.5470  -0.7289  -0.4816   0.00    1.8
2022/07/05 00:00:15.000  -2488199.5081  -4673486.6783   3544649.1758   2   8   0.3569   0.6851   0.5136   0.3744  -0.4960  -0.3267   0.00    2.0
2022/07/05 00:00:30.000  -2488199.6255  -4673487.0654   3544649.4464   2   8   0.2826   0.5410   0.3940   0.2896  -0.3803  -0.2490   0.00    1.9
2022/07/05 00:00:45.000  -2488199.6095  -4673487.0972   3544649.4772   2   8   0.2357   0.4500   0.3161   0.2345  -0.3048  -0.1979   0.00    1.8
2022/07/05 00:01:00.000  -2488199.6464  -4673487.1386   3544649.5350   2   8   0.2025   0.3857   0.2599   0.1949  -0.2505  -0.1609   0.00    1.9
2022/07/05 00:01:15.000  -2488199.6493  -4673487.1806   3544649.5344   2   8   0.1775   0.3375   0.2176   0.1647  -0.2096  -0.1329   0.00    1.9
2022/07/05 00:01:30.000  -2488199.6913  -4673487.3226   3544649.6155   2   8   0.1577   0.2998   0.1848   0.1412  -0.1781  -0.1113   0.00    2.0
2022/07/05 00:01:45.000  -2488199.6960  -4673487.3123   3544649.6242   2   8   0.1418   0.2696   0.1590   0.1223  -0.1533  -0.0943   0.00    2.1
2022/07/05 00:02:00.000  -2488199.6807  -4673487.3179   3544649.5962   2   8   0.1286   0.2447   0.1384   0.1068  -0.1336  -0.0807   0.00    2.1
2022/07/05 00:02:15.000  -2488199.6830  -4673487.3162   3544649.5701   2   8   0.1174   0.2239   0.1216   0.0940  -0.1175  -0.0698   0.00    2.2
2022/07/05 00:02:30.000  -2488199.6667  -4673487.2620   3544649.5254   2   8   0.1078   0.2061   0.1078   0.0832  -0.1044  -0.0608   0.00    2.2
2022/07/05 00:02:45.000  -2488199.6577  -4673487.2401   3544649.4939   2   8   0.0995   0.1907   0.0964   0.0741  -0.0935  -0.0534   0.00    2.3
2022/07/05 00:03:00.000  -2488199.6647  -4673487.2348   3544649.4830   2   8   0.0923   0.1772   0.0867   0.0663  -0.0844  -0.0472   0.00    2.4
2022/07/05 00:03:15.000  -2488199.6685  -4673487.2388   3544649.4773   2   8   0.0858   0.1654   0.0786   0.0595  -0.0767  -0.0421   0.00    2.4
2022/07/05 00:03:30.000  -2488199.6639  -4673487.1995   3544649.4644   2   8   0.0801   0.1548   0.0716   0.0536  -0.0700  -0.0377   0.00    2.4
2022/07/05 00:03:45.000  -2488199.6583  -4673487.1629   3544649.4570   2   8   0.0750   0.1453   0.0655   0.0484  -0.0643  -0.0339   0.00    2.4
2022/07/05 00:04:00.000  -2488199.6624  -4673487.1632   3544649.4599   2   8   0.0704   0.1367   0.0603   0.0439  -0.0594  -0.0307   0.00    2.5
2022/07/05 00:04:15.000  -2488199.6579  -4673487.1686   3544649.4562   2   8   0.0662   0.1289   0.0557   0.0399  -0.0550  -0.0279   0.00    2.5
2022/07/05 00:04:30.000  -2488199.6647  -4673487.1857   3544649.4607   2   8   0.0624   0.1219   0.0516   0.0364  -0.0512  -0.0255   0.00    2.6
2022/07/05 00:04:45.000  -2488199.6734  -4673487.1999   3544649.4573   2   8   0.0590   0.1154   0.0480   0.0333  -0.0478  -0.0234   0.00    2.7
2022/07/05 00:05:00.000  -2488199.6812  -4673487.2008   3544649.4567   2   8   0.0558   0.1094   0.0448   0.0305  -0.0447  -0.0215   0.00    2.8
2022/07/05 00:05:15.000  -2488199.6810  -4673487.1886   3544649.4554   2   8   0.0529   0.1040   0.0420   0.0280  -0.0420  -0.0199   0.00    2.9
2022/07/05 00:05:30.000  -2488199.6850  -4673487.1836   3544649.4513   2   8   0.0503   0.0989   0.0394   0.0258  -0.0396  -0.0184   0.00    2.9
2022/07/05 00:05:45.000  -2488199.6860  -4673487.1583   3544649.4488   2   8   0.0478   0.0942   0.0371   0.0238  -0.0374  -0.0172   0.00    2.9
2022/07/05 00:06:00.000  -2488199.6929  -4673487.1514   3544649.4515   2   8   0.0456   0.0899   0.0350   0.0220  -0.0353  -0.0160   0.00    2.9
2022/07/05 00:06:15.000  -2488199.6994  -4673487.1575   3544649.4569   2   8   0.0435   0.0859   0.0331   0.0204  -0.0335  -0.0150   0.00    2.9
2022/07/05 00:06:30.000  -2488199.7082  -4673487.1453   3544649.4635   2   8   0.0415   0.0821   0.0313   0.0189  -0.0318  -0.0140   0.00    2.9
2022/07/05 00:06:45.000  -2488199.7108  -4673487.1356   3544649.4621   2   8   0.0397   0.0786   0.0297   0.0176  -0.0303  -0.0132   0.00    2.9
2022/07/05 00:07:00.000  -2488199.7098  -4673487.1221   3544649.4670   2   8   0.0381   0.0753   0.0283   0.0164  -0.0288  -0.0124   0.00    2.9
2022/07/05 00:07:15.000  -2488199.7083  -4673487.1056   3544649.4657   2   8   0.0365   0.0723   0.0269   0.0153  -0.0275  -0.0117   0.00    2.9
2022/07/05 00:07:30.000  -2488199.7078  -4673487.0831   3544649.4629   2   8   0.0350   0.0694   0.0257   0.0144  -0.0263  -0.0111   0.00    2.9
2022/07/05 00:07:45.000  -2488199.7073  -4673487.0576   3544649.4607   2   8   0.0336   0.0667   0.0245   0.0135  -0.0252  -0.0105   0.00    2.9
2022/07/05 00:08:00.000  -2488199.7049  -4673487.0355   3544649.4609   2   8   0.0324   0.0642   0.0234   0.0127  -0.0241  -0.0100   0.00    2.9
2022/07/05 00:08:15.000  -2488199.7052  -4673487.0213   3544649.4576   2   8   0.0311   0.0618   0.0224   0.0120  -0.0232  -0.0095   0.00    2.9
2022/07/05 00:08:30.000  -2488199.7049  -4673487.0038   3544649.4525   2   8   0.0300   0.0595   0.0215   0.0113  -0.0223  -0.0091   0.00    2.9
2022/07/05 00:08:45.000  -2488199.7060  -4673486.9829   3544649.4490   2   8   0.0289   0.0574   0.0207   0.0107  -0.0214  -0.0087   0.00    2.9
2022/07/05 00:09:00.000  -2488199.7057  -4673486.9692   3544649.4460   2   8   0.0279   0.0554   0.0199   0.0101  -0.0206  -0.0083   0.00    2.9
2022/07/05 00:09:15.000  -2488199.7014  -4673486.9533   3544649.4413   2   8   0.0270   0.0535   0.0191   0.0096  -0.0198  -0.0080   0.00    2.9
2022/07/05 00:09:30.000  -2488199.6967  -4673486.9364   3544649.4366   2   8   0.0261   0.0517   0.0184   0.0091  -0.0191  -0.0076   0.00    2.9
2022/07/05 00:09:45.000  -2488199.6969  -4673486.9275   3544649.4339   2   8   0.0252   0.0500   0.0177   0.0087  -0.0185  -0.0073   0.00    2.9
2022/07/05 00:10:00.000  -2488199.6987  -4673486.9223   3544649.4298   2   8   0.0244   0.0484   0.0171   0.0083  -0.0179  -0.0070   0.00    2.9
2022/07/05 00:10:15.000  -2488199.6986  -4673486.9157   3544649.4286   2   8   0.0237   0.0469   0.0165   0.0080  -0.0173  -0.0068   0.00    2.9
2022/07/05 00:10:30.000  -2488199.6984  -4673486.9105   3544649.4251   2   8   0.0230   0.0455   0.0160   0.0076  -0.0167  -0.0065   0.00    2.9
2022/07/05 00:10:45.000  -2488199.6969  -4673486.9022   3544649.4228   2   8   0.0223   0.0441   0.0154   0.0073  -0.0162  -0.0063   0.00    2.9
2022/07/05 00:11:00.000  -2488199.6996  -4673486.8975   3544649.4206   2   8   0.0216   0.0428   0.0149   0.0070  -0.0157  -0.0061   0.00    2.9
2022/07/05 00:11:15.000  -2488199.7000  -4673486.8996   3544649.4174   2   8   0.0210   0.0415   0.0145   0.0068  -0.0152  -0.0059   0.00    2.9
2022/07/05 00:11:30.000  -2488199.6986  -4673486.8922   3544649.4137   2   8   0.0204   0.0403   0.0140   0.0065  -0.0147  -0.0057   0.00    3.0
2022/07/05 00:11:45.000  -2488199.6974  -4673486.8828   3544649.4101   2   8   0.0198   0.0392   0.0136   0.0063  -0.0143  -0.0055   0.00    3.0
2022/07/05 00:12:00.000  -2488199.6937  -4673486.8749   3544649.4050   2   8   0.0193   0.0381   0.0132   0.0061  -0.0139  -0.0054   0.00    3.0
2022/07/05 00:12:15.000  -2488199.7318  -4673486.9152   3544649.3830   1   8   0.0007   0.0014   0.0011   0.0008  -0.0011  -0.0007   0.00    3.0
2022/07/05 00:12:30.000  -2488199.7317  -4673486.9153   3544649.3832   1   8   0.0007   0.0014   0.0011   0.0008  -0.0010  -0.0007   0.00    3.0
2022/07/05 00:12:45.000  -2488199.7316  -4673486.9154   3544649.3833   1   8   0.0007   0.0014   0.0011   0.0008  -0.0010  -0.0007   0.00    3.0
2022/07/05 00:13:00.000  -2488199.7315  -4673486.9154   3544649.3835   1   8   0.0007   0.0014   0.0011   0.0008  -0.0010  -0.0007   0.00    3.0
2022/07/05 00:13:15.000  -2488199.7313  -4673486.9154   3544649.3835   1   8   0.0007   0.0014   0.0011   0.0008  -0.0010  -0.0007   0.00    3.1
2022/07/05 00:13:30.000  -2488199.7312  -4673486.9155   3544649.3837   1   8   0.0007   0.0014   0.0011   0.0007  -0.0010  -0.0007   0.00    3.1
2022/07/05 00:13:45.000  -2488199.7310  -4673486.9156   3544649.3838   1   8   0.0007   0.0014   0.0011   0.0007  -0.0010  -0.0007   0.00    3.1
2022/07/05 00:14:00.000  -2488199.7309  -4673486.9156   3544649.3839   1   8   0.0007   0.0014   0.0011   0.0007  -0.0010  -0.0007   0.00    3.1
2022/07/05 00:14:15.000  -2488199.7308  -4673486.9158   3544649.3841   1   8   0.0007   0.0013   0.0011   0.0007  -0.0010  -0.0007   0.00    3.1
2022/07/05 00:14:30.000  -2488199.7307  -4673486.9159   3544649.3843   1   8   0.0007   0.0013   0.0011   0.0007  -0.0010  -0.0007   0.00    3.2
2022/07/05 00:14:45.000  -2488199.7306  -4673486.9159   3544649.3845   1   8   0.0007   0.0013   0.0011   0.0007  -0.0010  -0.0007   0.00    5.0
2022/07/05 00:15:00.000  -2488199.7306  -4673486.9159   3544649.3846   1   8   0.0007   0.0013   0.0010   0.0007  -0.0010  -0.0006   0.00    5.6
2022/07/05 00:15:15.000  -2488199.7304  -4673486.9158   3544649.3847   1   8   0.0007   0.0013   0.0010   0.0007  -0.0010  -0.0006   0.00    6.2
2022/07/05 00:15:30.000  -2488199.7303  -4673486.9158   3544649.3849   1   8   0.0007   0.0013   0.0010   0.0007  -0.0010  -0.0006   0.00    6.9
2022/07/05 00:15:45.000  -2488199.7302  -4673486.9157   3544649.3849   1   8   0.0007   0.0013   0.0010   0.0007  -0.0009  -0.0006   0.00    7.5
2022/07/05 00:16:00.000  -2488199.7301  -4673486.9156   3544649.3851   1   8   0.0007   0.0013   0.0010   0.0007  -0.0009  -0.0006   0.00    8.2
2022/07/05 00:16:15.000  -2488199.7300  -4673486.9156   3544649.3853   1   8   0.0007   0.0013   0.0010   0.0007  -0.0009  -0.0006   0.00    8.8
2022/07/05 00:16:30.000  -2488199.7299  -4673486.9155   3544649.3854   1   8   0.0007   0.0013   0.0010   0.0007  -0.0009  -0.0006   0.00    9.5
2022/07/05 00:16:45.000  -2488199.7298  -4673486.9154   3544649.3855   1   8   0.0007   0.0013   0.0010   0.0007  -0.0009  -0.0006   0.00   10.2
2022/07/05 00:17:00.000  -2488199.7297  -4673486.9154   3544649.3856   1   8   0.0006   0.0012   0.0010   0.0007  -0.0009  -0.0006   0.00   11.0
2022/07/05 00:17:15.000  -2488199.7297  -4673486.9155   3544649.3858   1   8   0.0006   0.0012   0.0010   0.0007  -0.0009  -0.0006   0.00   11.7
2022/07/05 00:17:30.000  -2488199.7296  -4673486.9157   3544649.3860   1   8   0.0006   0.0012   0.0010   0.0007  -0.0009  -0.0006   0.00   12.4
2022/07/05 00:17:45.000  -2488199.7296  -4673486.9159   3544649.3863   1   8   0.0006   0.0012   0.0010   0.0007  -0.0009  -0.0006   0.00   13.1
2022/07/05 00:18:00.000  -2488199.7296  -4673486.9163   3544649.3867   1   8   0.0006   0.0012   0.0010   0.0007  -0.0009  -0.0006   0.00   13.8
2022/07/05 00:18:15.000  -2488199.7296  -4673486.9165   3544649.3870   1   8   0.0006   0.0012   0.0010   0.0007  -0.0009  -0.0006   0.00   14.4
2022/07/05 00:18:30.000  -2488199.7296  -4673486.9168   3544649.3873   1   8   0.0006   0.0012   0.0010   0.0006  -0.0009  -0.0006   0.00   15.1
2022/07/05 00:18:45.000  -2488199.7297  -4673486.9170   3544649.3875   1   8   0.0006   0.0012   0.0010   0.0006  -0.0009  -0.0006   0.00   15.7
2022/07/05 00:19:00.000  -2488199.7297  -4673486.9172   3544649.3877   1   8   0.0006   0.0012   0.0010   0.0006  -0.0009  -0.0006   0.00   16.4
2022/07/05 00:19:15.000  -2488199.7278  -4673486.9203   3544649.3902   2   9   0.0010   0.0017   0.0017   0.0011  -0.0014  -0.0010   0.00    1.1
2022/07/05 00:19:30.000  -2488199.7277  -4673486.9203   3544649.3904   2   9   0.0010   0.0017   0.0017   0.0011  -0.0014  -0.0010   0.00    1.1
2022/07/05 00:19:45.000  -2488199.7277  -4673486.9205   3544649.3906   2   9   0.0010   0.0017   0.0017   0.0011  -0.0014  -0.0010   0.00    1.2
2022/07/05 00:20:00.000  -2488199.7277  -4673486.9207   3544649.3909   2   9   0.0010   0.0017   0.0017   0.0010  -0.0014  -0.0010   0.00    1.3
2022/07/05 00:20:15.000  -2488199.7277  -4673486.9206   3544649.3909   2   9   0.0010   0.0017   0.0017   0.0010  -0.0014  -0.0010   0.00    1.4
2022/07/05 00:20:30.000  -2488199.7276  -4673486.9206   3544649.3910   2   9   0.0010   0.0017   0.0017   0.0010  -0.0014  -0.0010   0.00    1.4
2022/07/05 00:20:45.000  -2488199.7276  -4673486.9206   3544649.3911   2   9   0.0010   0.0016   0.0017   0.0010  -0.0014  -0.0009   0.00    1.5
2022/07/05 00:21:00.000  -2488199.7277  -4673486.9207   3544649.3913   2   9   0.0010   0.0016   0.0017   0.0010  -0.0014  -0.0009   0.00    1.5
2022/07/05 00:21:15.000  -2488199.7277  -4673486.9207   3544649.3914   2   9   0.0010   0.0016   0.0017   0.0010  -0.0014  -0.0009   0.00    1.6
2022/07/05 00:21:30.000  -2488199.7277  -4673486.9208   3544649.3915   2   9   0.0010   0.0016   0.0017   0.0010  -0.0014  -0.0009   0.00    1.7
2022/07/05 00:21:45.000  -2488199.7277  -4673486.9210   3544649.3916   2   9   0.0010   0.0016   0.0017   0.0010  -0.0014  -0.0009   0.00    1.7
2022/07/05 00:22:00.000  -2488199.7277  -4673486.9211   3544649.3917   2   9   0.0010   0.0016   0.0016   0.0010  -0.0014  -0.0009   0.00    1.8
2022/07/05 00:22:15.000  -2488199.7278  -4673486.9213   3544649.3919   2   9   0.0010   0.0016   0.0016   0.0010  -0.0014  -0.0009   0.00    1.8
2022/07/05 00:22:30.000  -2488199.7277  -4673486.9214   3544649.3919   2   9   0.0010   0.0016   0.0016   0.0010  -0.0014  -0.0009   0.00    1.9
2022/07/05 00:22:45.000  -2488199.7277  -4673486.9212   3544649.3919   2   9   0.0010   0.0016   0.0016   0.0010  -0.0014  -0.0009   0.00    2.0
2022/07/05 00:23:00.000  -2488199.7277  -4673486.9212   3544649.3918   2   9   0.0010   0.0016   0.0016   0.0010  -0.0014  -0.0009   0.00    2.0
2022/07/05 00:23:15.000  -2488199.7277  -4673486.9212   3544649.3918   2   9   0.0010   0.0016   0.0016   0.0010  -0.0014  -0.0009   0.00    2.1
2022/07/05 00:23:30.000  -2488199.7277  -4673486.9210   3544649.3918   2   9   0.0010   0.0016   0.0016   0.0010  -0.0013  -0.0009   0.00    2.1
2022/07/05 00:23:45.000  -2488199.7277  -4673486.9210   3544649.3918   2   9   0.0010   0.0016   0.0016   0.0010  -0.0013  -0.0009   0.00    2.2
2022/07/05 00:24:00.000  -2488199.7277  -4673486.9209   3544649.3918   2   9   0.0010   0.0016   0.0016   0.0010  -0.0013  -0.0009   0.00    2.3
2022/07/05 00:24:15.000  -2488199.7277  -4673486.9209   3544649.3919   2   9   0.0010   0.0016   0.0016   0.0010  -0.0013  -0.0009   0.00    2.3
2022/07/05 00:24:30.000  -2488199.7277  -4673486.9209   3544649.3919   2   9   0.0010   0.0016   0.0016   0.0010  -0.0013  -0.0009   0.00    2.4
2022/07/05 00:24:45.000  -2488199.7278  -4673486.9209   3544649.3919   2   9   0.0010   0.0016   0.0016   0.0010  -0.0013  -0.0009   0.00    2.4
2022/07/05 00:25:00.000  -2488199.7278  -4673486.9209   3544649.3919   2   9   0.0010   0.0015   0.0016   0.0010  -0.0013  -0.0009   0.00    2.5
2022/07/05 00:25:15.000  -2488199.7278  -4673486.9209   3544649.3919   2   9   0.0010   0.0015   0.0016   0.0010  -0.0013  -0.0009   0.00    2.6
2022/07/05 00:25:30.000  -2488199.7278  -4673486.9208   3544649.3919   2   9   0.0010   0.0015   0.0016   0.0010  -0.0013  -0.0009   0.00    2.6
2022/07/05 00:25:45.000  -2488199.7277  -4673486.9208   3544649.3918   2   9   0.0010   0.0015   0.0016   0.0010  -0.0013  -0.0009   0.00    2.7
2022/07/05 00:26:00.000  -2488199.7277  -4673486.9207   3544649.3917   2   9   0.0010   0.0015   0.0016   0.0010  -0.0013  -0.0009   0.00    2.7
2022/07/05 00:26:15.000  -2488199.7276  -4673486.9205   3544649.3916   2   9   0.0010   0.0015   0.0016   0.0010  -0.0013  -0.0009   0.00    2.8
2022/07/05 00:26:30.000  -2488199.7275  -4673486.9205   3544649.3916   2   9   0.0010   0.0015   0.0016   0.0010  -0.0013  -0.0009   0.00    2.9
2022/07/05 00:26:45.000  -2488199.7274  -4673486.9204   3544649.3915   2   9   0.0010   0.0015   0.0016   0.0010  -0.0013  -0.0009   0.00    2.9
2022/07/05 00:27:00.000  -2488199.7301  -4673486.9172   3544649.3903   1   9   0.0005   0.0010   0.0009   0.0005  -0.0007  -0.0005   0.00    3.0
2022/07/05 00:27:15.000  -2488199.7301  -4673486.9172   3544649.3904   1   9   0.0005   0.0010   0.0008   0.0005  -0.0007  -0.0005   0.00    3.1
2022/07/05 00:27:30.000  -2488199.7301  -4673486.9173   3544649.3905   1   9   0.0005   0.0009   0.0008   0.0005  -0.0007  -0.0005   0.00    3.1
2022/07/05 00:27:45.000  -2488199.7301  -4673486.9173   3544649.3906   1   9   0.0005   0.0009   0.0008   0.0005  -0.0007  -0.0005   0.00    3.2
2022/07/05 00:28:00.000  -2488199.7300  -4673486.9173   3544649.3906   1   9   0.0005   0.0009   0.0008   0.0005  -0.0007  -0.0005   0.00    3.3
2022/07/05 00:28:15.000  -2488199.7300  -4673486.9173   3544649.3907   1   9   0.0005   0.0009   0.0008   0.0005  -0.0007  -0.0005   0.00    3.4
2022/07/05 00:28:30.000  -2488199.7299  -4673486.9173   3544649.3907   1   9   0.0005   0.0009   0.0008   0.0005  -0.0007  -0.0005   0.00    3.4
2022/07/05 00:28:45.000  -2488199.7298  -4673486.9172   3544649.3907   1   9   0.0005   0.0009   0.0008   0.0005  -0.0007  -0.0005   0.00    3.5
2022/07/05 00:29:00.000  -2488199.7297  -4673486.9172   3544649.3907   1   9   0.0005   0.0009   0.0008   0.0005  -0.0007  -0.0005   0.00    3.6
2022/07/05 00:29:15.000  -2488199.7297  -4673486.9173   3544649.3908   1   9   0.0005   0.0009   0.0008   0.0005  -0.0007  -0.0005   0.00    3.6
2022/07/05 00:29:30.000  -2488199.7296  -4673486.9172   3544649.3909   1   9   0.0005   0.0009   0.0008   0.0005  -0.0007  -0.0005   0.00    4.2
2022/07/05 00:29:45.000  -2488199.7296  -4673486.9172   3544649.3909   1   9   0.0005   0.0009   0.0008   0.0005  -0.0007  -0.0005   0.00    4.8
2022/07/05 00:30:00.000  -2488199.7295  -4673486.9172   3544649.3909   1   9   0.0005   0.0009   0.0008   0.0005  -0.0007  -0.0005   0.00    5.5
2022/07/05 00:30:15.000  -2488199.7294  -4673486.9171   3544649.3910   1   9   0.0005   0.0009   0.0008   0.0005  -0.0007  -0.0005   0.00    6.1
2022/07/05 00:30:30.000  -2488199.7294  -4673486.9172   3544649.3911   1   9   0.0005   0.0009   0.0008   0.0005  -0.0007  -0.0005   0.00    6.8
2022/07/05 00:30:45.000  -2488199.7293  -4673486.9172   3544649.3911   1   9   0.0005   0.0009   0.0008   0.0005  -0.0007  -0.0005   0.00    7.5
2022/07/05 00:31:00.000  -2488199.7293  -4673486.9172   3544649.3912   1   9   0.0005   0.0009   0.0008   0.0005  -0.0007  -0.0005   0.00    8.2
2022/07/05 00:31:15.000  -2488199.7293  -4673486.9173   3544649.3913   1   9   0.0005   0.0009   0.0008   0.0005  -0.0007  -0.0005   0.00    8.9
2022/07/05 00:31:30.000  -2488199.7293  -4673486.9173   3544649.3913   1   9   0.0005   0.0009   0.0008   0.0005  -0.0007  -0.0005   0.00    9.7
2022/07/05 00:31:45.000  -2488199.7293  -4673486.9173   3544649.3914   1   9   0.0005   0.0009   0.0008   0.0005  -0.0007  -0.0005   0.00   10.4
2022/07/05 00:32:00.000  -2488199.7293  -4673486.9173   3544649.3914   1   9   0.0005   0.0009   0.0008   0.0005  -0.0007  -0.0005   0.00   11.2
2022/07/05 00:32:15.000  -2488199.7292  -4673486.9174   3544649.3915   1   9   0.0005   0.0009   0.0008   0.0005  -0.0007  -0.0005   0.00   11.9
2022/07/05 00:32:30.000  -2488199.7293  -4673486.9174   3544649.3915   1   9   0.0005   0.0009   0.0008   0.0005  -0.0007  -0.0005   0.00   12.7
2022/07/05 00:32:45.000  -2488199.7293  -4673486.9174   3544649.3916   1   9   0.0005   0.0009   0.0008   0.0005  -0.0007  -0.0005   0.00   13.4
2022/07/05 00:33:00.000  -2488199.7293  -4673486.9174   3544649.3916   1   9   0.0005   0.0009   0.0008   0.0005  -0.0007  -0.0005   0.00   14.2
2022/07/05 00:33:15.000  -2488199.7293  -4673486.9174   3544649.3916   1   9   0.0005   0.0009   0.0008   0.0005  -0.0007  -0.0005   0.00   15.1
2022/07/05 00:33:30.000  -2488199.7293  -4673486.9175   3544649.3917   1   9   0.0005   0.0008   0.0008   0.0005  -0.0007  -0.0005   0.00   15.9
2022/07/05 00:33:45.000  -2488199.7293  -4673486.9175   3544649.3917   1   9   0.0005   0.0008   0.0008   0.0005  -0.0006  -0.0005   0.00   16.8
2022/07/05 00:34:00.000  -2488199.7293  -4673486.9176   3544649.3918   1   9   0.0005   0.0008   0.0008   0.0005  -0.0006  -0.0005   0.00   17.7
2022/07/05 00:34:15.000  -2488199.7294  -4673486.9176   3544649.3919   1   9   0.0005   0.0008   0.0008   0.0005  -0.0006  -0.0005   0.00   18.6
2022/07/05 00:34:30.000  -2488199.7294  -4673486.9176   3544649.3919   1   9   0.0005   0.0008   0.0008   0.0005  -0.0006  -0.0005   0.00   19.5
2022/07/05 00:34:45.000  -2488199.7295  -4673486.9176   3544649.3920   1   9   0.0005   0.0008   0.0008   0.0005  -0.0006  -0.0005   0.00   20.4
2022/07/05 00:35:00.000  -2488199.7295  -4673486.9176   3544649.3920   1   9   0.0005   0.0008   0.0008   0.0005  -0.0006  -0.0005   0.00   21.4
2022/07/05 00:35:15.000  -2488199.7296  -4673486.9177   3544649.3921   1   9   0.0005   0.0008   0.0008   0.0005  -0.0006  -0.0005   0.00   22.4
2022/07/05 00:35:30.000  -2488199.7296  -4673486.9177   3544649.3922   1   9   0.0005   0.0008   0.0008   0.0005  -0.0006  -0.0005   0.00   23.4
2022/07/05 00:35:45.000  -2488199.7296  -4673486.9177   3544649.3923   1   9   0.0005   0.0008   0.0008   0.0005  -0.0006  -0.0005   0.00   24.4
2022/07/05 00:36:00.000  -2488199.7296  -4673486.9177   3544649.3924   1   9   0.0005   0.0008   0.0008   0.0005  -0.0006  -0.0005   0.00   25.4
2022/07/05 00:36:15.000  -2488199.7297  -4673486.9178   3544649.3925   1   9   0.0005   0.0008   0.0008   0.0005  -0.0006  -0.0005   0.00   26.4
2022/07/05 00:36:30.000  -2488199.7297  -4673486.9178   3544649.3926   1   9   0.0005   0.0008   0.0008   0.0005  -0.0006  -0.0005   0.00   27.3
2022/07/05 00:36:45.000  -2488199.7297  -4673486.9179   3544649.3927   1   9   0.0005   0.0008   0.0008   0.0005  -0.0006  -0.0005   0.00   28.3
2022/07/05 00:37:00.000  -2488199.7297  -4673486.9179   3544649.3928   1   9   0.0005   0.0008   0.0008   0.0005  -0.0006  -0.0005   0.00   29.4
2022/07/05 00:37:15.000  -2488199.7297  -4673486.9179   3544649.3929   1   9   0.0005   0.0008   0.0008   0.0005  -0.0006  -0.0005   0.00   30.4
2022/07/05 00:37:30.000  -2488199.7297  -4673486.9179   3544649.3929   1   9   0.0005   0.0008   0.0008   0.0004  -0.0006  -0.0005   0.00   31.4
2022/07/05 00:37:45.000  -2488199.7296  -4673486.9178   3544649.3929   1   9   0.0005   0.0008   0.0008   0.0004  -0.0006  -0.0004   0.00   32.5
2022/07/05 00:38:00.000  -2488199.7295  -4673486.9176   3544649.3929   1   9   0.0005   0.0008   0.0008   0.0004  -0.0006  -0.0004   0.00   33.5
2022/07/05 00:38:15.000  -2488199.7295  -4673486.9175   3544649.3929   1   9   0.0005   0.0008   0.0008   0.0004  -0.0006  -0.0004   0.00   34.4
2022/07/05 00:38:30.000  -2488199.7294  -4673486.9173   3544649.3929   1   9   0.0005   0.0008   0.0008   0.0004  -0.0006  -0.0004   0.00   35.5
2022/07/05 00:38:45.000  -2488199.7293  -4673486.9172   3544649.3929   1   9   0.0005   0.0008   0.0008   0.0004  -0.0006  -0.0004   0.00   36.5
2022/07/05 00:39:00.000  -2488199.7293  -4673486.9171   3544649.3929   1   9   0.0005   0.0008   0.0008   0.0004  -0.0006  -0.0004   0.00   37.6
2022/07/05 00:39:15.000  -2488199.7292  -4673486.9170   3544649.3929   1   9   0.0005   0.0008   0.0008   0.0004  -0.0006  -0.0004   0.00   38.6
2022/07/05 00:39:30.000  -2488199.7291  -4673486.9169   3544649.3929   1   9   0.0005   0.0008   0.0008   0.0004  -0.0006  -0.0004   0.00   39.7
2022/07/05 00:39:45.000  -2488199.7291  -4673486.9167   3544649.3928   1   9   0.0005   0.0008   0.0008   0.0004  -0.0006  -0.0004   0.00   40.6
2022/07/05 00:40:00.000  -2488199.7290  -4673486.9166   3544649.3928   1   9   0.0005   0.0008   0.0008   0.0004  -0.0006  -0.0004   0.00   41.6
2022/07/05 00:40:15.000  -2488199.7289  -4673486.9165   3544649.3927   1   9   0.0005   0.0008   0.0008   0.0004  -0.0006  -0.0004   0.00   42.5
2022/07/05 00:40:30.000  -2488199.7288  -4673486.9163   3544649.3927   1   9   0.0005   0.0008   0.0008   0.0004  -0.0006  -0.0004   0.00   43.5
2022/07/05 00:40:45.000  -2488199.7288  -4673486.9162   3544649.3926   1   9   0.0005   0.0008   0.0008   0.0004  -0.0006  -0.0004   0.00   44.5
2022/07/05 00:41:00.000  -2488199.7287  -4673486.9161   3544649.3926   1   9   0.0005   0.0008   0.0007   0.0004  -0.0006  -0.0004   0.00   45.5
2022/07/05 00:41:15.000  -2488199.7287  -4673486.9160   3544649.3926   1   9   0.0005   0.0008   0.0007   0.0004  -0.0006  -0.0004   0.00   46.5
2022/07/05 00:41:30.000  -2488199.7286  -4673486.9160   3544649.3926   1   9   0.0005   0.0007   0.0007   0.0004  -0.0006  -0.0004   0.00   47.5
2022/07/05 00:41:45.000  -2488199.7285  -4673486.9159   3544649.3925   1   9   0.0005   0.0007   0.0007   0.0004  -0.0006  -0.0004   0.00   48.5
2022/07/05 00:42:00.000  -2488199.7285  -4673486.9158   3544649.3925   1   9   0.0005   0.0007   0.0007   0.0004  -0.0006  -0.0004   0.00   49.5
2022/07/05 00:42:15.000  -2488199.7284  -4673486.9157   3544649.3925   1   9   0.0005   0.0007   0.0007   0.0004  -0.0006  -0.0004   0.00   50.6
2022/07/05 00:42:30.000  -2488199.7284  -4673486.9157   3544649.3926   1   9   0.0005   0.0007   0.0007   0.0004  -0.0006  -0.0004   0.00   51.7
2022/07/05 00:42:45.000  -2488199.7263  -4673486.9145   3544649.3879   1   7   0.0005   0.0008   0.0008   0.0005  -0.0006  -0.0005   0.00  138.0
2022/07/05 00:43:00.000  -2488199.7262  -4673486.9145   3544649.3879   1   7   0.0005   0.0008   0.0008   0.0005  -0.0006  -0.0005   0.00  141.4
2022/07/05 00:43:15.000  -2488199.7262  -4673486.9144   3544649.3878   1   7   0.0005   0.0008   0.0008   0.0005  -0.0006  -0.0005   0.00  145.0
2022/07/05 00:43:30.000  -2488199.7261  -4673486.9144   3544649.3878   1   7   0.0005   0.0007   0.0008   0.0005  -0.0006  -0.0005   0.00  148.7
2022/07/05 00:43:45.000  -2488199.7261  -4673486.9144   3544649.3878   1   7   0.0005   0.0007   0.0008   0.0005  -0.0006  -0.0005   0.00  152.8
2022/07/05 00:44:00.000  -2488199.7261  -4673486.9144   3544649.3878   1   7   0.0005   0.0007   0.0008   0.0005  -0.0006  -0.0005   0.00  157.1
2022/07/05 00:44:15.000  -2488199.7261  -4673486.9143   3544649.3878   1   7   0.0005   0.0007   0.0008   0.0005  -0.0006  -0.0005   0.00  161.6
2022/07/05 00:44:30.000  -2488199.7261  -4673486.9143   3544649.3878   1   7   0.0005   0.0007   0.0008   0.0005  -0.0006  -0.0005   0.00  165.4
2022/07/05 00:44:45.000  -2488199.7261  -4673486.9143   3544649.3878   1   7   0.0005   0.0007   0.0008   0.0005  -0.0006  -0.0005   0.00  169.3
2022/07/05 00:45:00.000  -2488199.7261  -4673486.9143   3544649.3878   1   7   0.0005   0.0007   0.0008   0.0005  -0.0006  -0.0005   0.00  173.4
2022/07/05 00:45:15.000  -2488199.7261  -4673486.9143   3544649.3877   1   7   0.0005   0.0007   0.0008   0.0005  -0.0006  -0.0005   0.00  177.6
2022/07/05 00:45:30.000  -2488199.7261  -4673486.9143   3544649.3878   1   7   0.0005   0.0007   0.0008   0.0004  -0.0006  -0.0005   0.00  181.9
2022/07/05 00:45:45.000  -2488199.7261  -4673486.9143   3544649.3877   1   7   0.0005   0.0007   0.0008   0.0004  -0.0006  -0.0005   0.00  186.3
2022/07/05 00:46:00.000  -2488199.7261  -4673486.9142   3544649.3877   1   7   0.0005   0.0007   0.0008   0.0004  -0.0006  -0.0005   0.00  191.3
2022/07/05 00:46:15.000  -2488199.7260  -4673486.9141   3544649.3877   1   7   0.0005   0.0007   0.0008   0.0004  -0.0006  -0.0005   0.00  195.9
2022/07/05 00:46:30.000  -2488199.7260  -4673486.9141   3544649.3876   1   7   0.0005   0.0007   0.0008   0.0004  -0.0006  -0.0005   0.00  201.1
2022/07/05 00:46:45.000  -2488199.7261  -4673486.9141   3544649.3876   1   7   0.0005   0.0007   0.0008   0.0004  -0.0006  -0.0005   0.00  206.8
2022/07/05 00:47:00.000  -2488199.7261  -4673486.9141   3544649.3876   1   7   0.0005   0.0007   0.0008   0.0004  -0.0006  -0.0005   0.00  212.7
2022/07/05 00:47:15.000  -2488199.7261  -4673486.9141   3544649.3876   1   7   0.0005   0.0007   0.0008   0.0004  -0.0006  -0.0005   0.00  218.7
2022/07/05 00:47:30.000  -2488199.7261  -4673486.9141   3544649.3876   1   7   0.0005   0.0007   0.0008   0.0004  -0.0006  -0.0005   0.00  225.0
2022/07/05 00:47:45.000  -2488199.7261  -4673486.9141   3544649.3876   1   7   0.0005   0.0007   0.0008   0.0004  -0.0006  -0.0005   0.00  231.9
2022/07/05 00:48:00.000  -2488199.7261  -4673486.9140   3544649.3876   1   7   0.0005   0.0007   0.0008   0.0004  -0.0006  -0.0005   0.00  238.0
2022/07/05 00:48:15.000  -2488199.7260  -4673486.9140   3544649.3876   1   7   0.0005   0.0007   0.0008   0.0004  -0.0006  -0.0005   0.00  244.1
2022/07/05 00:48:30.000  -2488199.7260  -4673486.9139   3544649.3875   1   7   0.0005   0.0007   0.0008   0.0004  -0.0006  -0.0005   0.00  250.7
2022/07/05 00:48:45.000  -2488199.7260  -4673486.9139   3544649.3875   1   7   0.0005   0.0007   0.0008   0.0004  -0.0006  -0.0005   0.00  256.5
2022/07/05 00:49:00.000  -2488199.7260  -4673486.9138   3544649.3874   1   7   0.0005   0.0007   0.0008   0.0004  -0.0006  -0.0005   0.00  262.4
2022/07/05 00:49:15.000  -2488199.7261  -4673486.9138   3544649.3874   1   7   0.0005   0.0007   0.0008   0.0004  -0.0006  -0.0005   0.00  267.1
2022/07/05 00:49:30.000  -2488199.7261  -4673486.9137   3544649.3873   1   7   0.0005   0.0007   0.0008   0.0004  -0.0006  -0.0005   0.00  271.8
2022/07/05 00:49:45.000  -2488199.7261  -4673486.9137   3544649.3873   1   7   0.0005   0.0007   0.0008   0.0004  -0.0006  -0.0005   0.00  276.4
2022/07/05 00:50:00.000  -2488199.7261  -4673486.9136   3544649.3872   1   7   0.0005   0.0007   0.0008   0.0004  -0.0006  -0.0005   0.00  280.7
2022/07/05 00:50:15.000  -2488199.7261  -4673486.9136   3544649.3872   1   7   0.0005   0.0007   0.0008   0.0004  -0.0006  -0.0005   0.00  284.5
2022/07/05 00:50:30.000  -2488199.7261  -4673486.9135   3544649.3871   1   7   0.0005   0.0007   0.0008   0.0004  -0.0006  -0.0005   0.00  288.9
2022/07/05 00:50:45.000  -2488199.7261  -4673486.9135   3544649.3871   1   7   0.0005   0.0007   0.0008   0.0004  -0.0006  -0.0005   0.00  294.3
2022/07/05 00:51:00.000  -2488199.7261  -4673486.9134   3544649.3870   1   7   0.0005   0.0007   0.0007   0.0004  -0.0006  -0.0005   0.00  299.0
2022/07/05 00:51:15.000  -2488199.7261  -4673486.9134   3544649.3869   1   7   0.0005   0.0007   0.0007   0.0004  -0.0006  -0.0005   0.00  305.4
2022/07/05 00:51:30.000  -2488199.7261  -4673486.9133   3544649.3869   1   7   0.0005   0.0007   0.0007   0.0004  -0.0006  -0.0005   0.00  310.3
2022/07/05 00:51:45.000  -2488199.7261  -4673486.9132   3544649.3868   1   7   0.0005   0.0007   0.0007   0.0004  -0.0006  -0.0005   0.00  313.8
2022/07/05 00:52:00.000  -2488199.7261  -4673486.9131   3544649.3867   1   7   0.0005   0.0007   0.0007   0.0004  -0.0005  -0.0005   0.00  318.1
2022/07/05 00:52:15.000  -2488199.7261  -4673486.9131   3544649.3866   1   7   0.0005   0.0007   0.0007   0.0004  -0.0005  -0.0005   0.00  321.9
2022/07/05 00:52:30.000  -2488199.7262  -4673486.9130   3544649.3866   1   7   0.0005   0.0007   0.0007   0.0004  -0.0005  -0.0005   0.00  327.2
2022/07/05 00:52:45.000  -2488199.7261  -4673486.9130   3544649.3865   1   7   0.0005   0.0007   0.0007   0.0004  -0.0005  -0.0005   0.00  332.4
2022/07/05 00:53:00.000  -2488199.7261  -4673486.9129   3544649.3864   1   7   0.0005   0.0007   0.0007   0.0004  -0.0005  -0.0005   0.00  337.2
2022/07/05 00:53:15.000  -2488199.7261  -4673486.9127   3544649.3863   1   7   0.0005   0.0007   0.0007   0.0004  -0.0005  -0.0005   0.00  342.1
2022/07/05 00:53:30.000  -2488199.7260  -4673486.9127   3544649.3862   1   7   0.0005   0.0007   0.0007   0.0004  -0.0005  -0.0005   0.00  347.7
2022/07/05 00:53:45.000  -2488199.7260  -4673486.9126   3544649.3861   1   7   0.0005   0.0007   0.0007   0.0004  -0.0005  -0.0005   0.00  352.0
2022/07/05 00:54:00.000  -2488199.7260  -4673486.9125   3544649.3860   1   7   0.0005   0.0007   0.0007   0.0004  -0.0005  -0.0004   0.00  355.0
2022/07/05 00:54:15.000  -2488199.7259  -4673486.9125   3544649.3859   1   7   0.0005   0.0007   0.0007   0.0004  -0.0005  -0.0004   0.00  357.0
2022/07/05 00:54:30.000  -2488199.7259  -4673486.9124   3544649.3858   1   7   0.0005   0.0007   0.0007   0.0004  -0.0005  -0.0004   0.00  357.9
2022/07/05 00:54:45.000  -2488199.7259  -4673486.9123   3544649.3857   1   7   0.0005   0.0007   0.0007   0.0004  -0.0005  -0.0004   0.00  359.3
2022/07/05 00:55:00.000  -2488199.7255  -4673486.9118   3544649.3861   1   7   0.0005   0.0007   0.0007   0.0004  -0.0005  -0.0004   0.00    5.2
2022/07/05 00:55:15.000  -2488199.7255  -4673486.9118   3544649.3860   1   7   0.0005   0.0007   0.0007   0.0004  -0.0005  -0.0004   0.00   15.2
2022/07/05 00:55:30.000  -2488199.7254  -4673486.9117   3544649.3858   1   7   0.0005   0.0007   0.0007   0.0004  -0.0005  -0.0004   0.00   25.0
2022/07/05 00:55:45.000  -2488199.7254  -4673486.9116   3544649.3857   1   7   0.0005   0.0007   0.0007   0.0004  -0.0005  -0.0004   0.00   34.7
2022/07/05 00:56:00.000  -2488199.7253  -4673486.9115   3544649.3856   1   7   0.0005   0.0007   0.0007   0.0004  -0.0005  -0.0004   0.00   44.3
2022/07/05 00:56:15.000  -2488199.7252  -4673486.9115   3544649.3854   1   7   0.0005   0.0007   0.0007   0.0004  -0.0005  -0.0004   0.00   53.7
2022/07/05 00:56:30.000  -2488199.7251  -4673486.9113   3544649.3853   1   7   0.0005   0.0007   0.0007   0.0004  -0.0005  -0.0004   0.00   63.0
2022/07/05 00:56:45.000  -2488199.7250  -4673486.9112   3544649.3851   1   7   0.0005   0.0007   0.0007   0.0004  -0.0005  -0.0004   0.00   72.2
2022/07/05 00:57:00.000  -2488199.7250  -4673486.9111   3544649.3850   1   7   0.0005   0.0007   0.0007   0.0004  -0.0005  -0.0004   0.00   81.0
2022/07/05 00:57:15.000  -2488199.7249  -4673486.9110   3544649.3849   1   7   0.0005   0.0007   0.0007   0.0004  -0.0005  -0.0004   0.00   89.9
2022/07/05 00:57:30.000  -2488199.7248  -4673486.9109   3544649.3848   1   7   0.0005   0.0006   0.0007   0.0004  -0.0005  -0.0004   0.00   98.7
2022/07/05 00:57:45.000  -2488199.7248  -4673486.9108   3544649.3847   1   7   0.0005   0.0006   0.0007   0.0004  -0.0005  -0.0004   0.00  107.6
2022/07/05 00:58:00.000  -2488199.7257  -4673486.9126   3544649.3866   2   8   0.0005   0.0007   0.0008   0.0005  -0.0006  -0.0005   0.00    1.5
2022/07/05 00:58:15.000  -2488199.7256  -4673486.9126   3544649.3865   2   8   0.0005   0.0007   0.0008   0.0005  -0.0006  -0.0005   0.00    1.9
2022/07/05 00:58:30.000  -2488199.7256  -4673486.9125   3544649.3864   2   8   0.0005   0.0007   0.0008   0.0005  -0.0006  -0.0005   0.00    2.4
2022/07/05 00:58:45.000  -2488199.7256  -4673486.9125   3544649.3863   2   8   0.0005   0.0007   0.0008   0.0005  -0.0006  -0.0005   0.00    2.9
2022/07/05 00:59:00.000  -2488199.7245  -4673486.9105   3544649.3839   1   8   0.0005   0.0006   0.0007   0.0004  -0.0005  -0.0004   0.00    3.4
2022/07/05 00:59:15.000  -2488199.7244  -4673486.9104   3544649.3837   1   8   0.0004   0.0006   0.0007   0.0004  -0.0005  -0.0004   0.00    3.9
2022/07/05 00:59:30.000  -2488199.7244  -4673486.9104   3544649.3836   1   8   0.0004   0.0006   0.0007   0.0004  -0.0005  -0.0004   0.00    4.4
2022/07/05 00:59:45.000  -2488199.7243  -4673486.9103   3544649.3834   1   8   0.0004   0.0006   0.0007   0.0004  -0.0005  -0.0004   0.00    4.9
2022/07/05 01:00:00.000  -2488199.7243  -4673486.9103   3544649.3833   1   8   0.0004   0.0006   0.0007   0.0004  -0.0005  -0.0004   0.00    5.4
2022/07/05 01:00:15.000  -2488199.7242  -4673486.9102   3544649.3832   1   8   0.0004   0.0006   0.0007   0.0004  -0.0005  -0.0004   0.00    5.9
2022/07/05 01:00:30.000  -2488199.7242  -4673486.9102   3544649.3830   1   8   0.0004   0.0006   0.0007   0.0004  -0.0005  -0.0004   0.00    6.4
2022/07/05 01:00:45.000  -2488199.7241  -4673486.9101   3544649.3829   1   8   0.0004   0.0006   0.0007   0.0004  -0.0005  -0.0004   0.00    6.7
2022/07/05 01:01:00.000  -2488199.7241  -4673486.9101   3544649.3827   1   8   0.0004   0.0006   0.0007   0.0004  -0.0005  -0.0004   0.00    7.0
2022/07/05 01:01:15.000  -2488199.7240  -4673486.9101   3544649.3826   1   8   0.0004   0.0006   0.0007   0.0004  -0.0005  -0.0004   0.00    7.2
2022/07/05 01:01:30.000  -2488199.7239  -4673486.9100   3544649.3824   1   8   0.0004   0.0006   0.0007   0.0004  -0.0005  -0.0004   0.00   11.8
2022/07/05 01:01:45.000  -2488199.7238  -4673486.9100   3544649.3822   1   8   0.0004   0.0006   0.0007   0.0004  -0.0005  -0.0004   0.00   16.3
2022/07/05 01:02:00.000  -2488199.7237  -4673486.9099   3544649.3820   1   8   0.0004   0.0006   0.0007   0.0004  -0.0005  -0.0004   0.00   20.6
2022/07/05 01:02:15.000  -2488199.7237  -4673486.9099   3544649.3818   1   8   0.0004   0.0006   0.0007   0.0004  -0.0005  -0.0004   0.00   24.7
2022/07/05 01:02:30.000  -2488199.7236  -4673486.9098   3544649.3815   1   8   0.0004   0.0006   0.0007   0.0004  -0.0005  -0.0004   0.00   28.6
2022/07/05 01:02:45.000  -2488199.7235  -4673486.9098   3544649.3813   1   8   0.0004   0.0006   0.0007   0.0004  -0.0005  -0.0004   0.00   32.4
2022/07/05 01:03:00.000  -2488199.7234  -4673486.9097   3544649.3811   1   8   0.0004   0.0006   0.0007   0.0004  -0.0005  -0.0004   0.00   36.2
2022/07/05 01:03:15.000  -2488199.7233  -4673486.9096   3544649.3809   1   8   0.0004   0.0006   0.0007   0.0004  -0.0005  -0.0004   0.00   40.1
2022/07/05 01:03:30.000  -2488199.7232  -4673486.9096   3544649.3806   1   8   0.0004   0.0006   0.0007   0.0004  -0.0005  -0.0004   0.00   43.8
2022/07/05 01:03:45.000  -2488199.7232  -4673486.9095   3544649.3804   1   8   0.0004   0.0006   0.0007   0.0004  -0.0005  -0.0004   0.00   47.4
2022/07/05 01:04:00.000  -2488199.7231  -4673486.9095   3544649.3802   1   8   0.0004   0.0006   0.0006   0.0004  -0.0005  -0.0004   0.00   50.9
2022/07/05 01:04:15.000  -2488199.7230  -4673486.9095   3544649.3800   1   8   0.0004   0.0006   0.0006   0.0004  -0.0005  -0.0004   0.00   54.1
2022/07/05 01:04:30.000  -2488199.7230  -4673486.9094   3544649.3798   1   8   0.0004   0.0006   0.0006   0.0004  -0.0005  -0.0004   0.00   57.4
2022/07/05 01:04:45.000  -2488199.7229  -4673486.9094   3544649.3796   1   8   0.0004   0.0006   0.0006   0.0004  -0.0005  -0.0004   0.00   60.7
2022/07/05 01:05:00.000  -2488199.7229  -4673486.9094   3544649.3794   1   8   0.0004   0.0006   0.0006   0.0004  -0.0005  -0.0004   0.00   63.9
2022/07/05 01:05:15.000  -2488199.7229  -4673486.9094   3544649.3793   1   8   0.0004   0.0006   0.0006   0.0004  -0.0005  -0.0004   0.00   67.0
2022/07/05 01:05:30.000  -2488199.7228  -4673486.9093   3544649.3791   1   8   0.0004   0.0006   0.0006   0.0004  -0.0005  -0.0004   0.00   70.3
2022/07/05 01:05:45.000  -2488199.7228  -4673486.9093   3544649.3789   1   8   0.0004   0.0006   0.0006   0.0004  -0.0005  -0.0004   0.00   73.4
2022/07/05 01:06:00.000  -2488199.7227  -4673486.9092   3544649.3787   1   8   0.0004   0.0006   0.0006   0.0004  -0.0004  -0.0004   0.00   76.5
2022/07/05 01:06:15.000  -2488199.7227  -4673486.9092   3544649.3785   1   8   0.0004   0.0006   0.0006   0.0004  -0.0004  -0.0004   0.00   79.6
2022/07/05 01:06:30.000  -2488199.7227  -4673486.9091   3544649.3783   1   8   0.0004   0.0006   0.0006   0.0004  -0.0004  -0.0004   0.00   82.6
2022/07/05 01:06:45.000  -2488199.7226  -4673486.9091   3544649.3781   1   8   0.0004   0.0006   0.0006   0.0004  -0.0004  -0.0004   0.00   85.5
2022/07/05 01:07:00.000  -2488199.7225  -4673486.9090   3544649.3779   1   8   0.0004   0.0006   0.0006   0.0004  -0.0004  -0.0004   0.00   88.4
2022/07/05 01:07:15.000  -2488199.7225  -4673486.9089   3544649.3777   1   8   0.0004   0.0006   0.0006   0.0004  -0.0004  -0.0004   0.00   91.0
2022/07/05 01:07:30.000  -2488199.7224  -4673486.9089   3544649.3775   1   8   0.0004   0.0006   0.0006   0.0004  -0.0004  -0.0004   0.00   93.6
2022/07/05 01:07:45.000  -2488199.7223  -4673486.9088   3544649.3773   1   8   0.0004   0.0006   0.0006   0.0004  -0.0004  -0.0004   0.00   96.0
2022/07/05 01:08:00.000  -2488199.7222  -4673486.9087   3544649.3770   1   8   0.0004   0.0006   0.0006   0.0004  -0.0004  -0.0004   0.00   98.5
2022/07/05 01:08:15.000  -2488199.7221  -4673486.9086   3544649.3768   1   8   0.0004   0.0006   0.0006   0.0004  -0.0004  -0.0004   0.00  100.8
2022/07/05 01:08:30.000  -2488199.7220  -4673486.9086   3544649.3765   1   8   0.0004   0.0006   0.0006   0.0004  -0.0004  -0.0004   0.00  103.1
2022/07/05 01:08:45.000  -2488199.7220  -4673486.9085   3544649.3763   1   8   0.0004   0.0006   0.0006   0.0004  -0.0004  -0.0004   0.00  105.4
2022/07/05 01:09:00.000  -2488199.7219  -4673486.9084   3544649.3760   1   8   0.0004   0.0006   0.0006   0.0004  -0.0004  -0.0004   0.00  107.9
2022/07/05 01:09:15.000  -2488199.7218  -4673486.9084   3544649.3758   1   8   0.0004   0.0006   0.0006   0.0004  -0.0004  -0.0004   0.00  110.3
2022/07/05 01:09:30.000  -2488199.7218  -4673486.9083   3544649.3756   1   8   0.0004   0.0006   0.0006   0.0004  -0.0004  -0.0004   0.00  112.8
2022/07/05 01:09:45.000  -2488199.7217  -4673486.9082   3544649.3753   1   8   0.0004   0.0006   0.0006   0.0004  -0.0004  -0.0004   0.00  115.1
2022/07/05 01:10:00.000  -2488199.7216  -4673486.9082   3544649.3751   1   8   0.0004   0.0006   0.0006   0.0004  -0.0004  -0.0004   0.00  117.3
2022/07/05 01:10:15.000  -2488199.7215  -4673486.9081   3544649.3749   1   8   0.0004   0.0006   0.0006   0.0004  -0.0004  -0.0004   0.00  119.4
2022/07/05 01:10:30.000  -2488199.7214  -4673486.9080   3544649.3746   1   8   0.0004   0.0006   0.0006   0.0004  -0.0004  -0.0004   0.00  121.5
2022/07/05 01:10:45.000  -2488199.7213  -4673486.9079   3544649.3744   1   8   0.0004   0.0006   0.0006   0.0004  -0.0004  -0.0004   0.00  123.6
2022/07/05 01:11:00.000  -2488199.7212  -4673486.9079   3544649.3742   1   8   0.0004   0.0006   0.0006   0.0004  -0.0004  -0.0004   0.00  125.3
2022/07/05 01:11:15.000  -2488199.7211  -4673486.9078   3544649.3739   1   8   0.0004   0.0006   0.0006   0.0004  -0.0004  -0.0004   0.00  127.1
2022/07/05 01:11:30.000  -2488199.7210  -4673486.9077   3544649.3737   1   8   0.0004   0.0006   0.0006   0.0004  -0.0004  -0.0004   0.00  129.1
2022/07/05 01:11:45.000  -2488199.7209  -4673486.9077   3544649.3735   1   8   0.0004   0.0006   0.0006   0.0004  -0.0004  -0.0004   0.00  131.3
2022/07/05 01:12:00.000  -2488199.7209  -4673486.9076   3544649.3733   1   8   0.0004   0.0006   0.0006   0.0004  -0.0004  -0.0004   0.00  133.8
2022/07/05 01:12:15.000  -2488199.7208  -4673486.9075   3544649.3731   1   8   0.0004   0.0006   0.0006   0.0004  -0.0004  -0.0004   0.00  136.4
2022/07/05 01:12:30.000  -2488199.7208  -4673486.9075   3544649.3730   1   8   0.0004   0.0006   0.0006   0.0004  -0.0004  -0.0004   0.00  138.5
2022/07/05 01:12:45.000  -2488199.7207  -4673486.9074   3544649.3728   1   8   0.0004   0.0006   0.0006   0.0004  -0.0004  -0.0003   0.00  140.8
2022/07/05 01:13:00.000  -2488199.7206  -4673486.9074   3544649.3726   1   8   0.0004   0.0006   0.0006   0.0004  -0.0004  -0.0003   0.00  143.0
2022/07/05 01:13:15.000  -2488199.7206  -4673486.9073   3544649.3724   1   8   0.0004   0.0006   0.0006   0.0004  -0.0004  -0.0003   0.00  145.1
2022/07/05 01:13:30.000  -2488199.7205  -4673486.9072   3544649.3722   1   8   0.0004   0.0006   0.0006   0.0004  -0.0004  -0.0003   0.00  146.9
2022/07/05 01:13:45.000  -2488199.7204  -4673486.9072   3544649.3721   1   8   0.0004   0.0006   0.0006   0.0004  -0.0004  -0.0003   0.00  148.5
2022/07/05 01:14:00.000  -2488199.7204  -4673486.9072   3544649.3719   1   8   0.0004   0.0006   0.0006   0.0004  -0.0004  -0.0003   0.00  150.5
2022/07/05 01:14:15.000  -2488199.7203  -4673486.9072   3544649.3718   1   8   0.0004   0.0006   0.0006   0.0004  -0.0004  -0.0003   0.00  152.8
2022/07/05 01:14:30.000  -2488199.7203  -4673486.9071   3544649.3716   1   8   0.0004   0.0006   0.0006   0.0004  -0.0004  -0.0003   0.00  154.3
2022/07/05 01:14:45.000  -2488199.7203  -4673486.9071   3544649.3715   1   8   0.0004   0.0006   0.0006   0.0004  -0.0004  -0.0003   0.00  156.2
2022/07/05 01:15:00.000  -2488199.7202  -4673486.9071   3544649.3713   1   8   0.0004   0.0006   0.0006   0.0004  -0.0004  -0.0003   0.00  157.8
2022/07/05 01:15:15.000  -2488199.7202  -4673486.9071   3544649.3712   1   8   0.0004   0.0006   0.0006   0.0004  -0.0004  -0.0003   0.00  159.9
2022/07/05 01:15:30.000  -2488199.7201  -4673486.9071   3544649.3711   1   8   0.0004   0.0006   0.0006   0.0004  -0.0004  -0.0003   0.00  162.5
2022/07/05 01:15:45.000  -2488199.7201  -4673486.9071   3544649.3710   1   8   0.0004   0.0006   0.0006   0.0004  -0.0004  -0.0003   0.00  164.5
2022/07/05 01:16:00.000  -2488199.7200  -4673486.9071   3544649.3710   1   8   0.0004   0.0006   0.0005   0.0004  -0.0004  -0.0003   0.00  166.7
2022/07/05 01:16:15.000  -2488199.7200  -4673486.9071   3544649.3708   1   8   0.0004   0.0006   0.0005   0.0004  -0.0004  -0.0003   0.00  168.3
2022/07/05 01:16:30.000  -2488199.7200  -4673486.9071   3544649.3707   1   8   0.0004   0.0006   0.0005   0.0003  -0.0004  -0.0003   0.00  169.9
2022/07/05 01:16:45.000  -2488199.7199  -4673486.9071   3544649.3706   1   8   0.0004   0.0006   0.0005   0.0003  -0.0004  -0.0003   0.00  171.4
2022/07/05 01:17:00.000  -2488199.7199  -4673486.9071   3544649.3705   1   8   0.0004   0.0006   0.0005   0.0003  -0.0004  -0.0003   0.00  173.1
2022/07/05 01:17:15.000  -2488199.7199  -4673486.9071   3544649.3704   1   8   0.0004   0.0006   0.0005   0.0003  -0.0004  -0.0003   0.00  174.7
2022/07/05 01:17:30.000  -2488199.7198  -4673486.9071   3544649.3703   1   8   0.0004   0.0006   0.0005   0.0003  -0.0004  -0.0003   0.00  176.4
2022/07/05 01:17:45.000  -2488199.7198  -4673486.9071   3544649.3703   1   8   0.0004   0.0005   0.0005   0.0003  -0.0004  -0.0003   0.00  178.1
2022/07/05 01:18:00.000  -2488199.7198  -4673486.9072   3544649.3702   1   8   0.0004   0.0005   0.0005   0.0003  -0.0004  -0.0003   0.00  180.1
2022/07/05 01:18:15.000  -2488199.7198  -4673486.9072   3544649.3702   1   8   0.0004   0.0005   0.0005   0.0003  -0.0004  -0.0003   0.00  182.1
2022/07/05 01:18:30.000  -2488199.7198  -4673486.9072   3544649.3702   1   8   0.0004   0.0005   0.0005   0.0003  -0.0004  -0.0003   0.00  184.4
2022/07/05 01:18:45.000  -2488199.7198  -4673486.9072   3544649.3701   1   8   0.0004   0.0005   0.0005   0.0003  -0.0004  -0.0003   0.00  186.4
2022/07/05 01:19:00.000  -2488199.7198  -4673486.9073   3544649.3701   1   8   0.0004   0.0005   0.0005   0.0003  -0.0004  -0.0003   0.00  188.6
2022/07/05 01:19:15.000  -2488199.7198  -4673486.9073   3544649.3701   1   8   0.0004   0.0005   0.0005   0.0003  -0.0004  -0.0003   0.00  191.1
2022/07/05 01:19:30.000  -2488199.7198  -4673486.9073   3544649.3700   1   8   0.0004   0.0005   0.0005   0.0003  -0.0004  -0.0003   0.00  192.8
2022/07/05 01:19:45.000  -2488199.7198  -4673486.9073   3544649.3700   1   8   0.0004   0.0005   0.0005   0.0003  -0.0004  -0.0003   0.00  195.7
2022/07/05 01:20:00.000  -2488199.7198  -4673486.9073   3544649.3699   1   8   0.0004   0.0005   0.0005   0.0003  -0.0004  -0.0003   0.00  199.1
2022/07/05 01:20:15.000  -2488199.7198  -4673486.9073   3544649.3699   1   8   0.0004   0.0005   0.0005   0.0003  -0.0004  -0.0003   0.00  202.7
2022/07/05 01:20:30.000  -2488199.7198  -4673486.9073   3544649.3699   1   8   0.0004   0.0005   0.0005   0.0003  -0.0004  -0.0003   0.00  206.4
2022/07/05 01:20:45.000  -2488199.7197  -4673486.9072   3544649.3698   1   8   0.0004   0.0005   0.0005   0.0003  -0.0004  -0.0003   0.00  210.5
2022/07/05 01:21:00.000  -2488199.7197  -4673486.9072   3544649.3698   1   8   0.0004   0.0005   0.0005   0.0003  -0.0004  -0.0003   0.00  214.4
2022/07/05 01:21:15.000  -2488199.7197  -4673486.9072   3544649.3697   1   8   0.0004   0.0005   0.0005   0.0003  -0.0004  -0.0003   0.00  218.3
2022/07/05 01:21:30.000  -2488199.7197  -4673486.9071   3544649.3697   1   8   0.0004   0.0005   0.0005   0.0003  -0.0004  -0.0003   0.00  222.1
2022/07/05 01:21:45.000  -2488199.7197  -4673486.9071   3544649.3697   1   8   0.0004   0.0005   0.0005   0.0003  -0.0004  -0.0003   0.00  226.7
2022/07/05 01:22:00.000  -2488199.7197  -4673486.9071   3544649.3697   1   8   0.0004   0.0005   0.0005   0.0003  -0.0004  -0.0003   0.00  230.7
2022/07/05 01:22:15.000  -2488199.7197  -4673486.9070   3544649.3697   1   8   0.0004   0.0005   0.0005   0.0003  -0.0004  -0.0003   0.00  234.8
2022/07/05 01:22:30.000  -2488199.7197  -4673486.9070   3544649.3697   1   8   0.0004   0.0005   0.0005   0.0003  -0.0004  -0.0003   0.00  239.5
2022/07/05 01:22:45.000  -2488199.7196  -4673486.9070   3544649.3697   1   8   0.0004   0.0005   0.0005   0.0003  -0.0004  -0.0003   0.00  244.8
2022/07/05 01:23:00.000  -2488199.7196  -4673486.9070   3544649.3697   1   8   0.0004   0.0005   0.0005   0.0003  -0.0004  -0.0003   0.00  250.3
2022/07/05 01:23:15.000  -2488199.7196  -4673486.9070   3544649.3697   1   8   0.0004   0.0005   0.0005   0.0003  -0.0004  -0.0003   0.00  255.8
2022/07/05 01:23:30.000  -2488199.7196  -4673486.9069   3544649.3697   1   8   0.0004   0.0005   0.0005   0.0003  -0.0004  -0.0003   0.00  261.5
2022/07/05 01:23:45.000  -2488199.7196  -4673486.9069   3544649.3697   1   8   0.0004   0.0005   0.0005   0.0003  -0.0004  -0.0003   0.00  266.1
2022/07/05 01:24:00.000  -2488199.7196  -4673486.9069   3544649.3696   1   8   0.0004   0.0005   0.0005   0.0003  -0.0004  -0.0003   0.00  270.8
2022/07/05 01:24:15.000  -2488199.7196  -4673486.9069   3544649.3696   1   8   0.0004   0.0005   0.0005   0.0003  -0.0004  -0.0003   0.00  274.7
2022/07/05 01:24:30.000  -2488199.7196  -4673486.9069   3544649.3696   1   8   0.0004   0.0005   0.0005   0.0003  -0.0004  -0.0003   0.00  278.7
2022/07/05 01:24:45.000  -2488199.7196  -4673486.9069   3544649.3697   1   8   0.0004   0.0005   0.0005   0.0003  -0.0004  -0.0003   0.00  284.5
2022/07/05 01:25:00.000  -2488199.7196  -4673486.9069   3544649.3697   1   8   0.0004   0.0005   0.0005   0.0003  -0.0004  -0.0003   0.00  289.1
2022/07/05 01:25:15.000  -2488199.7196  -4673486.9069   3544649.3697   1   8   0.0004   0.0005   0.0005   0.0003  -0.0004  -0.0003   0.00  293.9
2022/07/05 01:25:30.000  -2488199.7196  -4673486.9069   3544649.3697   1   8   0.0004   0.0005   0.0005   0.0003  -0.0004  -0.0003   0.00  299.6
2022/07/05 01:25:45.000  -2488199.7195  -4673486.9069   3544649.3696   1   8   0.0004   0.0005   0.0005   0.0003  -0.0004  -0.0003   0.00  304.3
2022/07/05 01:26:00.000  -2488199.7195  -4673486.9069   3544649.3696   1   8   0.0004   0.0005   0.0005   0.0003  -0.0004  -0.0003   0.00  308.8
2022/07/05 01:26:15.000  -2488199.7195  -4673486.9069   3544649.3696   1   8   0.0004   0.0005   0.0005   0.0003  -0.0004  -0.0003   0.00  312.2
2022/07/05 01:26:30.000  -2488199.7195  -4673486.9069   3544649.3696   1   8   0.0004   0.0005   0.0005   0.0003  -0.0004  -0.0003   0.00  315.6
2022/07/05 01:26:45.000  -2488199.7195  -4673486.9069   3544649.3696   1   8   0.0004   0.0005   0.0005   0.0003  -0.0004  -0.0003   0.00  318.1
2022/07/05 01:27:00.000  -2488199.7195  -4673486.9068   3544649.3695   1   8   0.0004   0.0005   0.0005   0.0003  -0.0004  -0.0003   0.00  320.3
2022/07/05 01:27:15.000  -2488199.7195  -4673486.9068   3544649.3695   1   8   0.0004   0.0005   0.0005   0.0003  -0.0004  -0.0003   0.00  323.1
2022/07/05 01:27:30.000  -2488199.7194  -4673486.9068   3544649.3694   1   8   0.0004   0.0005   0.0005   0.0003  -0.0003  -0.0003   0.00  325.6
2022/07/05 01:27:45.000  -2488199.7194  -4673486.9067   3544649.3694   1   8   0.0004   0.0005   0.0005   0.0003  -0.0003  -0.0003   0.00  327.6
2022/07/05 01:28:00.000  -2488199.7194  -4673486.9067   3544649.3694   1   8   0.0004   0.0005   0.0005   0.0003  -0.0003  -0.0003   0.00  331.0
2022/07/05 01:28:15.000  -2488199.7194  -4673486.9067   3544649.3694   1   8   0.0004   0.0005   0.0005   0.0003  -0.0003  -0.0003   0.00  334.7
2022/07/05 01:28:30.000  -2488199.7194  -4673486.9067   3544649.3693   1   8   0.0004   0.0005   0.0005   0.0003  -0.0003  -0.0003   0.00  338.5
2022/07/05 01:28:45.000  -2488199.7194  -4673486.9067   3544649.3693   1   8   0.0004   0.0005   0.0005   0.0003  -0.0003  -0.0003   0.00  340.4
2022/07/05 01:29:00.000  -2488199.7193  -4673486.9066   3544649.3693   1   8   0.0004   0.0005   0.0005   0.0003  -0.0003  -0.0003   0.00  343.0
2022/07/05 01:29:15.000  -2488199.7193  -4673486.9066   3544649.3693   1   8   0.0004   0.0005   0.0005   0.0003  -0.0003  -0.0003   0.00  344.2
2022/07/05 01:29:30.000  -2488199.7199  -4673486.9072   3544649.3706   2   9   0.0004   0.0006   0.0005   0.0004  -0.0004  -0.0003   0.00    1.5
2022/07/05 01:29:45.000  -2488199.7199  -4673486.9072   3544649.3706   2   9   0.0004   0.0006   0.0005   0.0004  -0.0004  -0.0003   0.00    2.1
2022/07/05 01:30:00.000  -2488199.7199  -4673486.9071   3544649.3706   2   9   0.0004   0.0006   0.0005   0.0004  -0.0004  -0.0003   0.00    2.6
2022/07/05 01:30:15.000  -2488199.7193  -4673486.9064   3544649.3692   1   9   0.0004   0.0005   0.0005   0.0003  -0.0003  -0.0003   0.00    3.1
2022/07/05 01:30:30.000  -2488199.7192  -4673486.9064   3544649.3692   1   9   0.0004   0.0005   0.0005   0.0003  -0.0003  -0.0003   0.00    3.6
2022/07/05 01:30:45.000  -2488199.7192  -4673486.9063   3544649.3692   1   9   0.0004   0.0005   0.0005   0.0003  -0.0003  -0.0003   0.00    4.1
2022/07/05 01:31:00.000  -2488199.7192  -4673486.9063   3544649.3691   1   9   0.0004   0.0005   0.0005   0.0003  -0.0003  -0.0003   0.00    4.7
2022/07/05 01:31:15.000  -2488199.7192  -4673486.9063   3544649.3691   1   9   0.0004   0.0005   0.0005   0.0003  -0.0003  -0.0003   0.00    5.2
2022/07/05 01:31:30.000  -2488199.7192  -4673486.9063   3544649.3691   1   9   0.0004   0.0005   0.0005   0.0003  -0.0003  -0.0003   0.00    5.8
2022/07/05 01:31:45.000  -2488199.7192  -4673486.9063   3544649.3691   1   9   0.0004   0.0005   0.0005   0.0003  -0.0003  -0.0003   0.00    6.4
2022/07/05 01:32:00.000  -2488199.7192  -4673486.9063   3544649.3690   1   9   0.0004   0.0005   0.0005   0.0003  -0.0003  -0.0003   0.00    7.0
2022/07/05 01:32:15.000  -2488199.7192  -4673486.9063   3544649.3690   1   9   0.0004   0.0005   0.0005   0.0003  -0.0003  -0.0003   0.00    7.5
2022/07/05 01:32:30.000  -2488199.7191  -4673486.9063   3544649.3690   1   9   0.0004   0.0005   0.0005   0.0003  -0.0003  -0.0003   0.00    8.0
2022/07/05 01:32:45.000  -2488199.7191  -4673486.9063   3544649.3690   1   9   0.0004   0.0005   0.0005   0.0003  -0.0003  -0.0003   0.00   42.8
2022/07/05 01:33:00.000  -2488199.7191  -4673486.9063   3544649.3690   1   9   0.0004   0.0005   0.0005   0.0003  -0.0003  -0.0003   0.00   77.3
2022/07/05 01:33:15.000  -2488199.7191  -4673486.9063   3544649.3690   1   9   0.0004   0.0005   0.0005   0.0003  -0.0003  -0.0003   0.00  111.6
2022/07/05 01:33:30.000  -2488199.7191  -4673486.9063   3544649.3690   1   9   0.0004   0.0005   0.0005   0.0003  -0.0003  -0.0003   0.00  145.8
2022/07/05 01:33:45.000  -2488199.7191  -4673486.9063   3544649.3689   1   9   0.0004   0.0005   0.0005   0.0003  -0.0003  -0.0003   0.00  179.9
2022/07/05 01:34:00.000  -2488199.7191  -4673486.9063   3544649.3689   1   9   0.0004   0.0005   0.0005   0.0003  -0.0003  -0.0003   0.00  214.0
2022/07/05 01:34:15.000  -2488199.7191  -4673486.9063   3544649.3689   1   9   0.0004   0.0005   0.0004   0.0003  -0.0003  -0.0003   0.00  247.5
2022/07/05 01:34:30.000  -2488199.7191  -4673486.9063   3544649.3689   1   9   0.0004   0.0005   0.0004   0.0003  -0.0003  -0.0003   0.00  279.3
2022/07/05 01:34:45.000  -2488199.7191  -4673486.9063   3544649.3688   1   9   0.0004   0.0005   0.0004   0.0003  -0.0003  -0.0003   0.00  307.1
2022/07/05 01:35:00.000  -2488199.7191  -4673486.9063   3544649.3688   1   9   0.0004   0.0005   0.0004   0.0003  -0.0003  -0.0003   0.00  307.7
2022/07/05 01:35:15.000  -2488199.7191  -4673486.9063   3544649.3688   1   9   0.0004   0.0005   0.0004   0.0003  -0.0003  -0.0003   0.00  309.9
2022/07/05 01:35:30.000  -2488199.7190  -4673486.9063   3544649.3688   1   9   0.0004   0.0005   0.0004   0.0003  -0.0003  -0.0003   0.00  311.8
2022/07/05 01:35:45.000  -2488199.7190  -4673486.9063   3544649.3687   1   9   0.0004   0.0005   0.0004   0.0003  -0.0003  -0.0003   0.00  313.5
2022/07/05 01:36:00.000  -2488199.7190  -4673486.9063   3544649.3687   1   9   0.0004   0.0005   0.0004   0.0003  -0.0003  -0.0003   0.00  314.7
2022/07/05 01:36:15.000  -2488199.7190  -4673486.9063   3544649.3687   1   9   0.0004   0.0005   0.0004   0.0003  -0.0003  -0.0003   0.00  316.1
2022/07/05 01:36:30.000  -2488199.7190  -4673486.9063   3544649.3687   1   9   0.0004   0.0005   0.0004   0.0003  -0.0003  -0.0003   0.00  318.5
2022/07/05 01:36:45.000  -2488199.7190  -4673486.9063   3544649.3687   1   9   0.0004   0.0005   0.0004   0.0003  -0.0003  -0.0003   0.00  320.1
2022/07/05 01:37:00.000  -2488199.7190  -4673486.9063   3544649.3686   1   9   0.0003   0.0005   0.0004   0.0003  -0.0003  -0.0003   0.00  322.2
2022/07/05 01:37:15.000  -2488199.7190  -4673486.9062   3544649.3686   1   9   0.0003   0.0005   0.0004   0.0003  -0.0003  -0.0003   0.00  324.7
2022/07/05 01:37:30.000  -2488199.7189  -4673486.9062   3544649.3686   1   9   0.0003   0.0005   0.0004   0.0003  -0.0003  -0.0003   0.00  327.4
2022/07/05 01:37:45.000  -2488199.7189  -4673486.9062   3544649.3686   1   9   0.0003   0.0005   0.0004   0.0003  -0.0003  -0.0003   0.00  330.3
2022/07/05 01:38:00.000  -2488199.7189  -4673486.9062   3544649.3686   1   9   0.0003   0.0005   0.0004   0.0003  -0.0003  -0.0003   0.00  332.9
2022/07/05 01:38:15.000  -2488199.7189  -4673486.9062   3544649.3686   1   9   0.0003   0.0005   0.0004   0.0003  -0.0003  -0.0003   0.00  335.7
2022/07/05 01:38:30.000  -2488199.7188  -4673486.9061   3544649.3685   1   9   0.0003   0.0005   0.0004   0.0003  -0.0003  -0.0003   0.00  337.7
2022/07/05 01:38:45.000  -2488199.7188  -4673486.9061   3544649.3685   1   9   0.0003   0.0005   0.0004   0.0003  -0.0003  -0.0003   0.00  340.7
2022/07/05 01:39:00.000  -2488199.7188  -4673486.9061   3544649.3685   1   9   0.0003   0.0005   0.0004   0.0003  -0.0003  -0.0003   0.00  343.7
2022/07/05 01:39:15.000  -2488199.7188  -4673486.9060   3544649.3684   1   9   0.0003   0.0005   0.0004   0.0003  -0.0003  -0.0003   0.00  347.7
2022/07/05 01:39:30.000  -2488199.7187  -4673486.9060   3544649.3684   1   9   0.0003   0.0005   0.0004   0.0003  -0.0003  -0.0003   0.00  352.3
2022/07/05 01:39:45.000  -2488199.7187  -4673486.9059   3544649.3684   1   9   0.0003   0.0005   0.0004   0.0003  -0.0003  -0.0003   0.00  354.9
2022/07/05 01:40:00.000  -2488199.7187  -4673486.9059   3544649.3684   1   9   0.0003   0.0005   0.0004   0.0003  -0.0003  -0.0003   0.00  358.9
2022/07/05 01:40:15.000  -2488199.7187  -4673486.9059   3544649.3684   1   9   0.0003   0.0005   0.0004   0.0003  -0.0003  -0.0003   0.00  364.9
2022/07/05 01:40:30.000  -2488199.7187  -4673486.9058   3544649.3684   1   9   0.0003   0.0005   0.0004   0.0003  -0.0003  -0.0003   0.00  368.5
2022/07/05 01:40:45.000  -2488199.7187  -4673486.9058   3544649.3684   1   9   0.0003   0.0005   0.0004   0.0003  -0.0003  -0.0003   0.00  374.2
