% program   : RTKPOST ver.2.4.3 b34
% inp file  : C:\Users\89231\Documents\Учеба\Диссертация\Данные\Лос-Анджелес 03-05.07.22\04.07.2022\cit11850.22o
% inp file  : C:\Users\89231\Documents\Учеба\Диссертация\Данные\Лос-Анджелес 03-05.07.22\04.07.2022\jplm1850.22o
% inp file  : C:\Users\89231\Documents\Учеба\Диссертация\Данные\Лос-Анджелес 03-05.07.22\04.07.2022\jplm1850.22n
% inp file  : C:\Users\89231\Documents\Учеба\Диссертация\Данные\Лос-Анджелес 03-05.07.22\04.07.2022\igs22171.sp3
% obs start : 2022/07/04 00:00:00.0 GPST (week2217  86400.0s)
% obs end   : 2022/07/04 23:59:45.0 GPST (week2217 172785.0s)
% pos mode  : Static
% freqs     : L1+2
% solution  : Forward
% elev mask : 15.0 deg
% dynamics  : off
% tidecorr  : off
% ionos opt : Broadcast
% tropo opt : Saastamoinen
% ephemeris : Precise
% navi sys  : GPS
% amb res   : Fix and Hold
% val thres : 3.0
% antenna1  :                       ( 0.0000  0.0000  0.0000)
% antenna2  :                       ( 0.0000  0.0000  0.0610)
% ref pos   : -2493304.7034  -4655215.1477   3565497.6261
%
% (x/y/z-ecef=WGS84,Q=1:fix,2:float,3:sbas,4:dgps,5:single,6:ppp,ns=# of satellites)
%  GPST                      x-ecef(m)      y-ecef(m)      z-ecef(m)   Q  ns   sdx(m)   sdy(m)   sdz(m)  sdxy(m)  sdyz(m)  sdzx(m) age(s)  ratio
2022/07/04 00:00:00.000  -2491490.4384  -4660803.1782   3559129.1110   1   8   0.0053   0.0101   0.0076   0.0057  -0.0074  -0.0049   0.00   17.1
2022/07/04 00:00:15.000  -2491490.4380  -4660803.1777   3559129.1107   1   8   0.0049   0.0095   0.0072   0.0053  -0.0070  -0.0046  15.00   17.1
2022/07/04 00:00:30.000  -2491490.4370  -4660803.1761   3559129.1089   1   8   0.0036   0.0069   0.0052   0.0039  -0.0051  -0.0033   0.00   18.3
2022/07/04 00:00:45.000  -2491490.4365  -4660803.1768   3559129.1092   1   8   0.0035   0.0067   0.0051   0.0038  -0.0049  -0.0032  15.00   16.5
2022/07/04 00:01:00.000  -2491490.4351  -4660803.1749   3559129.1087   1   8   0.0029   0.0056   0.0042   0.0031  -0.0041  -0.0027   0.00   18.9
2022/07/04 00:01:15.000  -2491490.4344  -4660803.1723   3559129.1080   1   8   0.0028   0.0055   0.0041   0.0031  -0.0040  -0.0027  15.00   17.3
2022/07/04 00:01:30.000  -2491490.4334  -4660803.1725   3559129.1076   1   8   0.0025   0.0048   0.0036   0.0027  -0.0035  -0.0023   0.00   21.2
2022/07/04 00:01:45.000  -2491490.4333  -4660803.1733   3559129.1082   1   8   0.0025   0.0047   0.0036   0.0027  -0.0035  -0.0023  15.00   22.4
2022/07/04 00:02:00.000  -2491490.4329  -4660803.1734   3559129.1085   1   8   0.0022   0.0043   0.0032   0.0024  -0.0032  -0.0021   0.00   22.7
2022/07/04 00:02:15.000  -2491490.4325  -4660803.1725   3559129.1083   1   8   0.0022   0.0042   0.0032   0.0024  -0.0031  -0.0021  15.00   22.6
2022/07/04 00:02:30.000  -2491490.4320  -4660803.1733   3559129.1084   1   8   0.0020   0.0039   0.0030   0.0022  -0.0029  -0.0019   0.00  223.6
2022/07/04 00:02:45.000  -2491490.4318  -4660803.1729   3559129.1083   1   8   0.0020   0.0039   0.0029   0.0022  -0.0029  -0.0019  15.00  423.4
2022/07/04 00:03:00.000  -2491490.4314  -4660803.1728   3559129.1080   1   8   0.0019   0.0036   0.0027   0.0020  -0.0027  -0.0018   0.00  510.5
2022/07/04 00:03:15.000  -2491490.4312  -4660803.1734   3559129.1083   1   8   0.0019   0.0036   0.0027   0.0020  -0.0026  -0.0017  15.00  715.0
2022/07/04 00:03:30.000  -2491490.4310  -4660803.1735   3559129.1078   1   8   0.0018   0.0034   0.0026   0.0019  -0.0025  -0.0016   0.00  723.3
2022/07/04 00:03:45.000  -2491490.4308  -4660803.1740   3559129.1079   1   8   0.0017   0.0033   0.0025   0.0019  -0.0025  -0.0016  15.00  907.8
2022/07/04 00:04:00.000  -2491490.4308  -4660803.1741   3559129.1076   1   8   0.0017   0.0032   0.0024   0.0018  -0.0023  -0.0015   0.00  820.1
2022/07/04 00:04:15.000  -2491490.4307  -4660803.1746   3559129.1077   1   8   0.0016   0.0031   0.0024   0.0018  -0.0023  -0.0015  15.00  967.9
2022/07/04 00:04:30.000  -2491490.4305  -4660803.1749   3559129.1074   1   8   0.0016   0.0030   0.0023   0.0017  -0.0022  -0.0015   0.00  953.4
2022/07/04 00:04:45.000  -2491490.4304  -4660803.1754   3559129.1075   1   8   0.0016   0.0030   0.0023   0.0017  -0.0022  -0.0015  15.00  999.9
2022/07/04 00:05:00.000  -2491490.4305  -4660803.1757   3559129.1071   1   8   0.0015   0.0029   0.0022   0.0016  -0.0021  -0.0014   0.00  999.9
2022/07/04 00:05:15.000  -2491490.4304  -4660803.1758   3559129.1071   1   8   0.0015   0.0028   0.0022   0.0016  -0.0021  -0.0014  15.00  999.9
2022/07/04 00:05:30.000  -2491490.4302  -4660803.1757   3559129.1063   1   8   0.0014   0.0027   0.0021   0.0015  -0.0020  -0.0013   0.00  999.9
2022/07/04 00:05:45.000  -2491490.4301  -4660803.1756   3559129.1062   1   8   0.0014   0.0027   0.0021   0.0015  -0.0020  -0.0013  15.00  999.9
2022/07/04 00:06:00.000  -2491490.4302  -4660803.1760   3559129.1055   1   8   0.0014   0.0026   0.0020   0.0015  -0.0019  -0.0013   0.00  999.9
2022/07/04 00:06:15.000  -2491490.4301  -4660803.1762   3559129.1056   1   8   0.0014   0.0026   0.0020   0.0015  -0.0019  -0.0013  15.00  999.9
2022/07/04 00:06:30.000  -2491490.4301  -4660803.1761   3559129.1050   1   8   0.0013   0.0025   0.0019   0.0014  -0.0019  -0.0012   0.00  999.9
2022/07/04 00:06:45.000  -2491490.4301  -4660803.1766   3559129.1050   1   8   0.0013   0.0025   0.0019   0.0014  -0.0019  -0.0012  15.00  999.9
2022/07/04 00:07:00.000  -2491490.4304  -4660803.1766   3559129.1046   1   8   0.0013   0.0024   0.0019   0.0014  -0.0018  -0.0012   0.00  999.9
2022/07/04 00:07:15.000  -2491490.4303  -4660803.1765   3559129.1045   1   8   0.0013   0.0024   0.0019   0.0014  -0.0018  -0.0012  15.00  999.9
2022/07/04 00:07:30.000  -2491490.4303  -4660803.1760   3559129.1038   1   8   0.0012   0.0024   0.0018   0.0013  -0.0018  -0.0012   0.00  999.9
2022/07/04 00:07:45.000  -2491490.4303  -4660803.1759   3559129.1039   1   8   0.0012   0.0024   0.0018   0.0013  -0.0018  -0.0012  15.00  999.9
2022/07/04 00:08:00.000  -2491490.4304  -4660803.1757   3559129.1034   1   8   0.0012   0.0023   0.0018   0.0013  -0.0017  -0.0011   0.00  999.9
2022/07/04 00:08:15.000  -2491490.4304  -4660803.1755   3559129.1034   1   8   0.0012   0.0023   0.0018   0.0013  -0.0017  -0.0011  15.00  999.9
2022/07/04 00:08:30.000  -2491490.4306  -4660803.1754   3559129.1032   1   8   0.0012   0.0022   0.0017   0.0012  -0.0017  -0.0011   0.00  999.9
2022/07/04 00:08:45.000  -2491490.4306  -4660803.1753   3559129.1031   1   8   0.0012   0.0022   0.0017   0.0012  -0.0017  -0.0011  15.00  999.9
2022/07/04 00:09:00.000  -2491490.4307  -4660803.1749   3559129.1025   1   8   0.0011   0.0022   0.0017   0.0012  -0.0016  -0.0011   0.00  999.9
2022/07/04 00:09:15.000  -2491490.4306  -4660803.1748   3559129.1025   1   8   0.0011   0.0022   0.0017   0.0012  -0.0016  -0.0011  15.00  999.9
2022/07/04 00:09:30.000  -2491490.4306  -4660803.1745   3559129.1022   1   8   0.0011   0.0021   0.0016   0.0012  -0.0016  -0.0010   0.00  999.9
2022/07/04 00:09:45.000  -2491490.4306  -4660803.1744   3559129.1021   1   8   0.0011   0.0021   0.0016   0.0012  -0.0016  -0.0010  15.00  999.9
2022/07/04 00:10:00.000  -2491490.4306  -4660803.1740   3559129.1017   1   8   0.0011   0.0021   0.0016   0.0011  -0.0015  -0.0010   0.00  999.9
2022/07/04 00:10:15.000  -2491490.4305  -4660803.1740   3559129.1017   1   8   0.0011   0.0021   0.0016   0.0011  -0.0015  -0.0010  15.00  999.9
2022/07/04 00:10:30.000  -2491490.4305  -4660803.1737   3559129.1013   1   8   0.0011   0.0020   0.0016   0.0011  -0.0015  -0.0010   0.00  999.9
2022/07/04 00:10:45.000  -2491490.4304  -4660803.1736   3559129.1013   1   8   0.0010   0.0020   0.0016   0.0011  -0.0015  -0.0010  15.00  999.9
2022/07/04 00:11:00.000  -2491490.4303  -4660803.1733   3559129.1010   1   8   0.0010   0.0020   0.0015   0.0011  -0.0015  -0.0010   0.00  999.9
2022/07/04 00:11:15.000  -2491490.4303  -4660803.1732   3559129.1009   1   8   0.0010   0.0020   0.0015   0.0011  -0.0015  -0.0010  15.00  999.9
2022/07/04 00:11:30.000  -2491490.4303  -4660803.1732   3559129.1006   1   8   0.0010   0.0019   0.0015   0.0011  -0.0014  -0.0009   0.00  999.9
2022/07/04 00:11:45.000  -2491490.4302  -4660803.1733   3559129.1006   1   8   0.0010   0.0019   0.0015   0.0011  -0.0014  -0.0009  15.00  999.9
2022/07/04 00:12:00.000  -2491490.4301  -4660803.1736   3559129.1004   1   8   0.0010   0.0019   0.0015   0.0010  -0.0014  -0.0009   0.00  999.9
2022/07/04 00:12:15.000  -2491490.4301  -4660803.1735   3559129.1003   1   8   0.0010   0.0019   0.0015   0.0010  -0.0014  -0.0009  15.00  999.9
2022/07/04 00:12:30.000  -2491490.4297  -4660803.1734   3559129.1000   1   8   0.0010   0.0019   0.0015   0.0010  -0.0014  -0.0009   0.00  999.9
2022/07/04 00:12:45.000  -2491490.4296  -4660803.1734   3559129.0999   1   8   0.0010   0.0019   0.0015   0.0010  -0.0014  -0.0009  15.00  999.9
2022/07/04 00:13:00.000  -2491490.4293  -4660803.1732   3559129.0996   1   8   0.0010   0.0018   0.0014   0.0010  -0.0014  -0.0009   0.00  999.9
2022/07/04 00:13:15.000  -2491490.4291  -4660803.1729   3559129.0995   1   8   0.0009   0.0018   0.0014   0.0010  -0.0014  -0.0009  15.00  999.9
2022/07/04 00:13:30.000  -2491490.4289  -4660803.1728   3559129.0991   1   8   0.0009   0.0018   0.0014   0.0010  -0.0013  -0.0009   0.00  999.9
2022/07/04 00:13:45.000  -2491490.4288  -4660803.1727   3559129.0991   1   8   0.0009   0.0018   0.0014   0.0010  -0.0013  -0.0009  15.00  999.9
2022/07/04 00:14:00.000  -2491490.4285  -4660803.1727   3559129.0989   1   8   0.0009   0.0018   0.0014   0.0010  -0.0013  -0.0009   0.00  999.9
2022/07/04 00:14:15.000  -2491490.4284  -4660803.1727   3559129.0988   1   8   0.0009   0.0018   0.0014   0.0010  -0.0013  -0.0009  15.00  999.9
2022/07/04 00:14:30.000  -2491490.4282  -4660803.1727   3559129.0986   1   8   0.0009   0.0017   0.0014   0.0010  -0.0013  -0.0009   0.00  999.9
2022/07/04 00:14:45.000  -2491490.4281  -4660803.1726   3559129.0985   1   8   0.0009   0.0017   0.0014   0.0010  -0.0013  -0.0009  15.00  999.9
2022/07/04 00:15:00.000  -2491490.4279  -4660803.1726   3559129.0983   1   8   0.0009   0.0017   0.0013   0.0009  -0.0013  -0.0008   0.00  999.9
2022/07/04 00:15:15.000  -2491490.4278  -4660803.1725   3559129.0982   1   8   0.0009   0.0017   0.0013   0.0009  -0.0013  -0.0008  15.00  999.9
2022/07/04 00:15:30.000  -2491490.4275  -4660803.1724   3559129.0980   1   8   0.0009   0.0017   0.0013   0.0009  -0.0012  -0.0008   0.00  999.9
2022/07/04 00:15:45.000  -2491490.4275  -4660803.1724   3559129.0979   1   8   0.0009   0.0017   0.0013   0.0009  -0.0012  -0.0008  15.00  999.9
2022/07/04 00:16:00.000  -2491490.4272  -4660803.1723   3559129.0977   1   8   0.0009   0.0016   0.0013   0.0009  -0.0012  -0.0008   0.00  999.9
2022/07/04 00:16:15.000  -2491490.4272  -4660803.1723   3559129.0976   1   8   0.0009   0.0016   0.0013   0.0009  -0.0012  -0.0008  15.00  999.9
2022/07/04 00:16:30.000  -2491490.4269  -4660803.1721   3559129.0973   1   8   0.0008   0.0016   0.0013   0.0009  -0.0012  -0.0008   0.00  999.9
2022/07/04 00:16:45.000  -2491490.4268  -4660803.1723   3559129.0973   1   8   0.0008   0.0016   0.0013   0.0009  -0.0012  -0.0008  15.00  999.9
2022/07/04 00:17:00.000  -2491490.4266  -4660803.1723   3559129.0971   1   8   0.0008   0.0016   0.0013   0.0009  -0.0012  -0.0008   0.00  999.9
2022/07/04 00:17:15.000  -2491490.4265  -4660803.1723   3559129.0970   1   8   0.0008   0.0016   0.0013   0.0009  -0.0012  -0.0008  15.00  999.9
2022/07/04 00:17:30.000  -2491490.4263  -4660803.1720   3559129.0966   1   8   0.0008   0.0016   0.0013   0.0009  -0.0012  -0.0008   0.00  999.9
2022/07/04 00:17:45.000  -2491490.4262  -4660803.1720   3559129.0966   1   8   0.0008   0.0016   0.0013   0.0009  -0.0012  -0.0008  15.00  999.9
2022/07/04 00:18:00.000  -2491490.4260  -4660803.1718   3559129.0962   1   8   0.0008   0.0016   0.0012   0.0009  -0.0012  -0.0008   0.00  999.9
2022/07/04 00:18:15.000  -2491490.4259  -4660803.1717   3559129.0961   1   8   0.0008   0.0016   0.0012   0.0009  -0.0012  -0.0008  15.00  999.9
2022/07/04 00:18:30.000  -2491490.4257  -4660803.1716   3559129.0957   1   8   0.0008   0.0015   0.0012   0.0008  -0.0011  -0.0008   0.00  999.9
2022/07/04 00:18:45.000  -2491490.4256  -4660803.1717   3559129.0957   1   8   0.0008   0.0015   0.0012   0.0008  -0.0011  -0.0008  15.00  999.9
2022/07/04 00:19:00.000  -2491490.4253  -4660803.1716   3559129.0953   1   8   0.0008   0.0015   0.0012   0.0008  -0.0011  -0.0008   0.00  999.9
2022/07/04 00:19:15.000  -2491490.4252  -4660803.1716   3559129.0953   1   8   0.0008   0.0015   0.0012   0.0008  -0.0011  -0.0008  15.00  999.9
2022/07/04 00:19:30.000  -2491490.4250  -4660803.1717   3559129.0950   1   8   0.0008   0.0015   0.0012   0.0008  -0.0011  -0.0007   0.00  999.9
2022/07/04 00:19:45.000  -2491490.4250  -4660803.1717   3559129.0949   1   8   0.0008   0.0015   0.0012   0.0008  -0.0011  -0.0007  15.00  999.9
2022/07/04 00:20:00.000  -2491490.4248  -4660803.1718   3559129.0947   1   8   0.0008   0.0015   0.0012   0.0008  -0.0011  -0.0007   0.00  999.9
2022/07/04 00:20:15.000  -2491490.4247  -4660803.1718   3559129.0946   1   8   0.0008   0.0015   0.0012   0.0008  -0.0011  -0.0007  15.00  999.9
2022/07/04 00:20:30.000  -2491490.4246  -4660803.1719   3559129.0944   1   8   0.0008   0.0015   0.0012   0.0008  -0.0011  -0.0007   0.00  999.9
2022/07/04 00:20:45.000  -2491490.4245  -4660803.1719   3559129.0943   1   8   0.0008   0.0015   0.0012   0.0008  -0.0011  -0.0007  15.00  999.9
2022/07/04 00:21:00.000  -2491490.4243  -4660803.1720   3559129.0940   1   8   0.0008   0.0014   0.0012   0.0008  -0.0011  -0.0007   0.00  999.9
2022/07/04 00:21:15.000  -2491490.4243  -4660803.1720   3559129.0940   1   8   0.0008   0.0014   0.0012   0.0008  -0.0011  -0.0007  15.00  999.9
2022/07/04 00:21:30.000  -2491490.4241  -4660803.1721   3559129.0937   1   8   0.0008   0.0014   0.0012   0.0008  -0.0011  -0.0007   0.00  999.9
2022/07/04 00:21:45.000  -2491490.4240  -4660803.1720   3559129.0936   1   8   0.0007   0.0014   0.0012   0.0008  -0.0011  -0.0007  15.00  999.9
2022/07/04 00:22:00.000  -2491490.4245  -4660803.1725   3559129.0942   1   8   0.0008   0.0014   0.0012   0.0008  -0.0011  -0.0007   0.00    3.2
2022/07/04 00:22:15.000  -2491490.4244  -4660803.1724   3559129.0941   1   8   0.0008   0.0014   0.0012   0.0008  -0.0011  -0.0007  15.00   24.9
2022/07/04 00:22:30.000  -2491490.4242  -4660803.1728   3559129.0939   1   8   0.0008   0.0014   0.0012   0.0008  -0.0010  -0.0007   0.00   41.0
2022/07/04 00:22:45.000  -2491490.4242  -4660803.1729   3559129.0933   2   9   0.0008   0.0015   0.0013   0.0009  -0.0012  -0.0008  15.00    1.4
2022/07/04 00:23:00.000  -2491490.4242  -4660803.1733   3559129.0933   2   9   0.0008   0.0015   0.0013   0.0008  -0.0011  -0.0008   0.00    2.5
2022/07/04 00:23:15.000  -2491490.4242  -4660803.1733   3559129.0933   2   9   0.0008   0.0015   0.0013   0.0008  -0.0011  -0.0008  15.00    2.6
2022/07/04 00:23:30.000  -2491490.4239  -4660803.1741   3559129.0937   1   9   0.0007   0.0014   0.0011   0.0007  -0.0010  -0.0007   0.00    3.0
2022/07/04 00:23:45.000  -2491490.4238  -4660803.1742   3559129.0936   1   9   0.0007   0.0014   0.0011   0.0007  -0.0010  -0.0007  15.00    3.1
2022/07/04 00:24:00.000  -2491490.4236  -4660803.1747   3559129.0935   1   9   0.0007   0.0013   0.0011   0.0007  -0.0010  -0.0007   0.00    3.4
2022/07/04 00:24:15.000  -2491490.4236  -4660803.1749   3559129.0935   1   9   0.0007   0.0013   0.0011   0.0007  -0.0010  -0.0007  15.00    3.4
2022/07/04 00:24:30.000  -2491490.4235  -4660803.1753   3559129.0934   1   9   0.0007   0.0013   0.0011   0.0007  -0.0010  -0.0007   0.00    3.7
2022/07/04 00:24:45.000  -2491490.4234  -4660803.1754   3559129.0934   1   9   0.0007   0.0013   0.0011   0.0007  -0.0010  -0.0007  15.00    3.7
2022/07/04 00:25:00.000  -2491490.4233  -4660803.1757   3559129.0933   1   9   0.0007   0.0013   0.0011   0.0007  -0.0010  -0.0007   0.00    3.9
2022/07/04 00:25:15.000  -2491490.4232  -4660803.1758   3559129.0932   1   9   0.0007   0.0013   0.0011   0.0007  -0.0010  -0.0007  15.00    3.9
2022/07/04 00:25:30.000  -2491490.4230  -4660803.1760   3559129.0929   1   9   0.0007   0.0013   0.0011   0.0007  -0.0010  -0.0007   0.00    4.1
2022/07/04 00:25:45.000  -2491490.4230  -4660803.1760   3559129.0928   1   9   0.0007   0.0013   0.0011   0.0007  -0.0010  -0.0007  15.00    4.2
2022/07/04 00:26:00.000  -2491490.4228  -4660803.1762   3559129.0926   1   9   0.0007   0.0013   0.0011   0.0007  -0.0010  -0.0007   0.00    9.3
2022/07/04 00:26:15.000  -2491490.4227  -4660803.1762   3559129.0925   1   9   0.0007   0.0013   0.0011   0.0007  -0.0010  -0.0007  15.00   14.8
2022/07/04 00:26:30.000  -2491490.4226  -4660803.1765   3559129.0924   1   9   0.0007   0.0012   0.0011   0.0007  -0.0009  -0.0007   0.00   20.3
2022/07/04 00:26:45.000  -2491490.4225  -4660803.1766   3559129.0923   1   9   0.0007   0.0012   0.0011   0.0007  -0.0009  -0.0007  15.00   26.4
2022/07/04 00:27:00.000  -2491490.4224  -4660803.1769   3559129.0923   1   9   0.0007   0.0012   0.0011   0.0007  -0.0009  -0.0006   0.00   32.0
2022/07/04 00:27:15.000  -2491490.4224  -4660803.1770   3559129.0923   1   9   0.0007   0.0012   0.0011   0.0007  -0.0009  -0.0006  15.00   38.4
2022/07/04 00:27:30.000  -2491490.4223  -4660803.1772   3559129.0922   1   9   0.0007   0.0012   0.0010   0.0007  -0.0009  -0.0006   0.00   44.4
2022/07/04 00:27:45.000  -2491490.4223  -4660803.1772   3559129.0922   1   9   0.0007   0.0012   0.0010   0.0007  -0.0009  -0.0006  15.00   50.7
2022/07/04 00:28:00.000  -2491490.4223  -4660803.1775   3559129.0923   1   9   0.0007   0.0012   0.0010   0.0007  -0.0009  -0.0006   0.00   57.4
2022/07/04 00:28:15.000  -2491490.4222  -4660803.1775   3559129.0922   1   9   0.0007   0.0012   0.0010   0.0007  -0.0009  -0.0006  15.00   64.6
2022/07/04 00:28:30.000  -2491490.4222  -4660803.1777   3559129.0923   1   9   0.0007   0.0012   0.0010   0.0007  -0.0009  -0.0006   0.00   70.5
2022/07/04 00:28:45.000  -2491490.4221  -4660803.1777   3559129.0922   1   9   0.0007   0.0012   0.0010   0.0007  -0.0009  -0.0006  15.00   78.1
2022/07/04 00:29:00.000  -2491490.4221  -4660803.1778   3559129.0923   1   9   0.0007   0.0012   0.0010   0.0006  -0.0009  -0.0006   0.00   83.6
2022/07/04 00:29:15.000  -2491490.4220  -4660803.1778   3559129.0922   1   9   0.0007   0.0012   0.0010   0.0006  -0.0009  -0.0006  15.00   90.9
2022/07/04 00:29:30.000  -2491490.4219  -4660803.1779   3559129.0923   1   9   0.0007   0.0012   0.0010   0.0006  -0.0009  -0.0006   0.00   96.8
2022/07/04 00:29:45.000  -2491490.4219  -4660803.1779   3559129.0923   1   9   0.0007   0.0012   0.0010   0.0006  -0.0009  -0.0006  15.00  104.5
2022/07/04 00:30:00.000  -2491490.4218  -4660803.1780   3559129.0924   1   9   0.0006   0.0011   0.0010   0.0006  -0.0009  -0.0006   0.00  111.0
2022/07/04 00:30:15.000  -2491490.4218  -4660803.1779   3559129.0923   1   9   0.0006   0.0011   0.0010   0.0006  -0.0009  -0.0006  15.00  118.1
2022/07/04 00:30:30.000  -2491490.4217  -4660803.1779   3559129.0924   1   9   0.0006   0.0011   0.0010   0.0006  -0.0009  -0.0006   0.00  124.6
2022/07/04 00:30:45.000  -2491490.4217  -4660803.1779   3559129.0923   1   9   0.0006   0.0011   0.0010   0.0006  -0.0009  -0.0006  15.00  132.6
2022/07/04 00:31:00.000  -2491490.4216  -4660803.1778   3559129.0923   1   9   0.0006   0.0011   0.0010   0.0006  -0.0009  -0.0006   0.00  140.3
2022/07/04 00:31:15.000  -2491490.4216  -4660803.1779   3559129.0922   1   9   0.0006   0.0011   0.0010   0.0006  -0.0009  -0.0006  15.00  148.5
2022/07/04 00:31:30.000  -2491490.4215  -4660803.1778   3559129.0922   1   9   0.0006   0.0011   0.0010   0.0006  -0.0008  -0.0006   0.00  154.8
2022/07/04 00:31:45.000  -2491490.4215  -4660803.1777   3559129.0922   1   9   0.0006   0.0011   0.0010   0.0006  -0.0008  -0.0006  15.00  163.1
2022/07/04 00:32:00.000  -2491490.4214  -4660803.1777   3559129.0921   1   9   0.0006   0.0011   0.0010   0.0006  -0.0008  -0.0006   0.00  171.4
2022/07/04 00:32:15.000  -2491490.4214  -4660803.1777   3559129.0921   1   9   0.0006   0.0011   0.0010   0.0006  -0.0008  -0.0006  15.00  179.7
2022/07/04 00:32:30.000  -2491490.4213  -4660803.1776   3559129.0920   1   9   0.0006   0.0011   0.0010   0.0006  -0.0008  -0.0006   0.00  185.6
2022/07/04 00:32:45.000  -2491490.4212  -4660803.1776   3559129.0919   1   9   0.0006   0.0011   0.0010   0.0006  -0.0008  -0.0006  15.00  193.7
2022/07/04 00:33:00.000  -2491490.4211  -4660803.1774   3559129.0918   1   9   0.0006   0.0011   0.0010   0.0006  -0.0008  -0.0006   0.00  202.6
2022/07/04 00:33:15.000  -2491490.4211  -4660803.1773   3559129.0917   1   9   0.0006   0.0011   0.0010   0.0006  -0.0008  -0.0006  15.00  212.0
2022/07/04 00:33:30.000  -2491490.4209  -4660803.1772   3559129.0916   1   9   0.0006   0.0011   0.0010   0.0006  -0.0008  -0.0006   0.00  218.2
2022/07/04 00:33:45.000  -2491490.4209  -4660803.1772   3559129.0915   1   9   0.0006   0.0011   0.0010   0.0006  -0.0008  -0.0006  15.00  226.8
2022/07/04 00:34:00.000  -2491490.4208  -4660803.1771   3559129.0915   1   9   0.0006   0.0011   0.0009   0.0006  -0.0008  -0.0006   0.00  232.2
2022/07/04 00:34:15.000  -2491490.4207  -4660803.1770   3559129.0914   1   9   0.0006   0.0011   0.0009   0.0006  -0.0008  -0.0006  15.00  239.9
2022/07/04 00:34:30.000  -2491490.4206  -4660803.1769   3559129.0913   1   9   0.0006   0.0010   0.0009   0.0006  -0.0008  -0.0006   0.00  243.6
2022/07/04 00:34:45.000  -2491490.4206  -4660803.1769   3559129.0912   1   9   0.0006   0.0010   0.0009   0.0006  -0.0008  -0.0006  15.00  252.2
2022/07/04 00:35:00.000  -2491490.4205  -4660803.1768   3559129.0912   1   9   0.0006   0.0010   0.0009   0.0006  -0.0008  -0.0006   0.00  256.9
2022/07/04 00:35:15.000  -2491490.4205  -4660803.1768   3559129.0911   1   9   0.0006   0.0010   0.0009   0.0006  -0.0008  -0.0006  15.00  265.8
2022/07/04 00:35:30.000  -2491490.4205  -4660803.1768   3559129.0911   1   9   0.0006   0.0010   0.0009   0.0006  -0.0008  -0.0006   0.00  268.2
2022/07/04 00:35:45.000  -2491490.4204  -4660803.1768   3559129.0910   1   9   0.0006   0.0010   0.0009   0.0006  -0.0008  -0.0006  15.00  276.1
2022/07/04 00:36:00.000  -2491490.4204  -4660803.1767   3559129.0910   1   9   0.0006   0.0010   0.0009   0.0006  -0.0008  -0.0006   0.00  277.3
2022/07/04 00:36:15.000  -2491490.4203  -4660803.1767   3559129.0909   1   9   0.0006   0.0010   0.0009   0.0006  -0.0008  -0.0006  15.00  285.7
2022/07/04 00:36:30.000  -2491490.4203  -4660803.1766   3559129.0908   1   9   0.0006   0.0010   0.0009   0.0006  -0.0008  -0.0005   0.00  286.6
2022/07/04 00:36:45.000  -2491490.4203  -4660803.1767   3559129.0908   1   9   0.0006   0.0010   0.0009   0.0006  -0.0008  -0.0005  15.00  295.1
2022/07/04 00:37:00.000  -2491490.4204  -4660803.1767   3559129.0908   1   9   0.0006   0.0010   0.0009   0.0006  -0.0008  -0.0005   0.00  299.3
2022/07/04 00:37:15.000  -2491490.4203  -4660803.1767   3559129.0907   1   9   0.0006   0.0010   0.0009   0.0006  -0.0008  -0.0005  15.00  307.3
2022/07/04 00:37:30.000  -2491490.4204  -4660803.1767   3559129.0908   1   9   0.0006   0.0010   0.0009   0.0006  -0.0008  -0.0005   0.00  314.2
2022/07/04 00:37:45.000  -2491490.4204  -4660803.1767   3559129.0907   1   9   0.0006   0.0010   0.0009   0.0006  -0.0008  -0.0005  15.00  322.8
2022/07/04 00:38:00.000  -2491490.4204  -4660803.1767   3559129.0907   1   9   0.0006   0.0010   0.0009   0.0005  -0.0007  -0.0005   0.00  330.5
2022/07/04 00:38:15.000  -2491490.4204  -4660803.1767   3559129.0907   1   9   0.0006   0.0010   0.0009   0.0005  -0.0007  -0.0005  15.00  339.8
2022/07/04 00:38:30.000  -2491490.4204  -4660803.1767   3559129.0906   1   9   0.0006   0.0010   0.0009   0.0005  -0.0007  -0.0005   0.00  350.6
2022/07/04 00:38:45.000  -2491490.4204  -4660803.1767   3559129.0905   1   9   0.0006   0.0010   0.0009   0.0005  -0.0007  -0.0005  15.00  360.7
2022/07/04 00:39:00.000  -2491490.4204  -4660803.1767   3559129.0905   1   9   0.0006   0.0010   0.0009   0.0005  -0.0007  -0.0005   0.00  370.6
2022/07/04 00:39:15.000  -2491490.4204  -4660803.1767   3559129.0904   1   9   0.0006   0.0010   0.0009   0.0005  -0.0007  -0.0005  15.00  381.3
2022/07/04 00:39:30.000  -2491490.4205  -4660803.1768   3559129.0904   1   9   0.0006   0.0010   0.0009   0.0005  -0.0007  -0.0005   0.00  392.1
2022/07/04 00:39:45.000  -2491490.4204  -4660803.1768   3559129.0904   1   9   0.0006   0.0010   0.0009   0.0005  -0.0007  -0.0005  15.00  401.2
2022/07/04 00:40:00.000  -2491490.4206  -4660803.1769   3559129.0904   1   9   0.0006   0.0009   0.0009   0.0005  -0.0007  -0.0005   0.00  413.6
2022/07/04 00:40:15.000  -2491490.4205  -4660803.1769   3559129.0904   1   9   0.0006   0.0009   0.0009   0.0005  -0.0007  -0.0005  15.00  423.1
2022/07/04 00:40:30.000  -2491490.4206  -4660803.1769   3559129.0904   1   9   0.0006   0.0009   0.0009   0.0005  -0.0007  -0.0005   0.00  432.1
2022/07/04 00:40:45.000  -2491490.4206  -4660803.1769   3559129.0903   1   9   0.0006   0.0009   0.0009   0.0005  -0.0007  -0.0005  15.00  441.0
2022/07/04 00:41:00.000  -2491490.4207  -4660803.1770   3559129.0904   1   9   0.0006   0.0009   0.0009   0.0005  -0.0007  -0.0005   0.00  450.6
2022/07/04 00:41:15.000  -2491490.4206  -4660803.1770   3559129.0903   1   9   0.0006   0.0009   0.0009   0.0005  -0.0007  -0.0005  15.00  460.6
2022/07/04 00:41:30.000  -2491490.4207  -4660803.1771   3559129.0904   1   9   0.0005   0.0009   0.0009   0.0005  -0.0007  -0.0005   0.00  472.0
2022/07/04 00:41:45.000  -2491490.4207  -4660803.1771   3559129.0903   1   9   0.0005   0.0009   0.0009   0.0005  -0.0007  -0.0005  15.00  482.5
2022/07/04 00:42:00.000  -2491490.4207  -4660803.1772   3559129.0904   1   9   0.0005   0.0009   0.0009   0.0005  -0.0007  -0.0005   0.00  495.3
2022/07/04 00:42:15.000  -2491490.4207  -4660803.1771   3559129.0904   1   9   0.0005   0.0009   0.0009   0.0005  -0.0007  -0.0005  15.00  507.2
2022/07/04 00:42:30.000  -2491490.4208  -4660803.1773   3559129.0905   1   9   0.0005   0.0009   0.0009   0.0005  -0.0007  -0.0005   0.00  518.8
2022/07/04 00:42:45.000  -2491490.4208  -4660803.1773   3559129.0904   1   9   0.0005   0.0009   0.0009   0.0005  -0.0007  -0.0005  15.00  531.1
2022/07/04 00:43:00.000  -2491490.4208  -4660803.1774   3559129.0906   1   9   0.0005   0.0009   0.0008   0.0005  -0.0007  -0.0005   0.00  537.2
2022/07/04 00:43:15.000  -2491490.4208  -4660803.1774   3559129.0905   1   9   0.0005   0.0009   0.0008   0.0005  -0.0007  -0.0005  15.00  548.9
2022/07/04 00:43:30.000  -2491490.4209  -4660803.1774   3559129.0906   1   9   0.0005   0.0009   0.0008   0.0005  -0.0007  -0.0005   0.00  553.4
2022/07/04 00:43:45.000  -2491490.4208  -4660803.1774   3559129.0906   1   9   0.0005   0.0009   0.0008   0.0005  -0.0007  -0.0005  15.00  567.1
2022/07/04 00:44:00.000  -2491490.4209  -4660803.1774   3559129.0907   1   9   0.0005   0.0009   0.0008   0.0005  -0.0007  -0.0005   0.00  571.8
2022/07/04 00:44:15.000  -2491490.4208  -4660803.1774   3559129.0907   1   9   0.0005   0.0009   0.0008   0.0005  -0.0007  -0.0005  15.00  581.1
2022/07/04 00:44:30.000  -2491490.4209  -4660803.1774   3559129.0907   1   9   0.0005   0.0009   0.0008   0.0005  -0.0007  -0.0005   0.00  585.3
2022/07/04 00:44:45.000  -2491490.4208  -4660803.1774   3559129.0907   1   9   0.0005   0.0009   0.0008   0.0005  -0.0007  -0.0005  15.00  596.0
2022/07/04 00:45:00.000  -2491490.4208  -4660803.1774   3559129.0907   1   9   0.0005   0.0009   0.0008   0.0005  -0.0007  -0.0005   0.00  598.7
2022/07/04 00:45:15.000  -2491490.4208  -4660803.1773   3559129.0907   1   9   0.0005   0.0009   0.0008   0.0005  -0.0007  -0.0005  15.00  610.2
2022/07/04 00:45:30.000  -2491490.4208  -4660803.1773   3559129.0907   1   9   0.0005   0.0009   0.0008   0.0005  -0.0007  -0.0005   0.00  616.0
2022/07/04 00:45:45.000  -2491490.4208  -4660803.1773   3559129.0907   1   9   0.0005   0.0009   0.0008   0.0005  -0.0007  -0.0005  15.00  629.3
2022/07/04 00:46:00.000  -2491490.4208  -4660803.1773   3559129.0907   1   9   0.0005   0.0009   0.0008   0.0005  -0.0007  -0.0005   0.00  632.9
2022/07/04 00:46:15.000  -2491490.4208  -4660803.1773   3559129.0907   1   9   0.0005   0.0009   0.0008   0.0005  -0.0007  -0.0005  15.00  644.3
2022/07/04 00:46:30.000  -2491490.4209  -4660803.1774   3559129.0910   1   8   0.0005   0.0009   0.0008   0.0005  -0.0007  -0.0005   0.00  811.7
2022/07/04 00:46:45.000  -2491490.4209  -4660803.1774   3559129.0910   1   8   0.0005   0.0009   0.0008   0.0005  -0.0007  -0.0005  15.00  826.5
2022/07/04 00:47:00.000  -2491490.4209  -4660803.1774   3559129.0910   1   8   0.0005   0.0009   0.0008   0.0005  -0.0007  -0.0005   0.00  815.4
2022/07/04 00:47:15.000  -2491490.4208  -4660803.1774   3559129.0909   1   8   0.0005   0.0009   0.0008   0.0005  -0.0007  -0.0005  15.00  831.8
2022/07/04 00:47:30.000  -2491490.4208  -4660803.1774   3559129.0909   1   8   0.0005   0.0008   0.0008   0.0005  -0.0007  -0.0005   0.00  815.8
2022/07/04 00:47:45.000  -2491490.4208  -4660803.1774   3559129.0909   1   7   0.0005   0.0009   0.0008   0.0005  -0.0007  -0.0005  15.00  853.1
2022/07/04 00:48:00.000  -2491490.4208  -4660803.1774   3559129.0909   1   7   0.0005   0.0008   0.0008   0.0005  -0.0007  -0.0005   0.00  844.9
2022/07/04 00:48:15.000  -2491490.4208  -4660803.1774   3559129.0908   1   7   0.0005   0.0008   0.0008   0.0005  -0.0007  -0.0005  15.00  858.2
2022/07/04 00:48:30.000  -2491490.4208  -4660803.1774   3559129.0908   1   7   0.0005   0.0008   0.0008   0.0005  -0.0007  -0.0005   0.00  840.6
2022/07/04 00:48:45.000  -2491490.4208  -4660803.1774   3559129.0908   1   7   0.0005   0.0008   0.0008   0.0005  -0.0007  -0.0005  15.00  857.6
2022/07/04 00:49:00.000  -2491490.4207  -4660803.1775   3559129.0908   1   7   0.0005   0.0008   0.0008   0.0005  -0.0006  -0.0005   0.00  846.8
2022/07/04 00:49:15.000  -2491490.4207  -4660803.1775   3559129.0908   1   7   0.0005   0.0008   0.0008   0.0005  -0.0007  -0.0005  15.00  861.2
2022/07/04 00:49:30.000  -2491490.4207  -4660803.1776   3559129.0908   1   7   0.0005   0.0008   0.0008   0.0005  -0.0006  -0.0005   0.00  850.1
2022/07/04 00:49:45.000  -2491490.4207  -4660803.1776   3559129.0908   1   7   0.0005   0.0008   0.0008   0.0005  -0.0006  -0.0005  15.00  866.5
2022/07/04 00:50:00.000  -2491490.4207  -4660803.1776   3559129.0908   1   7   0.0005   0.0008   0.0008   0.0005  -0.0006  -0.0005   0.00  859.7
2022/07/04 00:50:15.000  -2491490.4207  -4660803.1776   3559129.0908   1   7   0.0005   0.0008   0.0008   0.0005  -0.0006  -0.0005  15.00  874.2
2022/07/04 00:50:30.000  -2491490.4207  -4660803.1776   3559129.0908   1   7   0.0005   0.0008   0.0008   0.0005  -0.0006  -0.0005   0.00  870.8
2022/07/04 00:50:45.000  -2491490.4207  -4660803.1776   3559129.0908   1   7   0.0005   0.0008   0.0008   0.0005  -0.0006  -0.0005  15.00  886.0
2022/07/04 00:51:00.000  -2491490.4207  -4660803.1776   3559129.0908   1   7   0.0005   0.0008   0.0008   0.0005  -0.0006  -0.0005   0.00  877.9
2022/07/04 00:51:15.000  -2491490.4207  -4660803.1777   3559129.0908   1   7   0.0005   0.0008   0.0008   0.0005  -0.0006  -0.0005  15.00  897.1
2022/07/04 00:51:30.000  -2491490.4207  -4660803.1777   3559129.0909   1   7   0.0005   0.0008   0.0008   0.0005  -0.0006  -0.0005   0.00  889.1
2022/07/04 00:51:45.000  -2491490.4207  -4660803.1776   3559129.0908   1   7   0.0005   0.0008   0.0008   0.0005  -0.0006  -0.0005  15.00  908.9
2022/07/04 00:52:00.000  -2491490.4207  -4660803.1776   3559129.0909   1   7   0.0005   0.0008   0.0008   0.0005  -0.0006  -0.0005   0.00  900.1
2022/07/04 00:52:15.000  -2491490.4207  -4660803.1776   3559129.0908   1   7   0.0005   0.0008   0.0008   0.0005  -0.0006  -0.0005  15.00  915.6
2022/07/04 00:52:30.000  -2491490.4207  -4660803.1776   3559129.0909   1   7   0.0005   0.0008   0.0008   0.0005  -0.0006  -0.0005   0.00  906.0
2022/07/04 00:52:45.000  -2491490.4207  -4660803.1776   3559129.0909   1   7   0.0005   0.0008   0.0008   0.0005  -0.0006  -0.0005  15.00  923.9
2022/07/04 00:53:00.000  -2491490.4208  -4660803.1776   3559129.0909   1   7   0.0005   0.0008   0.0008   0.0005  -0.0006  -0.0005   0.00  917.5
2022/07/04 00:53:15.000  -2491490.4208  -4660803.1776   3559129.0909   1   7   0.0005   0.0008   0.0008   0.0005  -0.0006  -0.0005  15.00  934.8
2022/07/04 00:53:30.000  -2491490.4208  -4660803.1776   3559129.0909   1   7   0.0005   0.0008   0.0008   0.0005  -0.0006  -0.0005   0.00  929.2
2022/07/04 00:53:45.000  -2491490.4208  -4660803.1776   3559129.0909   1   7   0.0005   0.0008   0.0008   0.0005  -0.0006  -0.0005  15.00  941.9
2022/07/04 00:54:00.000  -2491490.4208  -4660803.1776   3559129.0909   1   7   0.0005   0.0008   0.0008   0.0005  -0.0006  -0.0005   0.00  929.0
2022/07/04 00:54:15.000  -2491490.4208  -4660803.1776   3559129.0909   1   7   0.0005   0.0008   0.0008   0.0005  -0.0006  -0.0005  15.00  945.5
2022/07/04 00:54:30.000  -2491490.4209  -4660803.1775   3559129.0909   1   7   0.0005   0.0008   0.0008   0.0005  -0.0006  -0.0005   0.00  925.2
2022/07/04 00:54:45.000  -2491490.4209  -4660803.1775   3559129.0909   1   7   0.0005   0.0008   0.0008   0.0005  -0.0006  -0.0005  15.00  941.9
2022/07/04 00:55:00.000  -2491490.4209  -4660803.1775   3559129.0909   1   7   0.0005   0.0008   0.0008   0.0005  -0.0006  -0.0005   0.00  911.5
2022/07/04 00:55:15.000  -2491490.4209  -4660803.1774   3559129.0908   1   7   0.0005   0.0008   0.0008   0.0005  -0.0006  -0.0005  15.00  925.5
2022/07/04 00:55:30.000  -2491490.4209  -4660803.1774   3559129.0908   1   7   0.0005   0.0008   0.0008   0.0005  -0.0006  -0.0005   0.00  904.1
2022/07/04 00:55:45.000  -2491490.4209  -4660803.1774   3559129.0908   1   7   0.0005   0.0008   0.0008   0.0005  -0.0006  -0.0005  15.00  920.6
2022/07/04 00:56:00.000  -2491490.4209  -4660803.1773   3559129.0908   1   7   0.0005   0.0008   0.0008   0.0005  -0.0006  -0.0005   0.00  893.8
2022/07/04 00:56:15.000  -2491490.4209  -4660803.1773   3559129.0908   1   7   0.0005   0.0008   0.0008   0.0005  -0.0006  -0.0005  15.00  912.4
2022/07/04 00:56:30.000  -2491490.4209  -4660803.1772   3559129.0908   1   7   0.0005   0.0008   0.0008   0.0005  -0.0006  -0.0005   0.00  889.7
2022/07/04 00:56:45.000  -2491490.4209  -4660803.1772   3559129.0907   1   7   0.0005   0.0008   0.0008   0.0005  -0.0006  -0.0005  15.00  899.6
2022/07/04 00:57:00.000  -2491490.4209  -4660803.1772   3559129.0907   1   7   0.0005   0.0008   0.0008   0.0005  -0.0006  -0.0005   0.00  869.8
2022/07/04 00:57:15.000  -2491490.4209  -4660803.1772   3559129.0907   1   7   0.0005   0.0008   0.0008   0.0005  -0.0006  -0.0005  15.00  883.0
2022/07/04 00:57:30.000  -2491490.4208  -4660803.1771   3559129.0906   1   7   0.0005   0.0008   0.0008   0.0005  -0.0006  -0.0005   0.00  869.8
2022/07/04 00:57:45.000  -2491490.4208  -4660803.1770   3559129.0906   1   7   0.0005   0.0008   0.0008   0.0005  -0.0006  -0.0005  15.00  886.1
2022/07/04 00:58:00.000  -2491490.4208  -4660803.1770   3559129.0906   1   7   0.0005   0.0008   0.0008   0.0005  -0.0006  -0.0005   0.00  868.1
2022/07/04 00:58:15.000  -2491490.4207  -4660803.1769   3559129.0906   1   7   0.0005   0.0008   0.0008   0.0005  -0.0006  -0.0005  15.00  884.5
2022/07/04 00:58:30.000  -2491490.4207  -4660803.1768   3559129.0905   1   7   0.0005   0.0008   0.0008   0.0005  -0.0006  -0.0005   0.00  866.0
2022/07/04 00:58:45.000  -2491490.4207  -4660803.1768   3559129.0905   1   7   0.0005   0.0008   0.0008   0.0005  -0.0006  -0.0005  15.00  882.2
2022/07/04 00:59:00.000  -2491490.4207  -4660803.1767   3559129.0905   1   7   0.0005   0.0008   0.0008   0.0005  -0.0006  -0.0005   0.00  866.6
2022/07/04 00:59:15.000  -2491490.4207  -4660803.1767   3559129.0904   1   7   0.0005   0.0008   0.0008   0.0005  -0.0006  -0.0005  15.00  879.4
2022/07/04 00:59:30.000  -2491490.4206  -4660803.1766   3559129.0904   1   7   0.0005   0.0008   0.0008   0.0005  -0.0006  -0.0005   0.00  864.7
2022/07/04 00:59:45.000  -2491490.4206  -4660803.1766   3559129.0904   1   7   0.0005   0.0008   0.0008   0.0005  -0.0006  -0.0005  15.00  878.8
2022/07/04 01:00:00.000  -2491490.4206  -4660803.1764   3559129.0903   1   7   0.0005   0.0008   0.0008   0.0004  -0.0006  -0.0005   0.00  863.9
2022/07/04 01:00:15.000  -2491490.4206  -4660803.1764   3559129.0903   1   7   0.0005   0.0008   0.0008   0.0004  -0.0006  -0.0005  15.00  875.1
2022/07/04 01:00:30.000  -2491490.4206  -4660803.1763   3559129.0902   1   7   0.0005   0.0007   0.0008   0.0004  -0.0006  -0.0005   0.00  850.0
2022/07/04 01:00:45.000  -2491490.4205  -4660803.1763   3559129.0902   1   7   0.0005   0.0007   0.0008   0.0004  -0.0006  -0.0005  15.00  864.2
2022/07/04 01:01:00.000  -2491490.4205  -4660803.1761   3559129.0901   1   7   0.0005   0.0007   0.0008   0.0004  -0.0006  -0.0005   0.00  836.6
2022/07/04 01:01:15.000  -2491490.4205  -4660803.1761   3559129.0901   1   7   0.0005   0.0007   0.0008   0.0004  -0.0006  -0.0005  15.00  848.5
2022/07/04 01:01:30.000  -2491490.4205  -4660803.1760   3559129.0900   1   7   0.0005   0.0007   0.0008   0.0004  -0.0006  -0.0005   0.00  828.8
2022/07/04 01:01:45.000  -2491490.4205  -4660803.1760   3559129.0900   1   7   0.0005   0.0007   0.0008   0.0004  -0.0006  -0.0005  15.00  839.6
2022/07/04 01:02:00.000  -2491490.4204  -4660803.1759   3559129.0899   1   7   0.0005   0.0007   0.0008   0.0004  -0.0006  -0.0005   0.00  817.0
2022/07/04 01:02:15.000  -2491490.4204  -4660803.1759   3559129.0899   1   7   0.0005   0.0007   0.0008   0.0004  -0.0006  -0.0005  15.00  829.3
2022/07/04 01:02:30.000  -2491490.4204  -4660803.1758   3559129.0898   1   7   0.0005   0.0007   0.0008   0.0004  -0.0006  -0.0005   0.00  811.8
2022/07/04 01:02:45.000  -2491490.4204  -4660803.1758   3559129.0898   1   7   0.0005   0.0007   0.0008   0.0004  -0.0006  -0.0005  15.00  824.9
2022/07/04 01:03:00.000  -2491490.4204  -4660803.1758   3559129.0898   1   7   0.0005   0.0007   0.0008   0.0004  -0.0006  -0.0005   0.00  803.6
2022/07/04 01:03:15.000  -2491490.4204  -4660803.1758   3559129.0897   1   7   0.0005   0.0007   0.0008   0.0004  -0.0006  -0.0005  15.00  817.2
2022/07/04 01:03:30.000  -2491490.4205  -4660803.1757   3559129.0897   1   7   0.0005   0.0007   0.0007   0.0004  -0.0006  -0.0005   0.00  802.1
2022/07/04 01:03:45.000  -2491490.4205  -4660803.1757   3559129.0897   1   7   0.0005   0.0007   0.0007   0.0004  -0.0006  -0.0005  15.00  816.0
2022/07/04 01:04:00.000  -2491490.4205  -4660803.1757   3559129.0897   1   7   0.0005   0.0007   0.0007   0.0004  -0.0006  -0.0005   0.00  790.9
2022/07/04 01:04:15.000  -2491490.4205  -4660803.1757   3559129.0897   1   7   0.0005   0.0007   0.0007   0.0004  -0.0006  -0.0005  15.00  806.0
2022/07/04 01:04:30.000  -2491490.4205  -4660803.1757   3559129.0897   1   7   0.0005   0.0007   0.0007   0.0004  -0.0006  -0.0005   0.00  794.8
2022/07/04 01:04:45.000  -2491490.4205  -4660803.1756   3559129.0896   1   7   0.0005   0.0007   0.0007   0.0004  -0.0006  -0.0005  15.00  806.5
2022/07/04 01:05:00.000  -2491490.4206  -4660803.1756   3559129.0897   1   7   0.0005   0.0007   0.0007   0.0004  -0.0006  -0.0005   0.00  794.5
2022/07/04 01:05:15.000  -2491490.4206  -4660803.1756   3559129.0896   1   7   0.0005   0.0007   0.0007   0.0004  -0.0006  -0.0005  15.00  808.9
2022/07/04 01:05:30.000  -2491490.4206  -4660803.1756   3559129.0896   1   7   0.0005   0.0007   0.0007   0.0004  -0.0006  -0.0005   0.00  791.0
2022/07/04 01:05:45.000  -2491490.4206  -4660803.1756   3559129.0896   1   7   0.0005   0.0007   0.0007   0.0004  -0.0006  -0.0005  15.00  803.9
2022/07/04 01:06:00.000  -2491490.4206  -4660803.1756   3559129.0897   1   7   0.0005   0.0007   0.0007   0.0004  -0.0006  -0.0005   0.00  791.4
2022/07/04 01:06:15.000  -2491490.4206  -4660803.1756   3559129.0896   1   7   0.0005   0.0007   0.0007   0.0004  -0.0006  -0.0005  15.00  805.1
2022/07/04 01:06:30.000  -2491490.4207  -4660803.1755   3559129.0896   1   7   0.0005   0.0007   0.0007   0.0004  -0.0005  -0.0004   0.00  789.2
2022/07/04 01:06:45.000  -2491490.4207  -4660803.1755   3559129.0896   1   7   0.0005   0.0007   0.0007   0.0004  -0.0005  -0.0004  15.00  801.9
2022/07/04 01:07:00.000  -2491490.4207  -4660803.1755   3559129.0896   1   7   0.0005   0.0007   0.0007   0.0004  -0.0005  -0.0004   0.00  782.1
2022/07/04 01:07:15.000  -2491490.4207  -4660803.1755   3559129.0896   1   7   0.0005   0.0007   0.0007   0.0004  -0.0005  -0.0004  15.00  795.3
2022/07/04 01:07:30.000  -2491490.4207  -4660803.1755   3559129.0897   1   7   0.0005   0.0007   0.0007   0.0004  -0.0005  -0.0004   0.00  786.7
2022/07/04 01:07:45.000  -2491490.4207  -4660803.1755   3559129.0896   1   7   0.0005   0.0007   0.0007   0.0004  -0.0005  -0.0004  15.00  802.0
2022/07/04 01:08:00.000  -2491490.4208  -4660803.1755   3559129.0897   1   7   0.0005   0.0007   0.0007   0.0004  -0.0005  -0.0004   0.00  794.3
2022/07/04 01:08:15.000  -2491490.4208  -4660803.1755   3559129.0897   1   7   0.0005   0.0007   0.0007   0.0004  -0.0005  -0.0004  15.00  808.8
2022/07/04 01:08:30.000  -2491490.4208  -4660803.1755   3559129.0897   1   7   0.0005   0.0007   0.0007   0.0004  -0.0005  -0.0004   0.00  799.7
2022/07/04 01:08:45.000  -2491490.4208  -4660803.1756   3559129.0897   1   7   0.0005   0.0007   0.0007   0.0004  -0.0005  -0.0004  15.00  816.2
2022/07/04 01:09:00.000  -2491490.4208  -4660803.1756   3559129.0897   1   7   0.0005   0.0007   0.0007   0.0004  -0.0005  -0.0004   0.00  809.6
2022/07/04 01:09:15.000  -2491490.4208  -4660803.1755   3559129.0897   1   7   0.0005   0.0007   0.0007   0.0004  -0.0005  -0.0004  15.00  824.9
2022/07/04 01:09:30.000  -2491490.4209  -4660803.1756   3559129.0898   1   7   0.0005   0.0007   0.0007   0.0004  -0.0005  -0.0004   0.00  824.5
2022/07/04 01:09:45.000  -2491490.4209  -4660803.1756   3559129.0898   1   7   0.0005   0.0007   0.0007   0.0004  -0.0005  -0.0004  15.00  840.3
2022/07/04 01:10:00.000  -2491490.4209  -4660803.1756   3559129.0898   1   7   0.0005   0.0007   0.0007   0.0004  -0.0005  -0.0004   0.00  835.5
2022/07/04 01:10:15.000  -2491490.4209  -4660803.1756   3559129.0898   1   7   0.0005   0.0007   0.0007   0.0004  -0.0005  -0.0004  15.00  851.2
2022/07/04 01:10:30.000  -2491490.4209  -4660803.1756   3559129.0898   1   7   0.0005   0.0007   0.0007   0.0004  -0.0005  -0.0004   0.00  858.3
2022/07/04 01:10:45.000  -2491490.4209  -4660803.1756   3559129.0898   1   7   0.0005   0.0007   0.0007   0.0004  -0.0005  -0.0004  15.00  875.4
2022/07/04 01:11:00.000  -2491490.4210  -4660803.1756   3559129.0899   1   7   0.0005   0.0007   0.0007   0.0004  -0.0005  -0.0004   0.00  873.8
2022/07/04 01:11:15.000  -2491490.4209  -4660803.1756   3559129.0898   1   7   0.0005   0.0007   0.0007   0.0004  -0.0005  -0.0004  15.00  887.9
2022/07/04 01:11:30.000  -2491490.4210  -4660803.1757   3559129.0899   1   7   0.0005   0.0007   0.0007   0.0004  -0.0005  -0.0004   0.00  890.5
2022/07/04 01:11:45.000  -2491490.4210  -4660803.1757   3559129.0899   1   7   0.0005   0.0007   0.0007   0.0004  -0.0005  -0.0004  15.00  906.9
2022/07/04 01:12:00.000  -2491490.4211  -4660803.1757   3559129.0900   1   7   0.0005   0.0007   0.0007   0.0004  -0.0005  -0.0004   0.00  907.0
2022/07/04 01:12:15.000  -2491490.4211  -4660803.1757   3559129.0900   1   7   0.0005   0.0007   0.0007   0.0004  -0.0005  -0.0004  15.00  924.0
2022/07/04 01:12:30.000  -2491490.4211  -4660803.1757   3559129.0901   1   7   0.0005   0.0007   0.0007   0.0004  -0.0005  -0.0004   0.00  927.0
2022/07/04 01:12:45.000  -2491490.4211  -4660803.1757   3559129.0901   1   7   0.0005   0.0007   0.0007   0.0004  -0.0005  -0.0004  15.00  946.7
2022/07/04 01:13:00.000  -2491490.4212  -4660803.1758   3559129.0902   1   7   0.0005   0.0007   0.0007   0.0004  -0.0005  -0.0004   0.00  954.5
2022/07/04 01:13:15.000  -2491490.4212  -4660803.1758   3559129.0902   1   7   0.0005   0.0007   0.0007   0.0004  -0.0005  -0.0004  15.00  975.7
2022/07/04 01:13:30.000  -2491490.4213  -4660803.1759   3559129.0903   1   7   0.0005   0.0007   0.0007   0.0004  -0.0005  -0.0004   0.00  973.0
2022/07/04 01:13:45.000  -2491490.4214  -4660803.1759   3559129.0903   1   7   0.0005   0.0007   0.0007   0.0004  -0.0005  -0.0004  15.00  990.0
2022/07/04 01:14:00.000  -2491490.4215  -4660803.1760   3559129.0905   1   7   0.0005   0.0007   0.0007   0.0004  -0.0005  -0.0004   0.00  988.3
2022/07/04 01:14:15.000  -2491490.4215  -4660803.1760   3559129.0905   1   7   0.0005   0.0007   0.0007   0.0004  -0.0005  -0.0004  15.00  999.9
2022/07/04 01:14:30.000  -2491490.4216  -4660803.1760   3559129.0906   1   7   0.0005   0.0007   0.0007   0.0004  -0.0005  -0.0004   0.00  995.0
2022/07/04 01:14:45.000  -2491490.4216  -4660803.1761   3559129.0906   1   7   0.0005   0.0007   0.0007   0.0004  -0.0005  -0.0004  15.00  999.9
2022/07/04 01:15:00.000  -2491490.4216  -4660803.1761   3559129.0907   1   7   0.0005   0.0007   0.0007   0.0004  -0.0005  -0.0004   0.00  999.9
2022/07/04 01:15:15.000  -2491490.4216  -4660803.1762   3559129.0908   2   8   0.0005   0.0007   0.0007   0.0004  -0.0005  -0.0004  15.00    1.1
2022/07/04 01:15:30.000  -2491490.4217  -4660803.1763   3559129.0909   2   8   0.0005   0.0007   0.0007   0.0004  -0.0005  -0.0004   0.00    2.0
2022/07/04 01:15:45.000  -2491490.4217  -4660803.1763   3559129.0908   2   8   0.0005   0.0007   0.0007   0.0004  -0.0005  -0.0004  15.00    1.8
2022/07/04 01:16:00.000  -2491490.4218  -4660803.1763   3559129.0909   2   8   0.0005   0.0007   0.0007   0.0004  -0.0005  -0.0004   0.00    2.4
2022/07/04 01:16:15.000  -2491490.4218  -4660803.1763   3559129.0909   2   8   0.0005   0.0007   0.0007   0.0004  -0.0005  -0.0004  15.00    1.0
2022/07/04 01:16:30.000  -2491490.4218  -4660803.1764   3559129.0910   2   8   0.0005   0.0007   0.0007   0.0004  -0.0005  -0.0004   0.00    2.0
2022/07/04 01:16:45.000  -2491490.4218  -4660803.1764   3559129.0910   2   8   0.0005   0.0007   0.0007   0.0004  -0.0005  -0.0004  15.00    1.9
2022/07/04 01:17:00.000  -2491490.4219  -4660803.1765   3559129.0911   2   8   0.0005   0.0007   0.0007   0.0004  -0.0005  -0.0004   0.00    2.6
2022/07/04 01:17:15.000  -2491490.4219  -4660803.1765   3559129.0911   2   8   0.0005   0.0007   0.0007   0.0004  -0.0005  -0.0004  15.00    2.5
2022/07/04 01:17:30.000  -2491490.4220  -4660803.1766   3559129.0911   2   8   0.0005   0.0007   0.0007   0.0004  -0.0005  -0.0004   0.00    2.8
2022/07/04 01:17:45.000  -2491490.4219  -4660803.1766   3559129.0911   2   8   0.0005   0.0007   0.0007   0.0004  -0.0005  -0.0004  15.00    2.7
2022/07/04 01:18:00.000  -2491490.4220  -4660803.1766   3559129.0912   2   8   0.0005   0.0007   0.0007   0.0004  -0.0005  -0.0004   0.00    3.0
2022/07/04 01:18:15.000  -2491490.4220  -4660803.1766   3559129.0911   2   8   0.0005   0.0007   0.0007   0.0004  -0.0005  -0.0004  15.00    1.1
2022/07/04 01:18:30.000  -2491490.4220  -4660803.1767   3559129.0912   2   8   0.0005   0.0007   0.0007   0.0004  -0.0005  -0.0004   0.00    2.0
2022/07/04 01:18:45.000  -2491490.4220  -4660803.1767   3559129.0912   2   8   0.0005   0.0007   0.0007   0.0004  -0.0005  -0.0004  15.00    2.0
2022/07/04 01:19:00.000  -2491490.4227  -4660803.1773   3559129.0928   1   8   0.0004   0.0007   0.0007   0.0004  -0.0005  -0.0004   0.00    3.1
2022/07/04 01:19:15.000  -2491490.4227  -4660803.1773   3559129.0928   1   8   0.0004   0.0007   0.0007   0.0004  -0.0005  -0.0004  15.00    3.1
2022/07/04 01:19:30.000  -2491490.4229  -4660803.1774   3559129.0930   1   8   0.0004   0.0006   0.0007   0.0004  -0.0005  -0.0004   0.00    3.8
2022/07/04 01:19:45.000  -2491490.4229  -4660803.1774   3559129.0931   1   8   0.0004   0.0006   0.0007   0.0004  -0.0005  -0.0004  15.00    3.7
2022/07/04 01:20:00.000  -2491490.4230  -4660803.1775   3559129.0933   1   8   0.0004   0.0006   0.0007   0.0004  -0.0005  -0.0004   0.00    4.2
2022/07/04 01:20:15.000  -2491490.4230  -4660803.1775   3559129.0934   1   8   0.0004   0.0006   0.0007   0.0004  -0.0005  -0.0004  15.00    4.1
2022/07/04 01:20:30.000  -2491490.4231  -4660803.1776   3559129.0935   1   8   0.0004   0.0006   0.0007   0.0004  -0.0005  -0.0004   0.00    4.5
2022/07/04 01:20:45.000  -2491490.4231  -4660803.1776   3559129.0936   1   8   0.0004   0.0006   0.0007   0.0004  -0.0005  -0.0004  15.00    4.4
2022/07/04 01:21:00.000  -2491490.4232  -4660803.1777   3559129.0938   1   8   0.0004   0.0006   0.0006   0.0004  -0.0005  -0.0004   0.00    4.7
2022/07/04 01:21:15.000  -2491490.4232  -4660803.1777   3559129.0938   1   8   0.0004   0.0006   0.0006   0.0004  -0.0005  -0.0004  15.00    4.7
2022/07/04 01:21:30.000  -2491490.4233  -4660803.1778   3559129.0940   1   8   0.0004   0.0006   0.0006   0.0004  -0.0005  -0.0004   0.00    9.0
2022/07/04 01:21:45.000  -2491490.4233  -4660803.1778   3559129.0941   1   8   0.0004   0.0006   0.0006   0.0004  -0.0005  -0.0004  15.00   13.5
2022/07/04 01:22:00.000  -2491490.4234  -4660803.1779   3559129.0942   1   8   0.0004   0.0006   0.0006   0.0004  -0.0005  -0.0004   0.00   18.6
2022/07/04 01:22:15.000  -2491490.4234  -4660803.1779   3559129.0942   1   8   0.0004   0.0006   0.0006   0.0004  -0.0005  -0.0004  15.00   24.1
2022/07/04 01:22:30.000  -2491490.4235  -4660803.1779   3559129.0943   1   8   0.0004   0.0006   0.0006   0.0004  -0.0005  -0.0004   0.00   30.2
2022/07/04 01:22:45.000  -2491490.4235  -4660803.1779   3559129.0944   1   8   0.0004   0.0006   0.0006   0.0004  -0.0005  -0.0004  15.00   35.9
2022/07/04 01:23:00.000  -2491490.4235  -4660803.1779   3559129.0945   1   8   0.0004   0.0006   0.0006   0.0004  -0.0005  -0.0004   0.00   42.2
2022/07/04 01:23:15.000  -2491490.4235  -4660803.1779   3559129.0946   1   8   0.0004   0.0006   0.0006   0.0004  -0.0005  -0.0004  15.00   48.4
2022/07/04 01:23:30.000  -2491490.4236  -4660803.1779   3559129.0947   1   8   0.0004   0.0006   0.0006   0.0004  -0.0005  -0.0004   0.00   54.8
2022/07/04 01:23:45.000  -2491490.4236  -4660803.1779   3559129.0947   1   8   0.0004   0.0006   0.0006   0.0004  -0.0005  -0.0004  15.00   61.1
2022/07/04 01:24:00.000  -2491490.4237  -4660803.1779   3559129.0948   1   8   0.0004   0.0006   0.0006   0.0004  -0.0005  -0.0004   0.00   67.8
2022/07/04 01:24:15.000  -2491490.4237  -4660803.1779   3559129.0948   1   8   0.0004   0.0006   0.0006   0.0004  -0.0005  -0.0004  15.00   74.4
2022/07/04 01:24:30.000  -2491490.4237  -4660803.1780   3559129.0950   1   8   0.0004   0.0006   0.0006   0.0004  -0.0005  -0.0004   0.00   80.9
2022/07/04 01:24:45.000  -2491490.4237  -4660803.1780   3559129.0950   1   8   0.0004   0.0006   0.0006   0.0004  -0.0005  -0.0004  15.00   87.6
2022/07/04 01:25:00.000  -2491490.4238  -4660803.1780   3559129.0951   1   8   0.0004   0.0006   0.0006   0.0004  -0.0005  -0.0004   0.00   94.4
2022/07/04 01:25:15.000  -2491490.4238  -4660803.1779   3559129.0952   1   8   0.0004   0.0006   0.0006   0.0004  -0.0005  -0.0004  15.00  100.9
2022/07/04 01:25:30.000  -2491490.4239  -4660803.1779   3559129.0952   1   8   0.0004   0.0006   0.0006   0.0004  -0.0004  -0.0004   0.00  109.4
2022/07/04 01:25:45.000  -2491490.4239  -4660803.1779   3559129.0952   1   8   0.0004   0.0006   0.0006   0.0004  -0.0004  -0.0004  15.00  116.7
2022/07/04 01:26:00.000  -2491490.4239  -4660803.1780   3559129.0954   1   8   0.0004   0.0006   0.0006   0.0004  -0.0004  -0.0004   0.00  122.8
2022/07/04 01:26:15.000  -2491490.4235  -4660803.1776   3559129.0945   2   8   0.0004   0.0007   0.0006   0.0004  -0.0005  -0.0004  15.00    1.1
2022/07/04 01:26:30.000  -2491490.4239  -4660803.1779   3559129.0951   1   8   0.0004   0.0006   0.0006   0.0004  -0.0004  -0.0004   0.00    3.8
2022/07/04 01:26:45.000  -2491490.4239  -4660803.1779   3559129.0952   1   8   0.0004   0.0006   0.0006   0.0004  -0.0004  -0.0004  15.00    4.0
2022/07/04 01:27:00.000  -2491490.4240  -4660803.1779   3559129.0952   1   8   0.0004   0.0006   0.0006   0.0004  -0.0004  -0.0004   0.00    7.0
2022/07/04 01:27:15.000  -2491490.4240  -4660803.1779   3559129.0952   1   8   0.0004   0.0006   0.0006   0.0004  -0.0004  -0.0004  15.00    7.1
2022/07/04 01:27:30.000  -2491490.4240  -4660803.1780   3559129.0953   1   8   0.0004   0.0006   0.0006   0.0004  -0.0004  -0.0004   0.00   10.2
2022/07/04 01:27:45.000  -2491490.4240  -4660803.1779   3559129.0953   1   8   0.0004   0.0006   0.0006   0.0004  -0.0004  -0.0004  15.00   10.2
2022/07/04 01:28:00.000  -2491490.4240  -4660803.1780   3559129.0954   1   8   0.0004   0.0006   0.0006   0.0004  -0.0004  -0.0004   0.00   13.3
2022/07/04 01:28:15.000  -2491490.4240  -4660803.1780   3559129.0954   1   8   0.0004   0.0006   0.0006   0.0004  -0.0004  -0.0004  15.00   13.4
2022/07/04 01:28:30.000  -2491490.4241  -4660803.1780   3559129.0955   1   8   0.0004   0.0006   0.0006   0.0004  -0.0004  -0.0004   0.00   16.6
2022/07/04 01:28:45.000  -2491490.4241  -4660803.1780   3559129.0955   1   8   0.0004   0.0006   0.0006   0.0004  -0.0004  -0.0004  15.00   16.8
2022/07/04 01:29:00.000  -2491490.4241  -4660803.1781   3559129.0955   1   8   0.0004   0.0006   0.0006   0.0004  -0.0004  -0.0004   0.00   27.1
2022/07/04 01:29:15.000  -2491490.4241  -4660803.1781   3559129.0956   1   8   0.0004   0.0006   0.0006   0.0004  -0.0004  -0.0004  15.00   34.8
2022/07/04 01:29:30.000  -2491490.4242  -4660803.1782   3559129.0957   1   8   0.0004   0.0006   0.0006   0.0004  -0.0004  -0.0004   0.00   45.0
2022/07/04 01:29:45.000  -2491490.4242  -4660803.1781   3559129.0957   1   8   0.0004   0.0006   0.0006   0.0004  -0.0004  -0.0004  15.00   52.9
2022/07/04 01:30:00.000  -2491490.4242  -4660803.1782   3559129.0958   1   8   0.0004   0.0006   0.0006   0.0004  -0.0004  -0.0004   0.00   64.4
2022/07/04 01:30:15.000  -2491490.4242  -4660803.1782   3559129.0958   1   8   0.0004   0.0006   0.0006   0.0004  -0.0004  -0.0004  15.00   73.5
2022/07/04 01:30:30.000  -2491490.4243  -4660803.1783   3559129.0959   1   8   0.0004   0.0006   0.0006   0.0004  -0.0004  -0.0004   0.00   84.2
2022/07/04 01:30:45.000  -2491490.4243  -4660803.1783   3559129.0960   1   8   0.0004   0.0006   0.0006   0.0004  -0.0004  -0.0004  15.00   93.2
2022/07/04 01:31:00.000  -2491490.4243  -4660803.1784   3559129.0961   1   8   0.0004   0.0006   0.0006   0.0004  -0.0004  -0.0004   0.00  105.5
2022/07/04 01:31:15.000  -2491490.4243  -4660803.1784   3559129.0961   1   8   0.0004   0.0006   0.0006   0.0004  -0.0004  -0.0004  15.00  114.9
2022/07/04 01:31:30.000  -2491490.4244  -4660803.1784   3559129.0962   1   8   0.0004   0.0006   0.0006   0.0004  -0.0004  -0.0004   0.00  126.0
2022/07/04 01:31:45.000  -2491490.4244  -4660803.1784   3559129.0962   1   8   0.0004   0.0006   0.0006   0.0004  -0.0004  -0.0004  15.00  135.6
2022/07/04 01:32:00.000  -2491490.4244  -4660803.1785   3559129.0964   1   8   0.0004   0.0006   0.0006   0.0004  -0.0004  -0.0004   0.00  146.6
2022/07/04 01:32:15.000  -2491490.4245  -4660803.1785   3559129.0964   1   8   0.0004   0.0006   0.0006   0.0004  -0.0004  -0.0004  15.00  156.3
2022/07/04 01:32:30.000  -2491490.4245  -4660803.1786   3559129.0966   1   8   0.0004   0.0006   0.0006   0.0004  -0.0004  -0.0004   0.00  166.9
2022/07/04 01:32:45.000  -2491490.4245  -4660803.1786   3559129.0966   1   8   0.0004   0.0006   0.0006   0.0004  -0.0004  -0.0004  15.00  176.9
2022/07/04 01:33:00.000  -2491490.4246  -4660803.1786   3559129.0967   1   8   0.0004   0.0006   0.0006   0.0004  -0.0004  -0.0004   0.00  188.8
2022/07/04 01:33:15.000  -2491490.4242  -4660803.1782   3559129.0960   2   9   0.0004   0.0006   0.0006   0.0004  -0.0004  -0.0004  15.00    1.3
2022/07/04 01:33:30.000  -2491490.4243  -4660803.1783   3559129.0961   2   9   0.0004   0.0006   0.0006   0.0004  -0.0004  -0.0004   0.00    2.3
2022/07/04 01:33:45.000  -2491490.4243  -4660803.1782   3559129.0961   2   9   0.0004   0.0006   0.0006   0.0004  -0.0004  -0.0004  15.00    2.6
2022/07/04 01:34:00.000  -2491490.4247  -4660803.1788   3559129.0970   1   9   0.0004   0.0006   0.0006   0.0004  -0.0004  -0.0003   0.00    3.5
2022/07/04 01:34:15.000  -2491490.4247  -4660803.1788   3559129.0970   1   9   0.0004   0.0006   0.0006   0.0004  -0.0004  -0.0003  15.00    3.9
2022/07/04 01:34:30.000  -2491490.4248  -4660803.1789   3559129.0970   1   9   0.0004   0.0006   0.0006   0.0004  -0.0004  -0.0003   0.00    4.8
2022/07/04 01:34:45.000  -2491490.4248  -4660803.1789   3559129.0970   1   9   0.0004   0.0006   0.0006   0.0004  -0.0004  -0.0003  15.00    5.2
2022/07/04 01:35:00.000  -2491490.4248  -4660803.1789   3559129.0971   1   9   0.0004   0.0006   0.0006   0.0004  -0.0004  -0.0003   0.00    6.1
2022/07/04 01:35:15.000  -2491490.4248  -4660803.1789   3559129.0971   1   9   0.0004   0.0006   0.0006   0.0004  -0.0004  -0.0003  15.00    6.4
2022/07/04 01:35:30.000  -2491490.4249  -4660803.1790   3559129.0972   1   9   0.0004   0.0006   0.0006   0.0004  -0.0004  -0.0003   0.00    7.4
2022/07/04 01:35:45.000  -2491490.4249  -4660803.1790   3559129.0972   1   9   0.0004   0.0006   0.0006   0.0004  -0.0004  -0.0003  15.00    7.8
2022/07/04 01:36:00.000  -2491490.4249  -4660803.1791   3559129.0972   1   9   0.0004   0.0006   0.0006   0.0004  -0.0004  -0.0003   0.00    8.9
2022/07/04 01:36:15.000  -2491490.4249  -4660803.1791   3559129.0973   1   9   0.0004   0.0006   0.0006   0.0004  -0.0004  -0.0003  15.00    9.2
2022/07/04 01:36:30.000  -2491490.4250  -4660803.1791   3559129.0973   1   9   0.0004   0.0006   0.0006   0.0004  -0.0004  -0.0003   0.00   71.7
2022/07/04 01:36:45.000  -2491490.4250  -4660803.1791   3559129.0973   1   9   0.0004   0.0006   0.0006   0.0004  -0.0004  -0.0003  15.00  135.5
2022/07/04 01:37:00.000  -2491490.4250  -4660803.1791   3559129.0974   1   9   0.0004   0.0006   0.0005   0.0004  -0.0004  -0.0003   0.00  198.8
2022/07/04 01:37:15.000  -2491490.4250  -4660803.1791   3559129.0974   1   9   0.0004   0.0006   0.0005   0.0004  -0.0004  -0.0003  15.00  251.6
2022/07/04 01:37:30.000  -2491490.4251  -4660803.1792   3559129.0975   1   9   0.0004   0.0006   0.0005   0.0004  -0.0004  -0.0003   0.00  265.3
2022/07/04 01:37:45.000  -2491490.4251  -4660803.1792   3559129.0975   1   9   0.0004   0.0006   0.0005   0.0004  -0.0004  -0.0003  15.00  277.1
2022/07/04 01:38:00.000  -2491490.4251  -4660803.1793   3559129.0976   1   9   0.0004   0.0006   0.0005   0.0004  -0.0004  -0.0003   0.00  288.0
2022/07/04 01:38:15.000  -2491490.4251  -4660803.1793   3559129.0975   1   9   0.0004   0.0006   0.0005   0.0004  -0.0004  -0.0003  15.00  300.1
2022/07/04 01:38:30.000  -2491490.4252  -4660803.1794   3559129.0977   1   9   0.0004   0.0006   0.0005   0.0004  -0.0004  -0.0003   0.00  306.8
2022/07/04 01:38:45.000  -2491490.4252  -4660803.1794   3559129.0977   1   9   0.0004   0.0006   0.0005   0.0004  -0.0004  -0.0003  15.00  318.9
2022/07/04 01:39:00.000  -2491490.4253  -4660803.1795   3559129.0978   1   9   0.0004   0.0006   0.0005   0.0004  -0.0004  -0.0003   0.00  323.2
2022/07/04 01:39:15.000  -2491490.4253  -4660803.1795   3559129.0978   1   9   0.0004   0.0006   0.0005   0.0004  -0.0004  -0.0003  15.00  333.8
2022/07/04 01:39:30.000  -2491490.4253  -4660803.1796   3559129.0979   1   9   0.0004   0.0006   0.0005   0.0004  -0.0004  -0.0003   0.00  338.1
2022/07/04 01:39:45.000  -2491490.4253  -4660803.1796   3559129.0979   1   9   0.0004   0.0006   0.0005   0.0004  -0.0004  -0.0003  15.00  349.9
2022/07/04 01:40:00.000  -2491490.4254  -4660803.1796   3559129.0980   1   9   0.0004   0.0006   0.0005   0.0004  -0.0004  -0.0003   0.00  353.7
2022/07/04 01:40:15.000  -2491490.4253  -4660803.1796   3559129.0980   1   9   0.0004   0.0006   0.0005   0.0004  -0.0004  -0.0003  15.00  366.4
2022/07/04 01:40:30.000  -2491490.4254  -4660803.1797   3559129.0982   1   9   0.0004   0.0006   0.0005   0.0004  -0.0004  -0.0003   0.00  370.6
2022/07/04 01:40:45.000  -2491490.4254  -4660803.1797   3559129.0982   1   9   0.0004   0.0006   0.0005   0.0004  -0.0004  -0.0003  15.00  383.4
