% program   : RTKPOST ver.2.4.3 b34
% inp file  : C:\Users\89231\Documents\Учеба\Диссертация\Данные\Лос-Анджелес 03-05.07.22\03.07.2022\chil1840.22o
% inp file  : C:\Users\89231\Documents\Учеба\Диссертация\Данные\Лос-Анджелес 03-05.07.22\03.07.2022\jplm1840.22o
% inp file  : C:\Users\89231\Documents\Учеба\Диссертация\Данные\Лос-Анджелес 03-05.07.22\03.07.2022\jplm1840.22n
% inp file  : C:\Users\89231\Documents\Учеба\Диссертация\Данные\Лос-Анджелес 03-05.07.22\03.07.2022\igs22170.sp3
% obs start : 2022/07/03 00:00:00.0 GPST (week2217      0.0s)
% obs end   : 2022/07/03 23:59:45.0 GPST (week2217  86385.0s)
% pos mode  : Static
% freqs     : L1+2
% solution  : Forward
% elev mask : 15.0 deg
% dynamics  : off
% tidecorr  : off
% ionos opt : Broadcast
% tropo opt : Saastamoinen
% ephemeris : Precise
% navi sys  : GPS
% amb res   : Fix and Hold
% val thres : 3.0
% antenna1  :                       ( 0.0000  0.0000  0.6440)
% antenna2  :                       ( 0.0000  0.0000  0.0610)
% ref pos   : -2493304.7034  -4655215.1477   3565497.6261
%
% (x/y/z-ecef=WGS84,Q=1:fix,2:float,3:sbas,4:dgps,5:single,6:ppp,ns=# of satellites)
%  GPST                      x-ecef(m)      y-ecef(m)      z-ecef(m)   Q  ns   sdx(m)   sdy(m)   sdz(m)  sdxy(m)  sdyz(m)  sdzx(m) age(s)  ratio
2022/07/03 00:00:00.000  -2478003.4815  -4655348.9755   3577932.3805   1   8   0.0054   0.0102   0.0075   0.0058  -0.0075  -0.0049   0.00    5.9
2022/07/03 00:00:15.000  -2478003.4811  -4655348.9755   3577932.3802   1   8   0.0050   0.0095   0.0071   0.0054  -0.0070  -0.0046  15.00    8.2
2022/07/03 00:00:30.000  -2478003.4816  -4655348.9742   3577932.3781   1   8   0.0037   0.0070   0.0051   0.0040  -0.0051  -0.0033   0.00    5.5
2022/07/03 00:00:45.000  -2478003.4810  -4655348.9750   3577932.3786   1   8   0.0035   0.0067   0.0050   0.0038  -0.0050  -0.0032  15.00    6.9
2022/07/03 00:01:00.000  -2478003.4797  -4655348.9710   3577932.3761   1   8   0.0030   0.0056   0.0042   0.0032  -0.0041  -0.0027   0.00    6.2
2022/07/03 00:01:15.000  -2478003.4795  -4655348.9720   3577932.3765   1   8   0.0029   0.0055   0.0041   0.0031  -0.0041  -0.0027  15.00    6.5
2022/07/03 00:01:30.000  -2478003.4797  -4655348.9728   3577932.3768   1   8   0.0025   0.0048   0.0036   0.0028  -0.0036  -0.0023   0.00    5.6
2022/07/03 00:01:45.000  -2478003.4794  -4655348.9729   3577932.3767   1   8   0.0025   0.0048   0.0036   0.0027  -0.0035  -0.0023  15.00    5.6
2022/07/03 00:02:00.000  -2478003.4800  -4655348.9732   3577932.3764   1   8   0.0023   0.0043   0.0032   0.0025  -0.0032  -0.0021   0.00    5.4
2022/07/03 00:02:15.000  -2478003.4797  -4655348.9723   3577932.3760   1   8   0.0022   0.0043   0.0032   0.0024  -0.0031  -0.0021  15.00    5.5
2022/07/03 00:02:30.000  -2478003.4804  -4655348.9738   3577932.3764   1   8   0.0021   0.0039   0.0029   0.0022  -0.0029  -0.0019   0.00   19.3
2022/07/03 00:02:45.000  -2478003.4802  -4655348.9738   3577932.3764   1   8   0.0020   0.0039   0.0029   0.0022  -0.0029  -0.0019  15.00   34.5
2022/07/03 00:03:00.000  -2478003.4802  -4655348.9740   3577932.3762   1   8   0.0019   0.0036   0.0027   0.0021  -0.0027  -0.0018   0.00   42.5
2022/07/03 00:03:15.000  -2478003.4800  -4655348.9740   3577932.3761   1   8   0.0019   0.0036   0.0027   0.0020  -0.0027  -0.0017  15.00   58.7
2022/07/03 00:03:30.000  -2478003.4803  -4655348.9739   3577932.3760   1   8   0.0018   0.0034   0.0025   0.0019  -0.0025  -0.0016   0.00   62.9
2022/07/03 00:03:45.000  -2478003.4801  -4655348.9736   3577932.3760   1   8   0.0018   0.0034   0.0025   0.0019  -0.0025  -0.0016  15.00   78.4
2022/07/03 00:04:00.000  -2478003.4807  -4655348.9735   3577932.3761   1   8   0.0017   0.0032   0.0024   0.0018  -0.0024  -0.0015   0.00   76.4
2022/07/03 00:04:15.000  -2478003.4806  -4655348.9735   3577932.3761   1   8   0.0017   0.0032   0.0024   0.0018  -0.0023  -0.0015  15.00   90.0
2022/07/03 00:04:30.000  -2478003.4810  -4655348.9733   3577932.3764   1   8   0.0016   0.0030   0.0023   0.0017  -0.0022  -0.0015   0.00   84.5
2022/07/03 00:04:45.000  -2478003.4809  -4655348.9733   3577932.3764   1   8   0.0016   0.0030   0.0023   0.0017  -0.0022  -0.0015  15.00   96.1
2022/07/03 00:05:00.000  -2478003.4818  -4655348.9735   3577932.3769   1   8   0.0015   0.0029   0.0022   0.0016  -0.0021  -0.0014   0.00   91.0
2022/07/03 00:05:15.000  -2478003.4816  -4655348.9732   3577932.3768   1   8   0.0015   0.0029   0.0022   0.0016  -0.0021  -0.0014  15.00  101.1
2022/07/03 00:05:30.000  -2478003.4818  -4655348.9729   3577932.3773   1   8   0.0014   0.0028   0.0021   0.0016  -0.0020  -0.0013   0.00   93.7
2022/07/03 00:05:45.000  -2478003.4817  -4655348.9726   3577932.3772   1   8   0.0014   0.0028   0.0021   0.0016  -0.0020  -0.0013  15.00  102.7
2022/07/03 00:06:00.000  -2478003.4819  -4655348.9725   3577932.3776   1   8   0.0014   0.0027   0.0020   0.0015  -0.0020  -0.0013   0.00   96.9
2022/07/03 00:06:15.000  -2478003.4818  -4655348.9724   3577932.3775   1   8   0.0014   0.0026   0.0020   0.0015  -0.0020  -0.0013  15.00  105.4
2022/07/03 00:06:30.000  -2478003.4818  -4655348.9725   3577932.3778   1   8   0.0013   0.0026   0.0019   0.0014  -0.0019  -0.0012   0.00  102.0
2022/07/03 00:06:45.000  -2478003.4817  -4655348.9725   3577932.3779   1   8   0.0013   0.0025   0.0019   0.0014  -0.0019  -0.0012  15.00  110.3
2022/07/03 00:07:00.000  -2478003.4817  -4655348.9727   3577932.3781   1   8   0.0013   0.0025   0.0019   0.0014  -0.0018  -0.0012   0.00  107.0
2022/07/03 00:07:15.000  -2478003.4816  -4655348.9731   3577932.3781   1   8   0.0013   0.0025   0.0019   0.0014  -0.0018  -0.0012  15.00  115.0
2022/07/03 00:07:30.000  -2478003.4815  -4655348.9725   3577932.3780   1   8   0.0013   0.0024   0.0018   0.0013  -0.0018  -0.0012   0.00  112.2
2022/07/03 00:07:45.000  -2478003.4813  -4655348.9722   3577932.3779   1   8   0.0012   0.0024   0.0018   0.0013  -0.0018  -0.0012  15.00  119.5
2022/07/03 00:08:00.000  -2478003.4810  -4655348.9715   3577932.3777   1   8   0.0012   0.0023   0.0018   0.0013  -0.0017  -0.0011   0.00  117.4
2022/07/03 00:08:15.000  -2478003.4808  -4655348.9711   3577932.3776   1   8   0.0012   0.0023   0.0018   0.0013  -0.0017  -0.0011  15.00  125.1
2022/07/03 00:08:30.000  -2478003.4807  -4655348.9708   3577932.3776   1   8   0.0012   0.0023   0.0017   0.0013  -0.0017  -0.0011   0.00  123.7
2022/07/03 00:08:45.000  -2478003.4806  -4655348.9709   3577932.3777   1   8   0.0012   0.0022   0.0017   0.0013  -0.0017  -0.0011  15.00  131.1
2022/07/03 00:09:00.000  -2478003.4803  -4655348.9706   3577932.3773   1   8   0.0011   0.0022   0.0017   0.0012  -0.0016  -0.0011   0.00  129.0
2022/07/03 00:09:15.000  -2478003.4801  -4655348.9704   3577932.3773   1   8   0.0011   0.0022   0.0017   0.0012  -0.0016  -0.0011  15.00  136.2
2022/07/03 00:09:30.000  -2478003.4799  -4655348.9700   3577932.3770   1   8   0.0011   0.0021   0.0016   0.0012  -0.0016  -0.0010   0.00  136.5
2022/07/03 00:09:45.000  -2478003.4797  -4655348.9698   3577932.3769   1   8   0.0011   0.0021   0.0016   0.0012  -0.0016  -0.0010  15.00  143.9
2022/07/03 00:10:00.000  -2478003.4797  -4655348.9698   3577932.3769   1   8   0.0011   0.0021   0.0016   0.0012  -0.0015  -0.0010   0.00  142.7
2022/07/03 00:10:15.000  -2478003.4795  -4655348.9694   3577932.3768   1   8   0.0011   0.0021   0.0016   0.0012  -0.0015  -0.0010  15.00  149.6
2022/07/03 00:10:30.000  -2478003.4794  -4655348.9695   3577932.3766   1   8   0.0011   0.0020   0.0016   0.0011  -0.0015  -0.0010   0.00  149.0
2022/07/03 00:10:45.000  -2478003.4793  -4655348.9692   3577932.3764   1   8   0.0011   0.0020   0.0016   0.0011  -0.0015  -0.0010  15.00  156.2
2022/07/03 00:11:00.000  -2478003.4794  -4655348.9696   3577932.3765   1   8   0.0010   0.0020   0.0015   0.0011  -0.0015  -0.0010   0.00  154.7
2022/07/03 00:11:15.000  -2478003.4794  -4655348.9696   3577932.3765   1   8   0.0010   0.0020   0.0015   0.0011  -0.0015  -0.0010  15.00  162.0
2022/07/03 00:11:30.000  -2478003.4795  -4655348.9704   3577932.3766   1   8   0.0010   0.0020   0.0015   0.0011  -0.0014  -0.0010   0.00  159.9
2022/07/03 00:11:45.000  -2478003.4794  -4655348.9703   3577932.3766   1   8   0.0010   0.0019   0.0015   0.0011  -0.0014  -0.0010  15.00  166.7
2022/07/03 00:12:00.000  -2478003.4797  -4655348.9715   3577932.3771   1   8   0.0010   0.0019   0.0015   0.0011  -0.0014  -0.0009   0.00  163.3
2022/07/03 00:12:15.000  -2478003.4797  -4655348.9715   3577932.3771   1   8   0.0010   0.0019   0.0015   0.0011  -0.0014  -0.0009  15.00  170.0
2022/07/03 00:12:30.000  -2478003.4800  -4655348.9724   3577932.3776   1   8   0.0010   0.0019   0.0014   0.0010  -0.0014  -0.0009   0.00  165.1
2022/07/03 00:12:45.000  -2478003.4800  -4655348.9726   3577932.3776   1   8   0.0010   0.0019   0.0014   0.0010  -0.0014  -0.0009  15.00  171.6
2022/07/03 00:13:00.000  -2478003.4802  -4655348.9732   3577932.3779   1   8   0.0010   0.0018   0.0014   0.0010  -0.0014  -0.0009   0.00  166.5
2022/07/03 00:13:15.000  -2478003.4801  -4655348.9731   3577932.3778   1   8   0.0010   0.0018   0.0014   0.0010  -0.0014  -0.0009  15.00  172.7
2022/07/03 00:13:30.000  -2478003.4802  -4655348.9737   3577932.3781   1   8   0.0009   0.0018   0.0014   0.0010  -0.0013  -0.0009   0.00  169.4
2022/07/03 00:13:45.000  -2478003.4802  -4655348.9738   3577932.3781   1   8   0.0009   0.0018   0.0014   0.0010  -0.0013  -0.0009  15.00  175.9
2022/07/03 00:14:00.000  -2478003.4802  -4655348.9743   3577932.3782   1   8   0.0009   0.0018   0.0014   0.0010  -0.0013  -0.0009   0.00  173.9
2022/07/03 00:14:15.000  -2478003.4802  -4655348.9743   3577932.3782   1   8   0.0009   0.0018   0.0014   0.0010  -0.0013  -0.0009  15.00  180.3
2022/07/03 00:14:30.000  -2478003.4803  -4655348.9750   3577932.3785   1   8   0.0009   0.0017   0.0014   0.0010  -0.0013  -0.0009   0.00  178.4
2022/07/03 00:14:45.000  -2478003.4803  -4655348.9749   3577932.3785   1   8   0.0009   0.0017   0.0014   0.0010  -0.0013  -0.0009  15.00  184.8
2022/07/03 00:15:00.000  -2478003.4804  -4655348.9755   3577932.3786   1   8   0.0009   0.0017   0.0013   0.0010  -0.0013  -0.0008   0.00  182.2
2022/07/03 00:15:15.000  -2478003.4803  -4655348.9754   3577932.3786   1   8   0.0009   0.0017   0.0013   0.0010  -0.0013  -0.0008  15.00  188.5
2022/07/03 00:15:30.000  -2478003.4804  -4655348.9760   3577932.3787   1   8   0.0009   0.0017   0.0013   0.0009  -0.0013  -0.0008   0.00  187.3
2022/07/03 00:15:45.000  -2478003.4803  -4655348.9761   3577932.3787   1   8   0.0009   0.0017   0.0013   0.0009  -0.0013  -0.0008  15.00  194.4
2022/07/03 00:16:00.000  -2478003.4803  -4655348.9766   3577932.3789   1   8   0.0009   0.0017   0.0013   0.0009  -0.0012  -0.0008   0.00  195.3
2022/07/03 00:16:15.000  -2478003.4802  -4655348.9765   3577932.3788   1   8   0.0009   0.0017   0.0013   0.0009  -0.0012  -0.0008  15.00  202.2
2022/07/03 00:16:30.000  -2478003.4803  -4655348.9770   3577932.3790   1   8   0.0009   0.0016   0.0013   0.0009  -0.0012  -0.0008   0.00  201.9
2022/07/03 00:16:45.000  -2478003.4802  -4655348.9770   3577932.3789   1   8   0.0009   0.0016   0.0013   0.0009  -0.0012  -0.0008  15.00  209.1
2022/07/03 00:17:00.000  -2478003.4802  -4655348.9776   3577932.3790   1   8   0.0008   0.0016   0.0013   0.0009  -0.0012  -0.0008   0.00  211.3
2022/07/03 00:17:15.000  -2478003.4802  -4655348.9775   3577932.3790   1   8   0.0008   0.0016   0.0013   0.0009  -0.0012  -0.0008  15.00  218.7
2022/07/03 00:17:30.000  -2478003.4802  -4655348.9780   3577932.3790   1   8   0.0008   0.0016   0.0013   0.0009  -0.0012  -0.0008   0.00  220.9
2022/07/03 00:17:45.000  -2478003.4801  -4655348.9779   3577932.3789   1   8   0.0008   0.0016   0.0013   0.0009  -0.0012  -0.0008  15.00  228.4
2022/07/03 00:18:00.000  -2478003.4801  -4655348.9784   3577932.3789   1   8   0.0008   0.0016   0.0012   0.0009  -0.0012  -0.0008   0.00  230.5
2022/07/03 00:18:15.000  -2478003.4801  -4655348.9784   3577932.3788   1   8   0.0008   0.0016   0.0012   0.0009  -0.0012  -0.0008  15.00  238.0
2022/07/03 00:18:30.000  -2478003.4801  -4655348.9789   3577932.3789   1   8   0.0008   0.0016   0.0012   0.0009  -0.0012  -0.0008   0.00  237.3
2022/07/03 00:18:45.000  -2478003.4801  -4655348.9789   3577932.3788   1   8   0.0008   0.0016   0.0012   0.0009  -0.0012  -0.0008  15.00  244.8
2022/07/03 00:19:00.000  -2478003.4801  -4655348.9794   3577932.3790   1   8   0.0008   0.0015   0.0012   0.0009  -0.0011  -0.0008   0.00  242.8
2022/07/03 00:19:15.000  -2478003.4800  -4655348.9793   3577932.3790   1   8   0.0008   0.0015   0.0012   0.0009  -0.0011  -0.0008  15.00  250.0
2022/07/03 00:19:30.000  -2478003.4801  -4655348.9797   3577932.3793   1   8   0.0008   0.0015   0.0012   0.0008  -0.0011  -0.0007   0.00  245.4
2022/07/03 00:19:45.000  -2478003.4800  -4655348.9798   3577932.3793   1   8   0.0008   0.0015   0.0012   0.0008  -0.0011  -0.0007  15.00  252.6
2022/07/03 00:20:00.000  -2478003.4801  -4655348.9802   3577932.3796   1   8   0.0008   0.0015   0.0012   0.0008  -0.0011  -0.0007   0.00  249.0
2022/07/03 00:20:15.000  -2478003.4800  -4655348.9801   3577932.3796   1   8   0.0008   0.0015   0.0012   0.0008  -0.0011  -0.0007  15.00  255.1
2022/07/03 00:20:30.000  -2478003.4800  -4655348.9802   3577932.3798   1   8   0.0008   0.0015   0.0012   0.0008  -0.0011  -0.0007   0.00  250.3
2022/07/03 00:20:45.000  -2478003.4799  -4655348.9801   3577932.3797   1   8   0.0008   0.0015   0.0012   0.0008  -0.0011  -0.0007  15.00  257.1
2022/07/03 00:21:00.000  -2478003.4799  -4655348.9804   3577932.3800   1   8   0.0008   0.0015   0.0012   0.0008  -0.0011  -0.0007   0.00  255.4
2022/07/03 00:21:15.000  -2478003.4799  -4655348.9804   3577932.3800   1   8   0.0008   0.0015   0.0012   0.0008  -0.0011  -0.0007  15.00  262.8
2022/07/03 00:21:30.000  -2478003.4799  -4655348.9806   3577932.3802   1   8   0.0008   0.0014   0.0011   0.0008  -0.0011  -0.0007   0.00  260.2
2022/07/03 00:21:45.000  -2478003.4798  -4655348.9805   3577932.3802   1   8   0.0008   0.0014   0.0011   0.0008  -0.0011  -0.0007  15.00  267.3
2022/07/03 00:22:00.000  -2478003.4798  -4655348.9805   3577932.3803   1   8   0.0008   0.0014   0.0011   0.0008  -0.0011  -0.0007   0.00  265.4
2022/07/03 00:22:15.000  -2478003.4798  -4655348.9806   3577932.3802   1   8   0.0008   0.0014   0.0011   0.0008  -0.0011  -0.0007  15.00  273.3
2022/07/03 00:22:30.000  -2478003.4798  -4655348.9808   3577932.3803   1   8   0.0007   0.0014   0.0011   0.0008  -0.0011  -0.0007   0.00  274.2
2022/07/03 00:22:45.000  -2478003.4798  -4655348.9806   3577932.3803   1   8   0.0007   0.0014   0.0011   0.0008  -0.0011  -0.0007  15.00  282.3
2022/07/03 00:23:00.000  -2478003.4799  -4655348.9808   3577932.3804   1   8   0.0007   0.0014   0.0011   0.0008  -0.0010  -0.0007   0.00  286.9
2022/07/03 00:23:15.000  -2478003.4799  -4655348.9808   3577932.3804   1   8   0.0007   0.0014   0.0011   0.0008  -0.0010  -0.0007  15.00  296.2
2022/07/03 00:23:30.000  -2478003.4799  -4655348.9808   3577932.3803   1   8   0.0007   0.0014   0.0011   0.0008  -0.0010  -0.0007   0.00  302.1
2022/07/03 00:23:45.000  -2478003.4799  -4655348.9808   3577932.3803   1   8   0.0007   0.0014   0.0011   0.0008  -0.0010  -0.0007  15.00  312.4
2022/07/03 00:24:00.000  -2478003.4800  -4655348.9810   3577932.3803   1   8   0.0007   0.0014   0.0011   0.0008  -0.0010  -0.0007   0.00  320.5
2022/07/03 00:24:15.000  -2478003.4799  -4655348.9810   3577932.3803   1   8   0.0007   0.0014   0.0011   0.0008  -0.0010  -0.0007  15.00  331.4
2022/07/03 00:24:30.000  -2478003.4800  -4655348.9812   3577932.3805   1   8   0.0007   0.0014   0.0011   0.0007  -0.0010  -0.0007   0.00  336.5
2022/07/03 00:24:45.000  -2478003.4800  -4655348.9812   3577932.3804   1   8   0.0007   0.0014   0.0011   0.0007  -0.0010  -0.0007  15.00  347.2
2022/07/03 00:25:00.000  -2478003.4800  -4655348.9811   3577932.3804   1   8   0.0007   0.0013   0.0011   0.0007  -0.0010  -0.0007   0.00  348.6
2022/07/03 00:25:15.000  -2478003.4800  -4655348.9811   3577932.3804   1   8   0.0007   0.0013   0.0011   0.0007  -0.0010  -0.0007  15.00  359.8
2022/07/03 00:25:30.000  -2478003.4798  -4655348.9809   3577932.3801   1   8   0.0007   0.0013   0.0011   0.0007  -0.0010  -0.0007   0.00  363.6
2022/07/03 00:25:45.000  -2478003.4798  -4655348.9808   3577932.3800   1   8   0.0007   0.0013   0.0011   0.0007  -0.0010  -0.0007  15.00  374.3
2022/07/03 00:26:00.000  -2478003.4797  -4655348.9808   3577932.3798   1   8   0.0007   0.0013   0.0011   0.0007  -0.0010  -0.0007   0.00  382.1
2022/07/03 00:26:15.000  -2478003.4797  -4655348.9807   3577932.3797   1   8   0.0007   0.0013   0.0011   0.0007  -0.0010  -0.0007  15.00  393.7
2022/07/03 00:26:30.000  -2478003.4785  -4655348.9785   3577932.3785   2   9   0.0008   0.0014   0.0012   0.0008  -0.0011  -0.0007   0.00    1.7
2022/07/03 00:26:45.000  -2478003.4784  -4655348.9785   3577932.3784   2   9   0.0008   0.0014   0.0012   0.0008  -0.0011  -0.0007  15.00    2.0
2022/07/03 00:27:00.000  -2478003.4783  -4655348.9783   3577932.3780   2   9   0.0008   0.0014   0.0012   0.0008  -0.0011  -0.0007   0.00    2.7
2022/07/03 00:27:15.000  -2478003.4782  -4655348.9782   3577932.3779   2   9   0.0008   0.0014   0.0012   0.0008  -0.0011  -0.0007  15.00    3.0
2022/07/03 00:27:30.000  -2478003.4791  -4655348.9799   3577932.3782   1   9   0.0007   0.0013   0.0010   0.0007  -0.0009  -0.0006   0.00    3.7
2022/07/03 00:27:45.000  -2478003.4791  -4655348.9798   3577932.3781   1   9   0.0007   0.0013   0.0010   0.0007  -0.0009  -0.0006  15.00    4.0
2022/07/03 00:28:00.000  -2478003.4790  -4655348.9797   3577932.3778   1   9   0.0007   0.0012   0.0010   0.0007  -0.0009  -0.0006   0.00    4.9
2022/07/03 00:28:15.000  -2478003.4789  -4655348.9796   3577932.3777   1   9   0.0007   0.0012   0.0010   0.0007  -0.0009  -0.0006  15.00    5.2
2022/07/03 00:28:30.000  -2478003.4787  -4655348.9794   3577932.3773   1   9   0.0007   0.0012   0.0010   0.0007  -0.0009  -0.0006   0.00    5.9
2022/07/03 00:28:45.000  -2478003.4786  -4655348.9792   3577932.3772   1   9   0.0007   0.0012   0.0010   0.0007  -0.0009  -0.0006  15.00    6.2
2022/07/03 00:29:00.000  -2478003.4785  -4655348.9792   3577932.3769   1   9   0.0007   0.0012   0.0010   0.0007  -0.0009  -0.0006   0.00    6.9
2022/07/03 00:29:15.000  -2478003.4784  -4655348.9792   3577932.3768   1   9   0.0007   0.0012   0.0010   0.0007  -0.0009  -0.0006  15.00    7.3
2022/07/03 00:29:30.000  -2478003.4782  -4655348.9790   3577932.3765   1   9   0.0007   0.0012   0.0010   0.0007  -0.0009  -0.0006   0.00    8.0
2022/07/03 00:29:45.000  -2478003.4782  -4655348.9790   3577932.3764   1   9   0.0007   0.0012   0.0010   0.0007  -0.0009  -0.0006  15.00    8.5
2022/07/03 00:30:00.000  -2478003.4779  -4655348.9788   3577932.3761   1   9   0.0006   0.0012   0.0010   0.0007  -0.0009  -0.0006   0.00   16.7
2022/07/03 00:30:15.000  -2478003.4779  -4655348.9787   3577932.3760   1   9   0.0006   0.0012   0.0010   0.0007  -0.0009  -0.0006  15.00   25.4
2022/07/03 00:30:30.000  -2478003.4777  -4655348.9786   3577932.3757   1   9   0.0006   0.0012   0.0010   0.0006  -0.0009  -0.0006   0.00   34.6
2022/07/03 00:30:45.000  -2478003.4777  -4655348.9786   3577932.3756   1   9   0.0006   0.0012   0.0010   0.0006  -0.0009  -0.0006  15.00   44.1
2022/07/03 00:31:00.000  -2478003.4776  -4655348.9785   3577932.3754   1   9   0.0006   0.0012   0.0010   0.0006  -0.0009  -0.0006   0.00   52.9
2022/07/03 00:31:15.000  -2478003.4775  -4655348.9784   3577932.3753   1   9   0.0006   0.0012   0.0010   0.0006  -0.0009  -0.0006  15.00   62.8
2022/07/03 00:31:30.000  -2478003.4774  -4655348.9784   3577932.3752   1   9   0.0006   0.0011   0.0010   0.0006  -0.0009  -0.0006   0.00   71.8
2022/07/03 00:31:45.000  -2478003.4773  -4655348.9784   3577932.3752   1   9   0.0006   0.0011   0.0010   0.0006  -0.0009  -0.0006  15.00   82.5
2022/07/03 00:32:00.000  -2478003.4772  -4655348.9782   3577932.3750   1   9   0.0006   0.0011   0.0010   0.0006  -0.0009  -0.0006   0.00   89.6
2022/07/03 00:32:15.000  -2478003.4771  -4655348.9782   3577932.3749   1   9   0.0006   0.0011   0.0010   0.0006  -0.0009  -0.0006  15.00  100.6
2022/07/03 00:32:30.000  -2478003.4771  -4655348.9783   3577932.3749   1   9   0.0006   0.0011   0.0010   0.0006  -0.0008  -0.0006   0.00  106.7
2022/07/03 00:32:45.000  -2478003.4770  -4655348.9783   3577932.3749   1   9   0.0006   0.0011   0.0010   0.0006  -0.0008  -0.0006  15.00  118.1
2022/07/03 00:33:00.000  -2478003.4771  -4655348.9784   3577932.3749   1   9   0.0006   0.0011   0.0010   0.0006  -0.0008  -0.0006   0.00  125.0
2022/07/03 00:33:15.000  -2478003.4770  -4655348.9784   3577932.3748   1   9   0.0006   0.0011   0.0010   0.0006  -0.0008  -0.0006  15.00  136.3
2022/07/03 00:33:30.000  -2478003.4770  -4655348.9784   3577932.3748   1   9   0.0006   0.0011   0.0009   0.0006  -0.0008  -0.0006   0.00  143.3
2022/07/03 00:33:45.000  -2478003.4769  -4655348.9783   3577932.3748   1   9   0.0006   0.0011   0.0009   0.0006  -0.0008  -0.0006  15.00  153.5
2022/07/03 00:34:00.000  -2478003.4769  -4655348.9784   3577932.3748   1   9   0.0006   0.0011   0.0009   0.0006  -0.0008  -0.0006   0.00  157.9
2022/07/03 00:34:15.000  -2478003.4769  -4655348.9784   3577932.3748   1   9   0.0006   0.0011   0.0009   0.0006  -0.0008  -0.0006  15.00  169.3
2022/07/03 00:34:30.000  -2478003.4769  -4655348.9785   3577932.3749   1   9   0.0006   0.0011   0.0009   0.0006  -0.0008  -0.0006   0.00  172.2
2022/07/03 00:34:45.000  -2478003.4768  -4655348.9785   3577932.3748   1   9   0.0006   0.0011   0.0009   0.0006  -0.0008  -0.0006  15.00  184.0
2022/07/03 00:35:00.000  -2478003.4769  -4655348.9787   3577932.3750   1   9   0.0006   0.0011   0.0009   0.0006  -0.0008  -0.0006   0.00  187.4
2022/07/03 00:35:15.000  -2478003.4768  -4655348.9787   3577932.3750   1   9   0.0006   0.0011   0.0009   0.0006  -0.0008  -0.0006  15.00  199.8
2022/07/03 00:35:30.000  -2478003.4769  -4655348.9789   3577932.3751   1   9   0.0006   0.0011   0.0009   0.0006  -0.0008  -0.0006   0.00  205.9
2022/07/03 00:35:45.000  -2478003.4768  -4655348.9788   3577932.3751   1   9   0.0006   0.0011   0.0009   0.0006  -0.0008  -0.0006  15.00  217.6
2022/07/03 00:36:00.000  -2478003.4769  -4655348.9790   3577932.3752   1   9   0.0006   0.0010   0.0009   0.0006  -0.0008  -0.0006   0.00  225.1
2022/07/03 00:36:15.000  -2478003.4768  -4655348.9791   3577932.3752   1   9   0.0006   0.0010   0.0009   0.0006  -0.0008  -0.0006  15.00  238.6
2022/07/03 00:36:30.000  -2478003.4770  -4655348.9793   3577932.3754   1   9   0.0006   0.0010   0.0009   0.0006  -0.0008  -0.0005   0.00  245.1
2022/07/03 00:36:45.000  -2478003.4769  -4655348.9792   3577932.3754   1   9   0.0006   0.0010   0.0009   0.0006  -0.0008  -0.0005  15.00  259.0
2022/07/03 00:37:00.000  -2478003.4770  -4655348.9793   3577932.3755   1   9   0.0006   0.0010   0.0009   0.0006  -0.0008  -0.0005   0.00  265.1
2022/07/03 00:37:15.000  -2478003.4770  -4655348.9793   3577932.3755   1   9   0.0006   0.0010   0.0009   0.0006  -0.0008  -0.0005  15.00  279.6
2022/07/03 00:37:30.000  -2478003.4771  -4655348.9794   3577932.3757   1   9   0.0006   0.0010   0.0009   0.0006  -0.0008  -0.0005   0.00  287.5
2022/07/03 00:37:45.000  -2478003.4771  -4655348.9794   3577932.3757   1   9   0.0006   0.0010   0.0009   0.0006  -0.0008  -0.0005  15.00  301.6
2022/07/03 00:38:00.000  -2478003.4772  -4655348.9795   3577932.3757   1   9   0.0006   0.0010   0.0009   0.0006  -0.0008  -0.0005   0.00  310.0
2022/07/03 00:38:15.000  -2478003.4771  -4655348.9795   3577932.3757   1   9   0.0006   0.0010   0.0009   0.0006  -0.0008  -0.0005  15.00  325.1
2022/07/03 00:38:30.000  -2478003.4772  -4655348.9796   3577932.3758   1   9   0.0006   0.0010   0.0009   0.0006  -0.0008  -0.0005   0.00  333.7
2022/07/03 00:38:45.000  -2478003.4771  -4655348.9796   3577932.3758   1   9   0.0006   0.0010   0.0009   0.0006  -0.0008  -0.0005  15.00  349.8
2022/07/03 00:39:00.000  -2478003.4771  -4655348.9796   3577932.3758   1   9   0.0006   0.0010   0.0009   0.0006  -0.0008  -0.0005   0.00  358.4
2022/07/03 00:39:15.000  -2478003.4771  -4655348.9796   3577932.3757   1   9   0.0006   0.0010   0.0009   0.0006  -0.0008  -0.0005  15.00  374.5
2022/07/03 00:39:30.000  -2478003.4771  -4655348.9796   3577932.3758   1   9   0.0006   0.0010   0.0009   0.0005  -0.0007  -0.0005   0.00  377.0
2022/07/03 00:39:45.000  -2478003.4771  -4655348.9796   3577932.3758   1   9   0.0006   0.0010   0.0009   0.0005  -0.0007  -0.0005  15.00  392.9
2022/07/03 00:40:00.000  -2478003.4774  -4655348.9801   3577932.3762   1   9   0.0006   0.0010   0.0009   0.0006  -0.0007  -0.0005   0.00  460.1
2022/07/03 00:40:15.000  -2478003.4774  -4655348.9801   3577932.3762   1   9   0.0006   0.0010   0.0009   0.0006  -0.0007  -0.0005  15.00  479.3
2022/07/03 00:40:30.000  -2478003.4775  -4655348.9803   3577932.3763   1   9   0.0006   0.0010   0.0009   0.0005  -0.0007  -0.0005   0.00  482.3
2022/07/03 00:40:45.000  -2478003.4775  -4655348.9803   3577932.3763   1   9   0.0006   0.0010   0.0009   0.0005  -0.0007  -0.0005  15.00  502.6
2022/07/03 00:41:00.000  -2478003.4775  -4655348.9805   3577932.3765   1   9   0.0006   0.0010   0.0009   0.0005  -0.0007  -0.0005   0.00  505.4
2022/07/03 00:41:15.000  -2478003.4775  -4655348.9804   3577932.3765   1   9   0.0006   0.0010   0.0009   0.0005  -0.0007  -0.0005  15.00  526.0
2022/07/03 00:41:30.000  -2478003.4777  -4655348.9808   3577932.3768   1   9   0.0006   0.0010   0.0009   0.0005  -0.0007  -0.0005   0.00  513.8
2022/07/03 00:41:45.000  -2478003.4777  -4655348.9808   3577932.3768   1   9   0.0006   0.0010   0.0009   0.0005  -0.0007  -0.0005  15.00  532.2
2022/07/03 00:42:00.000  -2478003.4778  -4655348.9811   3577932.3770   1   9   0.0006   0.0009   0.0009   0.0005  -0.0007  -0.0005   0.00  520.9
2022/07/03 00:42:15.000  -2478003.4777  -4655348.9811   3577932.3770   1   9   0.0006   0.0009   0.0009   0.0005  -0.0007  -0.0005  15.00  541.4
2022/07/03 00:42:30.000  -2478003.4779  -4655348.9814   3577932.3772   1   9   0.0006   0.0009   0.0009   0.0005  -0.0007  -0.0005   0.00  539.4
2022/07/03 00:42:45.000  -2478003.4779  -4655348.9814   3577932.3772   1   9   0.0006   0.0009   0.0009   0.0005  -0.0007  -0.0005  15.00  558.8
2022/07/03 00:43:00.000  -2478003.4780  -4655348.9816   3577932.3774   1   9   0.0005   0.0009   0.0008   0.0005  -0.0007  -0.0005   0.00  551.5
2022/07/03 00:43:15.000  -2478003.4779  -4655348.9815   3577932.3774   1   9   0.0005   0.0009   0.0008   0.0005  -0.0007  -0.0005  15.00  571.9
2022/07/03 00:43:30.000  -2478003.4780  -4655348.9817   3577932.3775   1   9   0.0005   0.0009   0.0008   0.0005  -0.0007  -0.0005   0.00  562.0
2022/07/03 00:43:45.000  -2478003.4780  -4655348.9817   3577932.3775   1   9   0.0005   0.0009   0.0008   0.0005  -0.0007  -0.0005  15.00  579.8
2022/07/03 00:44:00.000  -2478003.4781  -4655348.9819   3577932.3777   1   9   0.0005   0.0009   0.0008   0.0005  -0.0007  -0.0005   0.00  571.0
2022/07/03 00:44:15.000  -2478003.4782  -4655348.9820   3577932.3777   1   9   0.0005   0.0009   0.0008   0.0005  -0.0007  -0.0005  15.00  592.5
2022/07/03 00:44:30.000  -2478003.4784  -4655348.9823   3577932.3780   1   9   0.0005   0.0009   0.0008   0.0005  -0.0007  -0.0005   0.00  582.1
2022/07/03 00:44:45.000  -2478003.4784  -4655348.9824   3577932.3780   1   9   0.0005   0.0009   0.0008   0.0005  -0.0007  -0.0005  15.00  600.5
2022/07/03 00:45:00.000  -2478003.4786  -4655348.9826   3577932.3783   1   9   0.0005   0.0009   0.0008   0.0005  -0.0007  -0.0005   0.00  578.0
2022/07/03 00:45:15.000  -2478003.4786  -4655348.9826   3577932.3783   1   9   0.0005   0.0009   0.0008   0.0005  -0.0007  -0.0005  15.00  592.0
2022/07/03 00:45:30.000  -2478003.4788  -4655348.9828   3577932.3786   1   9   0.0005   0.0009   0.0008   0.0005  -0.0007  -0.0005   0.00  573.3
2022/07/03 00:45:45.000  -2478003.4788  -4655348.9828   3577932.3786   1   9   0.0005   0.0009   0.0008   0.0005  -0.0007  -0.0005  15.00  589.0
2022/07/03 00:46:00.000  -2478003.4792  -4655348.9833   3577932.3791   1   8   0.0005   0.0009   0.0008   0.0005  -0.0007  -0.0005   0.00  724.5
2022/07/03 00:46:15.000  -2478003.4792  -4655348.9833   3577932.3791   1   8   0.0005   0.0009   0.0008   0.0005  -0.0007  -0.0005  15.00  748.1
2022/07/03 00:46:30.000  -2478003.4794  -4655348.9836   3577932.3794   1   8   0.0005   0.0009   0.0008   0.0005  -0.0007  -0.0005   0.00  734.7
2022/07/03 00:46:45.000  -2478003.4795  -4655348.9836   3577932.3794   1   8   0.0005   0.0009   0.0008   0.0005  -0.0007  -0.0005  15.00  758.2
2022/07/03 00:47:00.000  -2478003.4796  -4655348.9838   3577932.3796   1   8   0.0005   0.0009   0.0008   0.0005  -0.0007  -0.0005   0.00  758.2
2022/07/03 00:47:15.000  -2478003.4796  -4655348.9837   3577932.3796   1   8   0.0005   0.0009   0.0008   0.0005  -0.0007  -0.0005  15.00  779.9
2022/07/03 00:47:30.000  -2478003.4798  -4655348.9839   3577932.3799   1   8   0.0005   0.0009   0.0008   0.0005  -0.0007  -0.0005   0.00  776.1
2022/07/03 00:47:45.000  -2478003.4798  -4655348.9840   3577932.3799   1   8   0.0005   0.0009   0.0008   0.0005  -0.0007  -0.0005  15.00  798.9
2022/07/03 00:48:00.000  -2478003.4800  -4655348.9841   3577932.3801   1   8   0.0005   0.0009   0.0008   0.0005  -0.0007  -0.0005   0.00  796.4
2022/07/03 00:48:15.000  -2478003.4799  -4655348.9841   3577932.3801   1   8   0.0005   0.0009   0.0008   0.0005  -0.0007  -0.0005  15.00  821.2
2022/07/03 00:48:30.000  -2478003.4801  -4655348.9843   3577932.3803   1   8   0.0005   0.0009   0.0008   0.0005  -0.0007  -0.0005   0.00  814.6
2022/07/03 00:48:45.000  -2478003.4801  -4655348.9844   3577932.3803   1   8   0.0005   0.0009   0.0008   0.0005  -0.0007  -0.0005  15.00  837.1
2022/07/03 00:49:00.000  -2478003.4803  -4655348.9845   3577932.3804   1   8   0.0005   0.0009   0.0008   0.0005  -0.0007  -0.0005   0.00  829.6
2022/07/03 00:49:15.000  -2478003.4803  -4655348.9845   3577932.3804   1   8   0.0005   0.0009   0.0008   0.0005  -0.0007  -0.0005  15.00  852.7
2022/07/03 00:49:30.000  -2478003.4804  -4655348.9847   3577932.3805   1   8   0.0005   0.0009   0.0008   0.0005  -0.0007  -0.0005   0.00  844.0
2022/07/03 00:49:45.000  -2478003.4804  -4655348.9847   3577932.3805   1   8   0.0005   0.0009   0.0008   0.0005  -0.0007  -0.0005  15.00  868.0
2022/07/03 00:50:00.000  -2478003.4805  -4655348.9849   3577932.3807   1   8   0.0005   0.0009   0.0008   0.0005  -0.0007  -0.0005   0.00  864.6
2022/07/03 00:50:15.000  -2478003.4801  -4655348.9846   3577932.3800   1   7   0.0005   0.0009   0.0008   0.0005  -0.0007  -0.0005  15.00  999.9
2022/07/03 00:50:30.000  -2478003.4802  -4655348.9847   3577932.3800   1   7   0.0005   0.0008   0.0008   0.0005  -0.0007  -0.0005   0.00  999.9
2022/07/03 00:50:45.000  -2478003.4802  -4655348.9847   3577932.3800   1   7   0.0005   0.0008   0.0008   0.0005  -0.0007  -0.0005  15.00  999.9
2022/07/03 00:51:00.000  -2478003.4803  -4655348.9847   3577932.3799   1   7   0.0005   0.0008   0.0008   0.0005  -0.0007  -0.0005   0.00  999.9
2022/07/03 00:51:15.000  -2478003.4803  -4655348.9847   3577932.3799   1   7   0.0005   0.0008   0.0008   0.0005  -0.0007  -0.0005  15.00  999.9
2022/07/03 00:51:30.000  -2478003.4803  -4655348.9848   3577932.3799   1   7   0.0005   0.0008   0.0008   0.0005  -0.0006  -0.0005   0.00  999.9
2022/07/03 00:51:45.000  -2478003.4803  -4655348.9848   3577932.3799   1   7   0.0005   0.0008   0.0008   0.0005  -0.0006  -0.0005  15.00  999.9
2022/07/03 00:52:00.000  -2478003.4803  -4655348.9849   3577932.3798   1   7   0.0005   0.0008   0.0008   0.0005  -0.0006  -0.0005   0.00  999.9
2022/07/03 00:52:15.000  -2478003.4803  -4655348.9849   3577932.3798   1   7   0.0005   0.0008   0.0008   0.0005  -0.0006  -0.0005  15.00  999.9
2022/07/03 00:52:30.000  -2478003.4804  -4655348.9850   3577932.3798   1   7   0.0005   0.0008   0.0008   0.0005  -0.0006  -0.0005   0.00  999.9
2022/07/03 00:52:45.000  -2478003.4804  -4655348.9850   3577932.3798   1   7   0.0005   0.0008   0.0008   0.0005  -0.0006  -0.0005  15.00  999.9
2022/07/03 00:53:00.000  -2478003.4804  -4655348.9851   3577932.3798   1   7   0.0005   0.0008   0.0008   0.0005  -0.0006  -0.0005   0.00  999.9
2022/07/03 00:53:15.000  -2478003.4804  -4655348.9852   3577932.3798   1   7   0.0005   0.0008   0.0008   0.0005  -0.0006  -0.0005  15.00  999.9
2022/07/03 00:53:30.000  -2478003.4805  -4655348.9853   3577932.3798   1   7   0.0005   0.0008   0.0008   0.0005  -0.0006  -0.0005   0.00  999.9
2022/07/03 00:53:45.000  -2478003.4805  -4655348.9853   3577932.3798   1   7   0.0005   0.0008   0.0008   0.0005  -0.0006  -0.0005  15.00  999.9
2022/07/03 00:54:00.000  -2478003.4806  -4655348.9855   3577932.3798   1   7   0.0005   0.0008   0.0008   0.0005  -0.0006  -0.0005   0.00  999.9
2022/07/03 00:54:15.000  -2478003.4806  -4655348.9855   3577932.3798   1   7   0.0005   0.0008   0.0008   0.0005  -0.0006  -0.0005  15.00  999.9
2022/07/03 00:54:30.000  -2478003.4807  -4655348.9857   3577932.3798   1   7   0.0005   0.0008   0.0008   0.0005  -0.0006  -0.0005   0.00  999.9
2022/07/03 00:54:45.000  -2478003.4807  -4655348.9857   3577932.3798   1   7   0.0005   0.0008   0.0008   0.0005  -0.0006  -0.0005  15.00  999.9
2022/07/03 00:55:00.000  -2478003.4809  -4655348.9860   3577932.3799   1   7   0.0005   0.0008   0.0008   0.0005  -0.0006  -0.0005   0.00  999.9
2022/07/03 00:55:15.000  -2478003.4809  -4655348.9859   3577932.3799   1   7   0.0005   0.0008   0.0008   0.0005  -0.0006  -0.0005  15.00  999.9
2022/07/03 00:55:30.000  -2478003.4810  -4655348.9861   3577932.3799   1   7   0.0005   0.0008   0.0008   0.0005  -0.0006  -0.0005   0.00  999.9
2022/07/03 00:55:45.000  -2478003.4810  -4655348.9862   3577932.3799   1   7   0.0005   0.0008   0.0008   0.0005  -0.0006  -0.0005  15.00  999.9
2022/07/03 00:56:00.000  -2478003.4812  -4655348.9865   3577932.3801   1   7   0.0005   0.0008   0.0008   0.0005  -0.0006  -0.0005   0.00  999.9
2022/07/03 00:56:15.000  -2478003.4812  -4655348.9864   3577932.3801   1   7   0.0005   0.0008   0.0008   0.0005  -0.0006  -0.0005  15.00  999.9
2022/07/03 00:56:30.000  -2478003.4814  -4655348.9867   3577932.3802   1   7   0.0005   0.0008   0.0008   0.0005  -0.0006  -0.0005   0.00  999.9
2022/07/03 00:56:45.000  -2478003.4814  -4655348.9867   3577932.3802   1   7   0.0005   0.0008   0.0008   0.0005  -0.0006  -0.0005  15.00  999.9
2022/07/03 00:57:00.000  -2478003.4815  -4655348.9870   3577932.3803   1   7   0.0005   0.0008   0.0008   0.0005  -0.0006  -0.0005   0.00  999.9
2022/07/03 00:57:15.000  -2478003.4815  -4655348.9870   3577932.3803   1   7   0.0005   0.0008   0.0008   0.0005  -0.0006  -0.0005  15.00  999.9
2022/07/03 00:57:30.000  -2478003.4817  -4655348.9872   3577932.3804   1   7   0.0005   0.0008   0.0008   0.0005  -0.0006  -0.0005   0.00  999.9
2022/07/03 00:57:45.000  -2478003.4817  -4655348.9873   3577932.3804   1   7   0.0005   0.0008   0.0008   0.0005  -0.0006  -0.0005  15.00  999.9
2022/07/03 00:58:00.000  -2478003.4818  -4655348.9876   3577932.3805   1   7   0.0005   0.0008   0.0008   0.0005  -0.0006  -0.0005   0.00  999.9
2022/07/03 00:58:15.000  -2478003.4818  -4655348.9876   3577932.3805   1   7   0.0005   0.0008   0.0008   0.0005  -0.0006  -0.0005  15.00  999.9
2022/07/03 00:58:30.000  -2478003.4820  -4655348.9879   3577932.3807   1   7   0.0005   0.0008   0.0008   0.0005  -0.0006  -0.0005   0.00  999.9
2022/07/03 00:58:45.000  -2478003.4820  -4655348.9879   3577932.3807   1   7   0.0005   0.0008   0.0008   0.0005  -0.0006  -0.0005  15.00  999.9
2022/07/03 00:59:00.000  -2478003.4821  -4655348.9882   3577932.3808   1   7   0.0005   0.0008   0.0008   0.0005  -0.0006  -0.0005   0.00  999.9
2022/07/03 00:59:15.000  -2478003.4821  -4655348.9882   3577932.3808   1   7   0.0005   0.0008   0.0008   0.0005  -0.0006  -0.0005  15.00  999.9
2022/07/03 00:59:30.000  -2478003.4823  -4655348.9884   3577932.3809   1   7   0.0005   0.0008   0.0008   0.0005  -0.0006  -0.0005   0.00  999.9
2022/07/03 00:59:45.000  -2478003.4823  -4655348.9885   3577932.3809   1   7   0.0005   0.0008   0.0008   0.0005  -0.0006  -0.0005  15.00  999.9
2022/07/03 01:00:00.000  -2478003.4824  -4655348.9887   3577932.3810   1   7   0.0005   0.0008   0.0008   0.0005  -0.0006  -0.0005   0.00  999.9
2022/07/03 01:00:15.000  -2478003.4824  -4655348.9887   3577932.3810   1   7   0.0005   0.0008   0.0008   0.0005  -0.0006  -0.0005  15.00  999.9
2022/07/03 01:00:30.000  -2478003.4825  -4655348.9888   3577932.3810   1   7   0.0005   0.0008   0.0008   0.0005  -0.0006  -0.0005   0.00  999.9
2022/07/03 01:00:45.000  -2478003.4825  -4655348.9888   3577932.3810   1   7   0.0005   0.0008   0.0008   0.0005  -0.0006  -0.0005  15.00  999.9
2022/07/03 01:01:00.000  -2478003.4827  -4655348.9890   3577932.3810   1   7   0.0005   0.0008   0.0008   0.0005  -0.0006  -0.0005   0.00  999.9
2022/07/03 01:01:15.000  -2478003.4827  -4655348.9890   3577932.3810   1   7   0.0005   0.0008   0.0008   0.0005  -0.0006  -0.0005  15.00  999.9
2022/07/03 01:01:30.000  -2478003.4828  -4655348.9891   3577932.3811   1   7   0.0005   0.0008   0.0008   0.0005  -0.0006  -0.0005   0.00  999.9
2022/07/03 01:01:45.000  -2478003.4828  -4655348.9891   3577932.3811   1   7   0.0005   0.0008   0.0008   0.0005  -0.0006  -0.0005  15.00  999.9
2022/07/03 01:02:00.000  -2478003.4829  -4655348.9893   3577932.3811   1   7   0.0005   0.0008   0.0008   0.0005  -0.0006  -0.0005   0.00  999.9
2022/07/03 01:02:15.000  -2478003.4829  -4655348.9893   3577932.3811   1   7   0.0005   0.0008   0.0008   0.0005  -0.0006  -0.0005  15.00  999.9
2022/07/03 01:02:30.000  -2478003.4831  -4655348.9894   3577932.3812   1   7   0.0005   0.0008   0.0007   0.0005  -0.0006  -0.0005   0.00  999.9
2022/07/03 01:02:45.000  -2478003.4831  -4655348.9894   3577932.3812   1   7   0.0005   0.0008   0.0007   0.0005  -0.0006  -0.0005  15.00  999.9
2022/07/03 01:03:00.000  -2478003.4832  -4655348.9896   3577932.3812   1   7   0.0005   0.0007   0.0007   0.0005  -0.0006  -0.0005   0.00  999.9
2022/07/03 01:03:15.000  -2478003.4832  -4655348.9896   3577932.3812   1   7   0.0005   0.0007   0.0007   0.0005  -0.0006  -0.0005  15.00  999.9
2022/07/03 01:03:30.000  -2478003.4833  -4655348.9898   3577932.3813   1   7   0.0005   0.0007   0.0007   0.0004  -0.0006  -0.0005   0.00  999.9
2022/07/03 01:03:45.000  -2478003.4833  -4655348.9898   3577932.3813   1   7   0.0005   0.0007   0.0007   0.0004  -0.0006  -0.0005  15.00  999.9
2022/07/03 01:04:00.000  -2478003.4835  -4655348.9900   3577932.3814   1   7   0.0005   0.0007   0.0007   0.0004  -0.0006  -0.0005   0.00  999.9
2022/07/03 01:04:15.000  -2478003.4834  -4655348.9900   3577932.3814   1   7   0.0005   0.0007   0.0007   0.0004  -0.0006  -0.0005  15.00  999.9
2022/07/03 01:04:30.000  -2478003.4836  -4655348.9902   3577932.3815   1   7   0.0005   0.0007   0.0007   0.0004  -0.0006  -0.0005   0.00  999.9
2022/07/03 01:04:45.000  -2478003.4836  -4655348.9902   3577932.3815   1   7   0.0005   0.0007   0.0007   0.0004  -0.0006  -0.0005  15.00  999.9
2022/07/03 01:05:00.000  -2478003.4837  -4655348.9904   3577932.3816   1   7   0.0005   0.0007   0.0007   0.0004  -0.0006  -0.0005   0.00  999.9
2022/07/03 01:05:15.000  -2478003.4837  -4655348.9904   3577932.3816   1   7   0.0005   0.0007   0.0007   0.0004  -0.0006  -0.0005  15.00  999.9
2022/07/03 01:05:30.000  -2478003.4839  -4655348.9906   3577932.3817   1   7   0.0005   0.0007   0.0007   0.0004  -0.0006  -0.0005   0.00  999.9
2022/07/03 01:05:45.000  -2478003.4839  -4655348.9906   3577932.3817   1   7   0.0005   0.0007   0.0007   0.0004  -0.0006  -0.0005  15.00  999.9
2022/07/03 01:06:00.000  -2478003.4841  -4655348.9908   3577932.3817   1   7   0.0005   0.0007   0.0007   0.0004  -0.0006  -0.0005   0.00  999.9
2022/07/03 01:06:15.000  -2478003.4841  -4655348.9908   3577932.3817   1   7   0.0005   0.0007   0.0007   0.0004  -0.0006  -0.0005  15.00  999.9
2022/07/03 01:06:30.000  -2478003.4842  -4655348.9910   3577932.3818   1   7   0.0005   0.0007   0.0007   0.0004  -0.0006  -0.0005   0.00  999.9
2022/07/03 01:06:45.000  -2478003.4842  -4655348.9909   3577932.3818   1   7   0.0005   0.0007   0.0007   0.0004  -0.0006  -0.0005  15.00  999.9
2022/07/03 01:07:00.000  -2478003.4834  -4655348.9901   3577932.3818   2   8   0.0005   0.0008   0.0008   0.0005  -0.0006  -0.0005   0.00    2.0
2022/07/03 01:07:15.000  -2478003.4834  -4655348.9901   3577932.3818   2   8   0.0005   0.0008   0.0008   0.0005  -0.0006  -0.0005  15.00    2.5
2022/07/03 01:07:30.000  -2478003.4844  -4655348.9912   3577932.3818   1   8   0.0005   0.0007   0.0007   0.0004  -0.0006  -0.0004   0.00    3.4
2022/07/03 01:07:45.000  -2478003.4845  -4655348.9912   3577932.3818   1   8   0.0005   0.0007   0.0007   0.0004  -0.0006  -0.0004  15.00    4.1
2022/07/03 01:08:00.000  -2478003.4846  -4655348.9914   3577932.3818   1   8   0.0005   0.0007   0.0007   0.0004  -0.0006  -0.0004   0.00    4.9
2022/07/03 01:08:15.000  -2478003.4846  -4655348.9913   3577932.3818   1   8   0.0005   0.0007   0.0007   0.0004  -0.0006  -0.0004  15.00    5.5
2022/07/03 01:08:30.000  -2478003.4847  -4655348.9915   3577932.3818   1   8   0.0005   0.0007   0.0007   0.0004  -0.0005  -0.0004   0.00    6.1
2022/07/03 01:08:45.000  -2478003.4847  -4655348.9915   3577932.3818   1   8   0.0005   0.0007   0.0007   0.0004  -0.0005  -0.0004  15.00    6.8
2022/07/03 01:09:00.000  -2478003.4848  -4655348.9916   3577932.3819   1   8   0.0005   0.0007   0.0007   0.0004  -0.0005  -0.0004   0.00    7.4
2022/07/03 01:09:15.000  -2478003.4848  -4655348.9917   3577932.3819   1   8   0.0005   0.0007   0.0007   0.0004  -0.0005  -0.0004  15.00    7.8
2022/07/03 01:09:30.000  -2478003.4849  -4655348.9918   3577932.3819   1   8   0.0005   0.0007   0.0007   0.0004  -0.0005  -0.0004   0.00    8.1
2022/07/03 01:09:45.000  -2478003.4849  -4655348.9918   3577932.3819   1   8   0.0005   0.0007   0.0007   0.0004  -0.0005  -0.0004  15.00    8.6
2022/07/03 01:10:00.000  -2478003.4850  -4655348.9920   3577932.3819   1   8   0.0005   0.0007   0.0007   0.0004  -0.0005  -0.0004   0.00   18.6
2022/07/03 01:10:15.000  -2478003.4850  -4655348.9919   3577932.3819   1   8   0.0005   0.0007   0.0007   0.0004  -0.0005  -0.0004  15.00   29.6
2022/07/03 01:10:30.000  -2478003.4851  -4655348.9920   3577932.3819   1   8   0.0005   0.0007   0.0007   0.0004  -0.0005  -0.0004   0.00   38.9
2022/07/03 01:10:45.000  -2478003.4851  -4655348.9920   3577932.3819   1   8   0.0005   0.0007   0.0007   0.0004  -0.0005  -0.0004  15.00   49.9
2022/07/03 01:11:00.000  -2478003.4852  -4655348.9922   3577932.3818   1   8   0.0005   0.0007   0.0007   0.0004  -0.0005  -0.0004   0.00   57.8
2022/07/03 01:11:15.000  -2478003.4852  -4655348.9921   3577932.3818   1   8   0.0005   0.0007   0.0007   0.0004  -0.0005  -0.0004  15.00   69.1
2022/07/03 01:11:30.000  -2478003.4853  -4655348.9922   3577932.3817   1   8   0.0005   0.0007   0.0007   0.0004  -0.0005  -0.0004   0.00   75.2
2022/07/03 01:11:45.000  -2478003.4853  -4655348.9922   3577932.3817   1   8   0.0005   0.0007   0.0007   0.0004  -0.0005  -0.0004  15.00   86.3
2022/07/03 01:12:00.000  -2478003.4853  -4655348.9923   3577932.3816   1   8   0.0005   0.0007   0.0007   0.0004  -0.0005  -0.0004   0.00   91.5
2022/07/03 01:12:15.000  -2478003.4853  -4655348.9923   3577932.3816   1   8   0.0005   0.0007   0.0007   0.0004  -0.0005  -0.0004  15.00  102.5
2022/07/03 01:12:30.000  -2478003.4854  -4655348.9924   3577932.3815   1   8   0.0005   0.0007   0.0007   0.0004  -0.0005  -0.0004   0.00  106.2
2022/07/03 01:12:45.000  -2478003.4854  -4655348.9924   3577932.3814   1   8   0.0005   0.0007   0.0007   0.0004  -0.0005  -0.0004  15.00  116.7
2022/07/03 01:13:00.000  -2478003.4854  -4655348.9926   3577932.3813   1   8   0.0005   0.0007   0.0007   0.0004  -0.0005  -0.0004   0.00  119.3
2022/07/03 01:13:15.000  -2478003.4854  -4655348.9926   3577932.3813   1   8   0.0005   0.0007   0.0007   0.0004  -0.0005  -0.0004  15.00  129.0
2022/07/03 01:13:30.000  -2478003.4855  -4655348.9927   3577932.3812   1   8   0.0005   0.0007   0.0007   0.0004  -0.0005  -0.0004   0.00  130.9
2022/07/03 01:13:45.000  -2478003.4855  -4655348.9927   3577932.3811   1   8   0.0005   0.0007   0.0007   0.0004  -0.0005  -0.0004  15.00  140.7
2022/07/03 01:14:00.000  -2478003.4855  -4655348.9929   3577932.3810   1   8   0.0005   0.0007   0.0007   0.0004  -0.0005  -0.0004   0.00  140.7
2022/07/03 01:14:15.000  -2478003.4855  -4655348.9929   3577932.3810   1   8   0.0005   0.0007   0.0007   0.0004  -0.0005  -0.0004  15.00  150.1
2022/07/03 01:14:30.000  -2478003.4856  -4655348.9930   3577932.3809   1   8   0.0005   0.0007   0.0007   0.0004  -0.0005  -0.0004   0.00  149.1
2022/07/03 01:14:45.000  -2478003.4856  -4655348.9929   3577932.3809   1   8   0.0005   0.0007   0.0007   0.0004  -0.0005  -0.0004  15.00  159.6
2022/07/03 01:15:00.000  -2478003.4857  -4655348.9931   3577932.3808   1   8   0.0005   0.0007   0.0007   0.0004  -0.0005  -0.0004   0.00  158.8
2022/07/03 01:15:15.000  -2478003.4857  -4655348.9931   3577932.3808   1   8   0.0005   0.0007   0.0007   0.0004  -0.0005  -0.0004  15.00  168.9
2022/07/03 01:15:30.000  -2478003.4858  -4655348.9931   3577932.3807   1   8   0.0005   0.0007   0.0007   0.0004  -0.0005  -0.0004   0.00  168.4
2022/07/03 01:15:45.000  -2478003.4858  -4655348.9931   3577932.3807   1   8   0.0005   0.0007   0.0007   0.0004  -0.0005  -0.0004  15.00  178.4
2022/07/03 01:16:00.000  -2478003.4858  -4655348.9932   3577932.3806   1   8   0.0004   0.0007   0.0007   0.0004  -0.0005  -0.0004   0.00  176.2
2022/07/03 01:16:15.000  -2478003.4858  -4655348.9932   3577932.3805   1   8   0.0004   0.0007   0.0007   0.0004  -0.0005  -0.0004  15.00  185.8
2022/07/03 01:16:30.000  -2478003.4859  -4655348.9932   3577932.3803   1   8   0.0004   0.0007   0.0007   0.0004  -0.0005  -0.0004   0.00  182.7
2022/07/03 01:16:45.000  -2478003.4859  -4655348.9932   3577932.3803   1   8   0.0004   0.0007   0.0007   0.0004  -0.0005  -0.0004  15.00  190.5
2022/07/03 01:17:00.000  -2478003.4859  -4655348.9932   3577932.3801   1   8   0.0004   0.0007   0.0007   0.0004  -0.0005  -0.0004   0.00  188.0
2022/07/03 01:17:15.000  -2478003.4859  -4655348.9932   3577932.3801   1   8   0.0004   0.0007   0.0007   0.0004  -0.0005  -0.0004  15.00  196.3
2022/07/03 01:17:30.000  -2478003.4859  -4655348.9933   3577932.3799   1   8   0.0004   0.0007   0.0006   0.0004  -0.0005  -0.0004   0.00  193.1
2022/07/03 01:17:45.000  -2478003.4859  -4655348.9933   3577932.3798   1   8   0.0004   0.0007   0.0006   0.0004  -0.0005  -0.0004  15.00  200.2
2022/07/03 01:18:00.000  -2478003.4859  -4655348.9933   3577932.3797   1   8   0.0004   0.0007   0.0006   0.0004  -0.0005  -0.0004   0.00  198.8
2022/07/03 01:18:15.000  -2478003.4859  -4655348.9933   3577932.3797   1   8   0.0004   0.0007   0.0006   0.0004  -0.0005  -0.0004  15.00  206.9
2022/07/03 01:18:30.000  -2478003.4860  -4655348.9934   3577932.3795   1   8   0.0004   0.0007   0.0006   0.0004  -0.0005  -0.0004   0.00  203.4
2022/07/03 01:18:45.000  -2478003.4860  -4655348.9933   3577932.3795   1   8   0.0004   0.0007   0.0006   0.0004  -0.0005  -0.0004  15.00  211.9
2022/07/03 01:19:00.000  -2478003.4861  -4655348.9934   3577932.3794   1   8   0.0004   0.0007   0.0006   0.0004  -0.0005  -0.0004   0.00  209.1
2022/07/03 01:19:15.000  -2478003.4861  -4655348.9933   3577932.3794   1   8   0.0004   0.0007   0.0006   0.0004  -0.0005  -0.0004  15.00  217.9
2022/07/03 01:19:30.000  -2478003.4861  -4655348.9934   3577932.3793   1   8   0.0004   0.0007   0.0006   0.0004  -0.0005  -0.0004   0.00  213.9
2022/07/03 01:19:45.000  -2478003.4861  -4655348.9934   3577932.3793   1   8   0.0004   0.0007   0.0006   0.0004  -0.0005  -0.0004  15.00  222.2
2022/07/03 01:20:00.000  -2478003.4862  -4655348.9934   3577932.3792   1   8   0.0004   0.0007   0.0006   0.0004  -0.0005  -0.0004   0.00  220.2
2022/07/03 01:20:15.000  -2478003.4862  -4655348.9934   3577932.3792   1   8   0.0004   0.0007   0.0006   0.0004  -0.0005  -0.0004  15.00  229.8
2022/07/03 01:20:30.000  -2478003.4863  -4655348.9935   3577932.3791   1   8   0.0004   0.0007   0.0006   0.0004  -0.0005  -0.0004   0.00  227.1
2022/07/03 01:20:45.000  -2478003.4863  -4655348.9935   3577932.3791   1   8   0.0004   0.0007   0.0006   0.0004  -0.0005  -0.0004  15.00  235.1
2022/07/03 01:21:00.000  -2478003.4863  -4655348.9935   3577932.3790   1   8   0.0004   0.0006   0.0006   0.0004  -0.0005  -0.0004   0.00  231.4
2022/07/03 01:21:15.000  -2478003.4863  -4655348.9935   3577932.3790   1   8   0.0004   0.0006   0.0006   0.0004  -0.0005  -0.0004  15.00  239.1
2022/07/03 01:21:30.000  -2478003.4864  -4655348.9936   3577932.3789   1   8   0.0004   0.0006   0.0006   0.0004  -0.0005  -0.0004   0.00  233.6
2022/07/03 01:21:45.000  -2478003.4865  -4655348.9936   3577932.3789   1   8   0.0004   0.0006   0.0006   0.0004  -0.0005  -0.0004  15.00  240.8
2022/07/03 01:22:00.000  -2478003.4866  -4655348.9937   3577932.3789   1   8   0.0004   0.0006   0.0006   0.0004  -0.0005  -0.0004   0.00  236.1
2022/07/03 01:22:15.000  -2478003.4866  -4655348.9937   3577932.3788   1   8   0.0004   0.0006   0.0006   0.0004  -0.0005  -0.0004  15.00  243.0
2022/07/03 01:22:30.000  -2478003.4867  -4655348.9938   3577932.3788   1   8   0.0004   0.0006   0.0006   0.0004  -0.0005  -0.0004   0.00  238.4
2022/07/03 01:22:45.000  -2478003.4867  -4655348.9937   3577932.3788   1   8   0.0004   0.0006   0.0006   0.0004  -0.0005  -0.0004  15.00  245.9
2022/07/03 01:23:00.000  -2478003.4868  -4655348.9938   3577932.3788   1   8   0.0004   0.0006   0.0006   0.0004  -0.0005  -0.0004   0.00  243.7
2022/07/03 01:23:15.000  -2478003.4868  -4655348.9938   3577932.3788   1   8   0.0004   0.0006   0.0006   0.0004  -0.0005  -0.0004  15.00  251.6
2022/07/03 01:23:30.000  -2478003.4869  -4655348.9939   3577932.3789   1   8   0.0004   0.0006   0.0006   0.0004  -0.0005  -0.0004   0.00  250.6
2022/07/03 01:23:45.000  -2478003.4869  -4655348.9939   3577932.3789   1   8   0.0004   0.0006   0.0006   0.0004  -0.0005  -0.0004  15.00  258.6
2022/07/03 01:24:00.000  -2478003.4870  -4655348.9939   3577932.3789   1   8   0.0004   0.0006   0.0006   0.0004  -0.0005  -0.0004   0.00  258.0
2022/07/03 01:24:15.000  -2478003.4870  -4655348.9939   3577932.3789   1   8   0.0004   0.0006   0.0006   0.0004  -0.0005  -0.0004  15.00  266.0
2022/07/03 01:24:30.000  -2478003.4871  -4655348.9940   3577932.3790   1   8   0.0004   0.0006   0.0006   0.0004  -0.0005  -0.0004   0.00  266.0
2022/07/03 01:24:45.000  -2478003.4871  -4655348.9940   3577932.3790   1   8   0.0004   0.0006   0.0006   0.0004  -0.0005  -0.0004  15.00  273.9
2022/07/03 01:25:00.000  -2478003.4873  -4655348.9942   3577932.3790   1   8   0.0004   0.0006   0.0006   0.0004  -0.0005  -0.0004   0.00  271.4
2022/07/03 01:25:15.000  -2478003.4873  -4655348.9942   3577932.3790   1   8   0.0004   0.0006   0.0006   0.0004  -0.0005  -0.0004  15.00  279.5
2022/07/03 01:25:30.000  -2478003.4874  -4655348.9942   3577932.3790   1   8   0.0004   0.0006   0.0006   0.0004  -0.0005  -0.0004   0.00  278.2
2022/07/03 01:25:45.000  -2478003.4874  -4655348.9943   3577932.3791   1   8   0.0004   0.0006   0.0006   0.0004  -0.0005  -0.0004  15.00  286.2
2022/07/03 01:26:00.000  -2478003.4875  -4655348.9943   3577932.3791   1   8   0.0004   0.0006   0.0006   0.0004  -0.0004  -0.0004   0.00  284.8
2022/07/03 01:26:15.000  -2478003.4875  -4655348.9943   3577932.3791   1   8   0.0004   0.0006   0.0006   0.0004  -0.0004  -0.0004  15.00  294.1
2022/07/03 01:26:30.000  -2478003.4876  -4655348.9944   3577932.3791   1   8   0.0004   0.0006   0.0006   0.0004  -0.0004  -0.0004   0.00  291.4
2022/07/03 01:26:45.000  -2478003.4876  -4655348.9944   3577932.3791   1   8   0.0004   0.0006   0.0006   0.0004  -0.0004  -0.0004  15.00  299.4
2022/07/03 01:27:00.000  -2478003.4878  -4655348.9944   3577932.3791   1   8   0.0004   0.0006   0.0006   0.0004  -0.0004  -0.0004   0.00  295.1
2022/07/03 01:27:15.000  -2478003.4878  -4655348.9944   3577932.3791   1   8   0.0004   0.0006   0.0006   0.0004  -0.0004  -0.0004  15.00  303.1
2022/07/03 01:27:30.000  -2478003.4879  -4655348.9944   3577932.3792   1   8   0.0004   0.0006   0.0006   0.0004  -0.0004  -0.0004   0.00  299.9
2022/07/03 01:27:45.000  -2478003.4879  -4655348.9944   3577932.3792   1   8   0.0004   0.0006   0.0006   0.0004  -0.0004  -0.0004  15.00  308.0
2022/07/03 01:28:00.000  -2478003.4880  -4655348.9945   3577932.3792   1   8   0.0004   0.0006   0.0006   0.0004  -0.0004  -0.0004   0.00  307.2
2022/07/03 01:28:15.000  -2478003.4880  -4655348.9945   3577932.3792   1   8   0.0004   0.0006   0.0006   0.0004  -0.0004  -0.0004  15.00  315.5
2022/07/03 01:28:30.000  -2478003.4881  -4655348.9945   3577932.3793   1   8   0.0004   0.0006   0.0006   0.0004  -0.0004  -0.0004   0.00  314.6
2022/07/03 01:28:45.000  -2478003.4881  -4655348.9945   3577932.3793   1   8   0.0004   0.0006   0.0006   0.0004  -0.0004  -0.0004  15.00  322.4
2022/07/03 01:29:00.000  -2478003.4883  -4655348.9946   3577932.3794   1   8   0.0004   0.0006   0.0006   0.0004  -0.0004  -0.0004   0.00  316.7
2022/07/03 01:29:15.000  -2478003.4883  -4655348.9946   3577932.3794   1   8   0.0004   0.0006   0.0006   0.0004  -0.0004  -0.0004  15.00  323.9
2022/07/03 01:29:30.000  -2478003.4884  -4655348.9947   3577932.3794   1   8   0.0004   0.0006   0.0006   0.0004  -0.0004  -0.0004   0.00  317.4
2022/07/03 01:29:45.000  -2478003.4884  -4655348.9947   3577932.3794   1   8   0.0004   0.0006   0.0006   0.0004  -0.0004  -0.0004  15.00  325.5
2022/07/03 01:30:00.000  -2478003.4885  -4655348.9948   3577932.3795   1   8   0.0004   0.0006   0.0006   0.0004  -0.0004  -0.0004   0.00  319.6
2022/07/03 01:30:15.000  -2478003.4885  -4655348.9948   3577932.3795   1   8   0.0004   0.0006   0.0006   0.0004  -0.0004  -0.0004  15.00  327.1
2022/07/03 01:30:30.000  -2478003.4887  -4655348.9949   3577932.3795   1   8   0.0004   0.0006   0.0006   0.0004  -0.0004  -0.0004   0.00  321.6
2022/07/03 01:30:45.000  -2478003.4887  -4655348.9948   3577932.3795   1   8   0.0004   0.0006   0.0006   0.0004  -0.0004  -0.0004  15.00  328.8
2022/07/03 01:31:00.000  -2478003.4888  -4655348.9949   3577932.3796   1   8   0.0004   0.0006   0.0006   0.0004  -0.0004  -0.0004   0.00  323.7
2022/07/03 01:31:15.000  -2478003.4888  -4655348.9949   3577932.3796   1   8   0.0004   0.0006   0.0006   0.0004  -0.0004  -0.0004  15.00  329.7
2022/07/03 01:31:30.000  -2478003.4889  -4655348.9949   3577932.3795   1   8   0.0004   0.0006   0.0006   0.0004  -0.0004  -0.0003   0.00  323.9
2022/07/03 01:31:45.000  -2478003.4889  -4655348.9949   3577932.3795   1   8   0.0004   0.0006   0.0006   0.0004  -0.0004  -0.0003  15.00  330.2
2022/07/03 01:32:00.000  -2478003.4890  -4655348.9949   3577932.3795   1   8   0.0004   0.0006   0.0006   0.0004  -0.0004  -0.0003   0.00  324.7
2022/07/03 01:32:15.000  -2478003.4890  -4655348.9949   3577932.3795   1   8   0.0004   0.0006   0.0006   0.0004  -0.0004  -0.0003  15.00  331.8
2022/07/03 01:32:30.000  -2478003.4891  -4655348.9949   3577932.3794   1   8   0.0004   0.0006   0.0006   0.0004  -0.0004  -0.0003   0.00  326.1
2022/07/03 01:32:45.000  -2478003.4891  -4655348.9949   3577932.3794   1   8   0.0004   0.0006   0.0006   0.0004  -0.0004  -0.0003  15.00  333.6
2022/07/03 01:33:00.000  -2478003.4892  -4655348.9950   3577932.3795   1   8   0.0004   0.0006   0.0006   0.0004  -0.0004  -0.0003   0.00  328.0
2022/07/03 01:33:15.000  -2478003.4892  -4655348.9950   3577932.3795   1   8   0.0004   0.0006   0.0006   0.0004  -0.0004  -0.0003  15.00  334.7
2022/07/03 01:33:30.000  -2478003.4893  -4655348.9950   3577932.3795   1   8   0.0004   0.0006   0.0006   0.0004  -0.0004  -0.0003   0.00  330.2
2022/07/03 01:33:45.000  -2478003.4893  -4655348.9950   3577932.3795   1   8   0.0004   0.0006   0.0006   0.0004  -0.0004  -0.0003  15.00  337.1
2022/07/03 01:34:00.000  -2478003.4894  -4655348.9950   3577932.3795   1   8   0.0004   0.0006   0.0006   0.0004  -0.0004  -0.0003   0.00  331.8
2022/07/03 01:34:15.000  -2478003.4894  -4655348.9950   3577932.3794   1   8   0.0004   0.0006   0.0006   0.0004  -0.0004  -0.0003  15.00  338.0
2022/07/03 01:34:30.001  -2478003.4895  -4655348.9950   3577932.3794   1   8   0.0004   0.0006   0.0005   0.0004  -0.0004  -0.0003   0.00  332.2
2022/07/03 01:34:45.000  -2478003.4895  -4655348.9950   3577932.3794   1   8   0.0004   0.0006   0.0005   0.0004  -0.0004  -0.0003  15.00  337.7
2022/07/03 01:35:00.000  -2478003.4896  -4655348.9950   3577932.3794   1   8   0.0004   0.0006   0.0005   0.0004  -0.0004  -0.0003   0.00  330.8
2022/07/03 01:35:15.000  -2478003.4896  -4655348.9951   3577932.3794   1   8   0.0004   0.0006   0.0005   0.0004  -0.0004  -0.0003  15.00  335.8
2022/07/03 01:35:30.000  -2478003.4897  -4655348.9951   3577932.3794   1   8   0.0004   0.0006   0.0005   0.0004  -0.0004  -0.0003   0.00  330.1
2022/07/03 01:35:45.000  -2478003.4897  -4655348.9951   3577932.3793   1   8   0.0004   0.0006   0.0005   0.0004  -0.0004  -0.0003  15.00  335.9
2022/07/03 01:36:00.000  -2478003.4898  -4655348.9951   3577932.3793   1   8   0.0004   0.0006   0.0005   0.0004  -0.0004  -0.0003   0.00  331.6
2022/07/03 01:36:15.000  -2478003.4898  -4655348.9951   3577932.3793   1   8   0.0004   0.0006   0.0005   0.0004  -0.0004  -0.0003  15.00  338.0
2022/07/03 01:36:30.000  -2478003.4898  -4655348.9951   3577932.3793   1   8   0.0004   0.0006   0.0005   0.0004  -0.0004  -0.0003   0.00  334.6
2022/07/03 01:36:45.000  -2478003.4898  -4655348.9950   3577932.3793   1   8   0.0004   0.0006   0.0005   0.0004  -0.0004  -0.0003  15.00  341.4
2022/07/03 01:37:00.000  -2478003.4890  -4655348.9942   3577932.3792   2   9   0.0004   0.0006   0.0006   0.0004  -0.0004  -0.0003   0.00    1.5
2022/07/03 01:37:15.000  -2478003.4890  -4655348.9942   3577932.3792   2   9   0.0004   0.0006   0.0006   0.0004  -0.0004  -0.0003  15.00    1.7
2022/07/03 01:37:30.000  -2478003.4891  -4655348.9942   3577932.3792   2   9   0.0004   0.0006   0.0006   0.0004  -0.0004  -0.0003   0.00    2.1
2022/07/03 01:37:45.000  -2478003.4891  -4655348.9941   3577932.3792   2   9   0.0004   0.0006   0.0006   0.0004  -0.0004  -0.0003  15.00    2.3
2022/07/03 01:38:00.000  -2478003.4892  -4655348.9942   3577932.3792   2   9   0.0004   0.0006   0.0006   0.0004  -0.0004  -0.0003   0.00    2.8
2022/07/03 01:38:15.000  -2478003.4901  -4655348.9950   3577932.3792   1   9   0.0004   0.0006   0.0005   0.0004  -0.0004  -0.0003  15.00    3.1
2022/07/03 01:38:30.000  -2478003.4902  -4655348.9951   3577932.3792   1   9   0.0004   0.0006   0.0005   0.0004  -0.0004  -0.0003   0.00    3.6
2022/07/03 01:38:45.000  -2478003.4902  -4655348.9951   3577932.3792   1   9   0.0004   0.0006   0.0005   0.0004  -0.0004  -0.0003  15.00    3.8
2022/07/03 01:39:00.000  -2478003.4903  -4655348.9951   3577932.3792   1   9   0.0004   0.0006   0.0005   0.0004  -0.0004  -0.0003   0.00    4.3
2022/07/03 01:39:15.000  -2478003.4903  -4655348.9951   3577932.3792   1   9   0.0004   0.0006   0.0005   0.0004  -0.0004  -0.0003  15.00    4.6
2022/07/03 01:39:30.000  -2478003.4904  -4655348.9951   3577932.3792   1   9   0.0004   0.0006   0.0005   0.0004  -0.0004  -0.0003   0.00    5.1
2022/07/03 01:39:45.000  -2478003.4904  -4655348.9951   3577932.3792   1   9   0.0004   0.0006   0.0005   0.0004  -0.0004  -0.0003  15.00    5.3
2022/07/03 01:40:00.000  -2478003.4905  -4655348.9950   3577932.3791   1   9   0.0004   0.0006   0.0005   0.0004  -0.0004  -0.0003   0.00    5.7
2022/07/03 01:40:15.000  -2478003.4905  -4655348.9950   3577932.3791   1   9   0.0004   0.0006   0.0005   0.0004  -0.0004  -0.0003  15.00    6.0
2022/07/03 01:40:30.000  -2478003.4906  -4655348.9950   3577932.3791   1   9   0.0004   0.0006   0.0005   0.0004  -0.0004  -0.0003   0.00    6.4
2022/07/03 01:40:45.000  -2478003.4906  -4655348.9950   3577932.3791   1   9   0.0004   0.0006   0.0005   0.0004  -0.0004  -0.0003  15.00   39.1
