% program   : RTKPOST ver.2.4.3 b34
% inp file  : C:\Users\89231\Documents\Учеба\Диссертация\Данные\Лос-Анджелес 03-05.07.22\05.07.2022\wlsn1860.22o
% inp file  : C:\Users\89231\Documents\Учеба\Диссертация\Данные\Лос-Анджелес 03-05.07.22\05.07.2022\whc11860.22o
% inp file  : C:\Users\89231\Documents\Учеба\Диссертация\Данные\Лос-Анджелес 03-05.07.22\05.07.2022\jplm1860.22n
% inp file  : C:\Users\89231\Documents\Учеба\Диссертация\Данные\Лос-Анджелес 03-05.07.22\05.07.2022\igs22172.sp3
% obs start : 2022/07/05 00:00:00.0 GPST (week2217 172800.0s)
% obs end   : 2022/07/05 23:59:45.0 GPST (week2217 259185.0s)
% pos mode  : Static
% freqs     : L1+2
% solution  : Forward
% elev mask : 15.0 deg
% dynamics  : off
% tidecorr  : off
% ionos opt : Broadcast
% tropo opt : Saastamoinen
% ephemeris : Precise
% navi sys  : GPS
% amb res   : Fix and Hold
% val thres : 3.0
% antenna1  :                       ( 0.0000  0.0000  0.0614)
% antenna2  :                       ( 0.0000  0.0000  0.0000)
% ref pos   : -2488199.3244  -4673487.1517   3544649.2637
%
% (x/y/z-ecef=WGS84,Q=1:fix,2:float,3:sbas,4:dgps,5:single,6:ppp,ns=# of satellites)
%  GPST                      x-ecef(m)      y-ecef(m)      z-ecef(m)   Q  ns   sdx(m)   sdy(m)   sdz(m)  sdxy(m)  sdyz(m)  sdzx(m) age(s)  ratio
2022/07/05 00:00:00.000  -2483641.1957  -4660072.5645   3568172.4155   2   8   0.5132   0.9850   0.7538   0.5462  -0.7269  -0.4812   0.00    1.6
2022/07/05 00:00:15.000  -2483641.2428  -4660072.7653   3568172.6195   2   7   0.3719   0.6927   0.5186   0.3892  -0.5031  -0.3383   0.00    1.2
2022/07/05 00:00:30.000  -2483641.1965  -4660072.5746   3568172.5009   2   7   0.2980   0.5490   0.3987   0.3046  -0.3872  -0.2604   0.00    1.2
2022/07/05 00:00:45.000  -2483641.2270  -4660072.5463   3568172.4512   2   7   0.2494   0.4571   0.3196   0.2477  -0.3104  -0.2075   0.00    1.3
2022/07/05 00:01:00.000  -2483641.1980  -4660072.5622   3568172.3639   2   7   0.2142   0.3920   0.2624   0.2059  -0.2547  -0.1686   0.00    1.4
2022/07/05 00:01:15.000  -2483641.1789  -4660072.5379   3568172.3180   2   7   0.1873   0.3431   0.2193   0.1740  -0.2128  -0.1391   0.00    1.5
2022/07/05 00:01:30.000  -2483641.1500  -4660072.4501   3568172.2388   2   7   0.1661   0.3052   0.1861   0.1489  -0.1805  -0.1162   0.00    1.6
2022/07/05 00:01:45.000  -2483641.1310  -4660072.4996   3568172.1997   2   7   0.1489   0.2748   0.1599   0.1287  -0.1551  -0.0982   0.00    1.7
2022/07/05 00:02:00.000  -2483641.1279  -4660072.5373   3568172.2099   2   7   0.1346   0.2500   0.1390   0.1122  -0.1350  -0.0838   0.00    1.8
2022/07/05 00:02:15.000  -2483641.1182  -4660072.5531   3568172.2142   2   7   0.1226   0.2293   0.1221   0.0985  -0.1187  -0.0722   0.00    1.8
2022/07/05 00:02:30.000  -2483641.1428  -4660072.6072   3568172.2552   2   7   0.1123   0.2118   0.1082   0.0870  -0.1054  -0.0628   0.00    1.8
2022/07/05 00:02:45.000  -2483641.1523  -4660072.5948   3568172.2733   2   7   0.1034   0.1966   0.0967   0.0772  -0.0944  -0.0550   0.00    1.8
2022/07/05 00:03:00.000  -2483641.1578  -4660072.5824   3568172.2753   2   7   0.0956   0.1834   0.0870   0.0688  -0.0851  -0.0486   0.00    1.8
2022/07/05 00:03:15.000  -2483641.1529  -4660072.5838   3568172.2770   2   7   0.0887   0.1717   0.0788   0.0615  -0.0774  -0.0431   0.00    1.8
2022/07/05 00:03:30.000  -2483641.1553  -4660072.6189   3568172.2777   2   7   0.0826   0.1614   0.0717   0.0552  -0.0707  -0.0386   0.00    1.8
2022/07/05 00:03:45.000  -2483641.1427  -4660072.6619   3568172.2782   2   7   0.0772   0.1520   0.0657   0.0496  -0.0650  -0.0347   0.00    1.8
2022/07/05 00:04:00.000  -2483641.1162  -4660072.6962   3568172.2661   2   7   0.0723   0.1436   0.0604   0.0447  -0.0600  -0.0313   0.00    1.9
2022/07/05 00:04:15.000  -2483641.0979  -4660072.7046   3568172.2493   2   7   0.0679   0.1360   0.0558   0.0404  -0.0557  -0.0284   0.00    1.9
2022/07/05 00:04:30.000  -2483641.0728  -4660072.6896   3568172.2243   2   7   0.0639   0.1290   0.0517   0.0366  -0.0519  -0.0259   0.00    2.0
2022/07/05 00:04:45.000  -2483641.0480  -4660072.6774   3568172.2024   2   7   0.0603   0.1225   0.0481   0.0331  -0.0485  -0.0237   0.00    2.1
2022/07/05 00:05:00.000  -2483641.0248  -4660072.6697   3568172.1815   2   7   0.0570   0.1166   0.0449   0.0301  -0.0455  -0.0218   0.00    2.2
2022/07/05 00:05:15.000  -2483641.0062  -4660072.6836   3568172.1598   2   7   0.0540   0.1112   0.0421   0.0274  -0.0427  -0.0201   0.00    2.3
2022/07/05 00:05:30.000  -2483640.9853  -4660072.6940   3568172.1457   2   7   0.0512   0.1061   0.0395   0.0249  -0.0403  -0.0186   0.00    2.4
2022/07/05 00:05:45.000  -2483640.9743  -4660072.6925   3568172.1313   2   7   0.0487   0.1014   0.0372   0.0227  -0.0381  -0.0173   0.00    2.6
2022/07/05 00:06:00.000  -2483640.9626  -4660072.6854   3568172.1211   2   7   0.0464   0.0970   0.0351   0.0207  -0.0361  -0.0161   0.00    2.7
2022/07/05 00:06:15.000  -2483640.9519  -4660072.6608   3568172.1091   2   7   0.0442   0.0929   0.0331   0.0189  -0.0343  -0.0150   0.00    2.9
2022/07/05 00:06:30.000  -2483640.9646  -4660072.8742   3568172.1621   1   7   0.0011   0.0020   0.0015   0.0011  -0.0015  -0.0010   0.00    3.1
2022/07/05 00:06:45.000  -2483640.9645  -4660072.8747   3568172.1620   1   7   0.0011   0.0019   0.0015   0.0011  -0.0014  -0.0010   0.00    3.2
2022/07/05 00:07:00.000  -2483640.9644  -4660072.8749   3568172.1619   1   7   0.0011   0.0019   0.0015   0.0011  -0.0014  -0.0010   0.00    3.3
2022/07/05 00:07:15.000  -2483640.9644  -4660072.8755   3568172.1620   1   7   0.0010   0.0019   0.0015   0.0011  -0.0014  -0.0010   0.00    3.3
2022/07/05 00:07:30.000  -2483640.9645  -4660072.8760   3568172.1620   1   7   0.0010   0.0018   0.0014   0.0011  -0.0014  -0.0010   0.00    3.3
2022/07/05 00:07:45.000  -2483640.9645  -4660072.8764   3568172.1621   1   7   0.0010   0.0018   0.0014   0.0011  -0.0014  -0.0009   0.00    3.3
2022/07/05 00:08:00.000  -2483640.9646  -4660072.8768   3568172.1622   1   7   0.0010   0.0018   0.0014   0.0010  -0.0013  -0.0009   0.00    3.3
2022/07/05 00:08:15.000  -2483640.9647  -4660072.8773   3568172.1624   1   7   0.0010   0.0018   0.0014   0.0010  -0.0013  -0.0009   0.00    3.3
2022/07/05 00:08:30.000  -2483640.9648  -4660072.8779   3568172.1626   1   7   0.0010   0.0017   0.0014   0.0010  -0.0013  -0.0009   0.00    3.3
2022/07/05 00:08:45.000  -2483640.9650  -4660072.8782   3568172.1628   1   7   0.0009   0.0017   0.0013   0.0010  -0.0013  -0.0009   0.00    3.3
2022/07/05 00:09:00.000  -2483640.9651  -4660072.8786   3568172.1628   1   7   0.0009   0.0017   0.0013   0.0010  -0.0013  -0.0009   0.00    5.7
2022/07/05 00:09:15.000  -2483640.9652  -4660072.8789   3568172.1628   1   7   0.0009   0.0017   0.0013   0.0010  -0.0012  -0.0009   0.00    6.5
2022/07/05 00:09:30.000  -2483640.9653  -4660072.8791   3568172.1628   1   7   0.0009   0.0017   0.0013   0.0010  -0.0012  -0.0009   0.00    7.3
2022/07/05 00:09:45.000  -2483640.9653  -4660072.8794   3568172.1628   1   7   0.0009   0.0016   0.0013   0.0009  -0.0012  -0.0008   0.00    8.1
2022/07/05 00:10:00.000  -2483640.9652  -4660072.8796   3568172.1628   1   7   0.0009   0.0016   0.0013   0.0009  -0.0012  -0.0008   0.00    8.9
2022/07/05 00:10:15.000  -2483640.9651  -4660072.8796   3568172.1626   1   7   0.0009   0.0016   0.0012   0.0009  -0.0012  -0.0008   0.00    9.7
2022/07/05 00:10:30.000  -2483640.9649  -4660072.8797   3568172.1625   1   7   0.0009   0.0016   0.0012   0.0009  -0.0012  -0.0008   0.00   10.5
2022/07/05 00:10:45.000  -2483640.9647  -4660072.8797   3568172.1623   1   7   0.0009   0.0016   0.0012   0.0009  -0.0012  -0.0008   0.00   11.2
2022/07/05 00:11:00.000  -2483640.9645  -4660072.8798   3568172.1622   1   7   0.0009   0.0015   0.0012   0.0009  -0.0012  -0.0008   0.00   12.1
2022/07/05 00:11:15.000  -2483640.9643  -4660072.8799   3568172.1620   1   7   0.0008   0.0015   0.0012   0.0009  -0.0011  -0.0008   0.00   12.8
2022/07/05 00:11:30.000  -2483640.9641  -4660072.8799   3568172.1618   1   7   0.0008   0.0015   0.0012   0.0009  -0.0011  -0.0008   0.00   13.5
2022/07/05 00:11:45.000  -2483640.9640  -4660072.8799   3568172.1616   1   7   0.0008   0.0015   0.0012   0.0009  -0.0011  -0.0008   0.00   14.2
2022/07/05 00:12:00.000  -2483640.9639  -4660072.8799   3568172.1614   1   7   0.0008   0.0015   0.0012   0.0009  -0.0011  -0.0008   0.00   14.9
2022/07/05 00:12:15.000  -2483640.9638  -4660072.8798   3568172.1611   1   7   0.0008   0.0015   0.0012   0.0009  -0.0011  -0.0008   0.00   15.5
2022/07/05 00:12:30.000  -2483640.9636  -4660072.8797   3568172.1609   1   7   0.0008   0.0015   0.0011   0.0008  -0.0011  -0.0008   0.00   16.1
2022/07/05 00:12:45.000  -2483640.9635  -4660072.8796   3568172.1606   1   7   0.0008   0.0014   0.0011   0.0008  -0.0011  -0.0007   0.00   16.6
2022/07/05 00:13:00.000  -2483640.9634  -4660072.8796   3568172.1604   1   7   0.0008   0.0014   0.0011   0.0008  -0.0011  -0.0007   0.00   17.1
2022/07/05 00:13:15.000  -2483640.9633  -4660072.8796   3568172.1602   1   7   0.0008   0.0014   0.0011   0.0008  -0.0011  -0.0007   0.00   17.6
2022/07/05 00:13:30.000  -2483640.9631  -4660072.8794   3568172.1600   1   7   0.0008   0.0014   0.0011   0.0008  -0.0010  -0.0007   0.00   18.1
2022/07/05 00:13:45.000  -2483640.9630  -4660072.8793   3568172.1598   1   7   0.0008   0.0014   0.0011   0.0008  -0.0010  -0.0007   0.00   18.6
2022/07/05 00:14:00.000  -2483640.9629  -4660072.8791   3568172.1596   1   7   0.0008   0.0014   0.0011   0.0008  -0.0010  -0.0007   0.00   19.1
2022/07/05 00:14:15.000  -2483640.9627  -4660072.8789   3568172.1594   1   7   0.0008   0.0014   0.0011   0.0008  -0.0010  -0.0007   0.00   19.6
2022/07/05 00:14:30.000  -2483640.9627  -4660072.8789   3568172.1592   1   7   0.0008   0.0014   0.0011   0.0008  -0.0010  -0.0007   0.00   20.1
2022/07/05 00:14:45.000  -2483640.9626  -4660072.8788   3568172.1590   1   7   0.0008   0.0014   0.0011   0.0008  -0.0010  -0.0007   0.00   20.5
2022/07/05 00:15:00.000  -2483640.9624  -4660072.8787   3568172.1588   1   7   0.0007   0.0013   0.0011   0.0008  -0.0010  -0.0007   0.00   21.0
2022/07/05 00:15:15.000  -2483640.9623  -4660072.8787   3568172.1586   1   7   0.0007   0.0013   0.0011   0.0008  -0.0010  -0.0007   0.00   21.4
2022/07/05 00:15:30.000  -2483640.9621  -4660072.8786   3568172.1584   1   7   0.0007   0.0013   0.0011   0.0008  -0.0010  -0.0007   0.00   21.7
2022/07/05 00:15:45.000  -2483640.9621  -4660072.8785   3568172.1582   1   7   0.0007   0.0013   0.0010   0.0008  -0.0010  -0.0007   0.00   22.1
2022/07/05 00:16:00.000  -2483640.9619  -4660072.8784   3568172.1580   1   7   0.0007   0.0013   0.0010   0.0008  -0.0010  -0.0007   0.00   22.4
2022/07/05 00:16:15.000  -2483640.9618  -4660072.8782   3568172.1578   1   7   0.0007   0.0013   0.0010   0.0007  -0.0010  -0.0007   0.00   22.7
2022/07/05 00:16:30.000  -2483640.9616  -4660072.8781   3568172.1576   1   7   0.0007   0.0013   0.0010   0.0007  -0.0010  -0.0007   0.00   23.0
2022/07/05 00:16:45.000  -2483640.9614  -4660072.8780   3568172.1575   1   7   0.0007   0.0013   0.0010   0.0007  -0.0010  -0.0007   0.00   23.3
2022/07/05 00:17:00.000  -2483640.9613  -4660072.8778   3568172.1573   1   7   0.0007   0.0013   0.0010   0.0007  -0.0009  -0.0007   0.00   23.6
2022/07/05 00:17:15.000  -2483640.9610  -4660072.8775   3568172.1571   1   7   0.0007   0.0013   0.0010   0.0007  -0.0009  -0.0007   0.00   23.9
2022/07/05 00:17:30.000  -2483640.9609  -4660072.8773   3568172.1570   1   7   0.0007   0.0013   0.0010   0.0007  -0.0009  -0.0007   0.00   24.1
2022/07/05 00:17:45.000  -2483640.9607  -4660072.8770   3568172.1567   1   7   0.0007   0.0012   0.0010   0.0007  -0.0009  -0.0007   0.00   24.3
2022/07/05 00:18:00.000  -2483640.9604  -4660072.8766   3568172.1564   1   7   0.0007   0.0012   0.0010   0.0007  -0.0009  -0.0006   0.00   24.4
2022/07/05 00:18:15.000  -2483640.9602  -4660072.8763   3568172.1561   1   7   0.0007   0.0012   0.0010   0.0007  -0.0009  -0.0006   0.00   24.5
2022/07/05 00:18:30.000  -2483640.9600  -4660072.8760   3568172.1559   1   7   0.0007   0.0012   0.0010   0.0007  -0.0009  -0.0006   0.00   24.5
2022/07/05 00:18:45.000  -2483640.9598  -4660072.8757   3568172.1558   1   7   0.0007   0.0012   0.0010   0.0007  -0.0009  -0.0006   0.00   24.6
2022/07/05 00:19:00.000  -2483640.9597  -4660072.8755   3568172.1556   1   7   0.0007   0.0012   0.0010   0.0007  -0.0009  -0.0006   0.00   24.6
2022/07/05 00:19:15.000  -2483640.9548  -4660072.8648   3568172.1478   2   8   0.0009   0.0015   0.0014   0.0009  -0.0012  -0.0008   0.00    1.0
2022/07/05 00:19:30.000  -2483640.9546  -4660072.8646   3568172.1476   2   8   0.0009   0.0015   0.0013   0.0009  -0.0012  -0.0008   0.00    1.0
2022/07/05 00:19:45.000  -2483640.9544  -4660072.8642   3568172.1474   2   8   0.0009   0.0015   0.0013   0.0009  -0.0012  -0.0008   0.00    1.0
2022/07/05 00:20:00.000  -2483640.9542  -4660072.8639   3568172.1471   2   8   0.0009   0.0014   0.0013   0.0009  -0.0012  -0.0008   0.00    1.0
2022/07/05 00:20:15.000  -2483640.9540  -4660072.8638   3568172.1469   2   8   0.0009   0.0014   0.0013   0.0009  -0.0012  -0.0008   0.00    1.0
2022/07/05 00:20:30.000  -2483640.9539  -4660072.8636   3568172.1467   2   8   0.0009   0.0014   0.0013   0.0009  -0.0012  -0.0008   0.00    1.0
2022/07/05 00:20:45.000  -2483640.9538  -4660072.8634   3568172.1465   2   8   0.0009   0.0014   0.0013   0.0009  -0.0012  -0.0008   0.00    1.0
2022/07/05 00:21:00.000  -2483640.9536  -4660072.8632   3568172.1463   2   8   0.0009   0.0014   0.0013   0.0009  -0.0012  -0.0008   0.00    1.0
2022/07/05 00:21:15.000  -2483640.9536  -4660072.8632   3568172.1462   2   9   0.0009   0.0014   0.0013   0.0009  -0.0011  -0.0008   0.00    1.0
2022/07/05 00:21:30.000  -2483640.9535  -4660072.8632   3568172.1461   2   9   0.0009   0.0014   0.0013   0.0009  -0.0011  -0.0008   0.00    1.1
2022/07/05 00:21:45.000  -2483640.9535  -4660072.8632   3568172.1460   2   9   0.0009   0.0014   0.0013   0.0009  -0.0011  -0.0008   0.00    1.1
2022/07/05 00:22:00.000  -2483640.9534  -4660072.8632   3568172.1459   2   9   0.0009   0.0014   0.0013   0.0009  -0.0011  -0.0008   0.00    1.1
2022/07/05 00:22:15.000  -2483640.9534  -4660072.8631   3568172.1458   2   9   0.0009   0.0014   0.0013   0.0009  -0.0011  -0.0008   0.00    1.1
2022/07/05 00:22:30.000  -2483640.9533  -4660072.8631   3568172.1457   2   9   0.0009   0.0014   0.0013   0.0009  -0.0011  -0.0008   0.00    1.1
2022/07/05 00:22:45.000  -2483640.9533  -4660072.8632   3568172.1457   2   9   0.0009   0.0014   0.0013   0.0009  -0.0011  -0.0008   0.00    1.1
2022/07/05 00:23:00.000  -2483640.9532  -4660072.8632   3568172.1455   2   9   0.0009   0.0014   0.0013   0.0009  -0.0011  -0.0008   0.00    1.1
2022/07/05 00:23:15.000  -2483640.9532  -4660072.8631   3568172.1453   2   9   0.0009   0.0014   0.0013   0.0009  -0.0011  -0.0008   0.00    1.1
2022/07/05 00:23:30.000  -2483640.9530  -4660072.8630   3568172.1452   2   9   0.0009   0.0014   0.0013   0.0009  -0.0011  -0.0008   0.00    1.2
2022/07/05 00:23:45.000  -2483640.9529  -4660072.8629   3568172.1449   2   9   0.0009   0.0014   0.0013   0.0009  -0.0011  -0.0008   0.00    1.2
2022/07/05 00:24:00.000  -2483640.9528  -4660072.8628   3568172.1447   2   9   0.0009   0.0014   0.0013   0.0009  -0.0011  -0.0008   0.00    1.2
2022/07/05 00:24:15.000  -2483640.9527  -4660072.8626   3568172.1444   2   9   0.0009   0.0014   0.0013   0.0009  -0.0011  -0.0008   0.00    1.2
2022/07/05 00:24:30.000  -2483640.9526  -4660072.8626   3568172.1443   2   9   0.0009   0.0013   0.0013   0.0009  -0.0011  -0.0008   0.00    1.2
2022/07/05 00:24:45.000  -2483640.9525  -4660072.8626   3568172.1441   2   9   0.0009   0.0013   0.0013   0.0009  -0.0011  -0.0008   0.00    1.3
2022/07/05 00:25:00.000  -2483640.9524  -4660072.8626   3568172.1438   2   9   0.0009   0.0013   0.0013   0.0009  -0.0011  -0.0008   0.00    1.3
2022/07/05 00:25:15.000  -2483640.9522  -4660072.8626   3568172.1436   2   9   0.0009   0.0013   0.0013   0.0009  -0.0011  -0.0008   0.00    1.3
2022/07/05 00:25:30.000  -2483640.9521  -4660072.8626   3568172.1434   2   9   0.0009   0.0013   0.0013   0.0009  -0.0011  -0.0008   0.00    1.3
2022/07/05 00:25:45.000  -2483640.9520  -4660072.8626   3568172.1431   2   9   0.0009   0.0013   0.0013   0.0009  -0.0011  -0.0008   0.00    1.3
2022/07/05 00:26:00.000  -2483640.9518  -4660072.8626   3568172.1429   2   9   0.0009   0.0013   0.0012   0.0009  -0.0011  -0.0008   0.00    1.3
2022/07/05 00:26:15.000  -2483640.9517  -4660072.8626   3568172.1426   2   9   0.0008   0.0013   0.0012   0.0009  -0.0011  -0.0008   0.00    1.3
2022/07/05 00:26:30.000  -2483640.9515  -4660072.8624   3568172.1422   2   9   0.0008   0.0013   0.0012   0.0008  -0.0011  -0.0008   0.00    1.3
2022/07/05 00:26:45.000  -2483640.9512  -4660072.8623   3568172.1419   2   9   0.0008   0.0013   0.0012   0.0008  -0.0011  -0.0008   0.00    1.4
2022/07/05 00:27:00.000  -2483640.9510  -4660072.8622   3568172.1415   2   9   0.0008   0.0013   0.0012   0.0008  -0.0011  -0.0008   0.00    1.4
2022/07/05 00:27:15.000  -2483640.9508  -4660072.8619   3568172.1411   2   9   0.0008   0.0013   0.0012   0.0008  -0.0011  -0.0008   0.00    1.4
2022/07/05 00:27:30.000  -2483640.9505  -4660072.8617   3568172.1407   2   9   0.0008   0.0013   0.0012   0.0008  -0.0011  -0.0007   0.00    1.4
2022/07/05 00:27:45.000  -2483640.9502  -4660072.8614   3568172.1403   2   9   0.0008   0.0013   0.0012   0.0008  -0.0011  -0.0007   0.00    1.4
2022/07/05 00:28:00.000  -2483640.9499  -4660072.8612   3568172.1398   2   9   0.0008   0.0013   0.0012   0.0008  -0.0010  -0.0007   0.00    1.4
2022/07/05 00:28:15.000  -2483640.9497  -4660072.8609   3568172.1394   2   9   0.0008   0.0013   0.0012   0.0008  -0.0010  -0.0007   0.00    1.4
2022/07/05 00:28:30.000  -2483640.9494  -4660072.8606   3568172.1391   2   9   0.0008   0.0013   0.0012   0.0008  -0.0010  -0.0007   0.00    1.4
2022/07/05 00:28:45.000  -2483640.9492  -4660072.8604   3568172.1388   2   9   0.0008   0.0013   0.0012   0.0008  -0.0010  -0.0007   0.00    1.4
2022/07/05 00:29:00.000  -2483640.9489  -4660072.8602   3568172.1384   2   9   0.0008   0.0013   0.0012   0.0008  -0.0010  -0.0007   0.00    1.5
2022/07/05 00:29:15.000  -2483640.9487  -4660072.8601   3568172.1381   2   9   0.0008   0.0013   0.0012   0.0008  -0.0010  -0.0007   0.00    1.5
2022/07/05 00:29:30.000  -2483640.9484  -4660072.8599   3568172.1377   2   9   0.0008   0.0013   0.0012   0.0008  -0.0010  -0.0007   0.00    1.5
2022/07/05 00:29:45.000  -2483640.9481  -4660072.8598   3568172.1374   2   9   0.0008   0.0013   0.0012   0.0008  -0.0010  -0.0007   0.00    1.5
2022/07/05 00:30:00.000  -2483640.9479  -4660072.8596   3568172.1371   2   9   0.0008   0.0013   0.0012   0.0008  -0.0010  -0.0007   0.00    1.5
2022/07/05 00:30:15.000  -2483640.9477  -4660072.8595   3568172.1368   2   9   0.0008   0.0013   0.0012   0.0008  -0.0010  -0.0007   0.00    1.5
2022/07/05 00:30:30.000  -2483640.9475  -4660072.8593   3568172.1365   2   9   0.0008   0.0013   0.0012   0.0008  -0.0010  -0.0007   0.00    1.5
2022/07/05 00:30:45.000  -2483640.9472  -4660072.8592   3568172.1362   2   9   0.0008   0.0013   0.0012   0.0008  -0.0010  -0.0007   0.00    1.5
2022/07/05 00:31:00.000  -2483640.9470  -4660072.8591   3568172.1359   2   9   0.0008   0.0013   0.0012   0.0008  -0.0010  -0.0007   0.00    1.5
2022/07/05 00:31:15.000  -2483640.9468  -4660072.8589   3568172.1356   2   9   0.0008   0.0012   0.0012   0.0008  -0.0010  -0.0007   0.00    1.5
2022/07/05 00:31:30.000  -2483640.9466  -4660072.8588   3568172.1353   2   9   0.0008   0.0012   0.0012   0.0008  -0.0010  -0.0007   0.00    1.5
2022/07/05 00:31:45.000  -2483640.9463  -4660072.8586   3568172.1350   2   9   0.0008   0.0012   0.0012   0.0008  -0.0010  -0.0007   0.00    1.5
2022/07/05 00:32:00.000  -2483640.9462  -4660072.8585   3568172.1348   2   9   0.0008   0.0012   0.0012   0.0008  -0.0010  -0.0007   0.00    1.5
2022/07/05 00:32:15.000  -2483640.9460  -4660072.8583   3568172.1346   2   9   0.0008   0.0012   0.0012   0.0008  -0.0010  -0.0007   0.00    1.6
2022/07/05 00:32:30.000  -2483640.9458  -4660072.8583   3568172.1343   2   9   0.0008   0.0012   0.0012   0.0008  -0.0010  -0.0007   0.00    1.0
2022/07/05 00:32:45.000  -2483640.9456  -4660072.8581   3568172.1340   2   9   0.0008   0.0012   0.0012   0.0008  -0.0010  -0.0007   0.00    1.0
2022/07/05 00:33:00.000  -2483640.9454  -4660072.8579   3568172.1338   2   9   0.0008   0.0012   0.0012   0.0008  -0.0010  -0.0007   0.00    1.0
2022/07/05 00:33:15.000  -2483640.9453  -4660072.8578   3568172.1336   2   8   0.0008   0.0012   0.0012   0.0008  -0.0010  -0.0007   0.00    1.0
2022/07/05 00:33:30.000  -2483640.9451  -4660072.8576   3568172.1332   2   8   0.0008   0.0012   0.0012   0.0008  -0.0010  -0.0007   0.00    1.0
2022/07/05 00:33:45.000  -2483640.9449  -4660072.8575   3568172.1329   2   8   0.0008   0.0012   0.0012   0.0008  -0.0010  -0.0007   0.00    1.0
2022/07/05 00:34:00.000  -2483640.9447  -4660072.8573   3568172.1326   2   8   0.0008   0.0012   0.0012   0.0008  -0.0010  -0.0007   0.00    1.0
2022/07/05 00:34:15.000  -2483640.9445  -4660072.8571   3568172.1323   2   8   0.0008   0.0012   0.0012   0.0008  -0.0010  -0.0007   0.00    1.1
2022/07/05 00:34:30.000  -2483640.9443  -4660072.8569   3568172.1320   2   8   0.0008   0.0012   0.0012   0.0008  -0.0010  -0.0007   0.00    1.1
2022/07/05 00:34:45.000  -2483640.9441  -4660072.8568   3568172.1317   2   8   0.0008   0.0012   0.0011   0.0008  -0.0010  -0.0007   0.00    1.1
2022/07/05 00:35:00.000  -2483640.9440  -4660072.8566   3568172.1315   2   8   0.0008   0.0012   0.0011   0.0008  -0.0010  -0.0007   0.00    1.1
2022/07/05 00:35:15.000  -2483640.9438  -4660072.8565   3568172.1313   2   8   0.0008   0.0012   0.0011   0.0008  -0.0010  -0.0007   0.00    1.1
2022/07/05 00:35:30.000  -2483640.9437  -4660072.8564   3568172.1311   2   8   0.0008   0.0012   0.0011   0.0008  -0.0010  -0.0007   0.00    1.1
2022/07/05 00:35:45.000  -2483640.9436  -4660072.8563   3568172.1308   2   8   0.0008   0.0012   0.0011   0.0008  -0.0010  -0.0007   0.00    1.1
2022/07/05 00:36:00.000  -2483640.9435  -4660072.8562   3568172.1306   2   8   0.0008   0.0012   0.0011   0.0008  -0.0010  -0.0007   0.00    1.1
2022/07/05 00:36:15.000  -2483640.9434  -4660072.8561   3568172.1304   2   8   0.0008   0.0012   0.0011   0.0008  -0.0010  -0.0007   0.00    1.1
2022/07/05 00:36:30.000  -2483640.9433  -4660072.8560   3568172.1302   2   8   0.0008   0.0012   0.0011   0.0008  -0.0010  -0.0007   0.00    1.1
2022/07/05 00:36:45.000  -2483640.9432  -4660072.8559   3568172.1300   2   8   0.0008   0.0012   0.0011   0.0008  -0.0010  -0.0007   0.00    1.1
2022/07/05 00:37:00.000  -2483640.9431  -4660072.8558   3568172.1298   2   8   0.0008   0.0012   0.0011   0.0008  -0.0010  -0.0007   0.00    1.1
2022/07/05 00:37:15.000  -2483640.9430  -4660072.8557   3568172.1297   2   8   0.0008   0.0012   0.0011   0.0008  -0.0009  -0.0007   0.00    1.2
2022/07/05 00:37:30.000  -2483640.9430  -4660072.8556   3568172.1295   2   8   0.0008   0.0012   0.0011   0.0008  -0.0009  -0.0007   0.00    1.2
2022/07/05 00:37:45.000  -2483640.9429  -4660072.8555   3568172.1293   2   8   0.0008   0.0012   0.0011   0.0008  -0.0009  -0.0007   0.00    1.2
2022/07/05 00:38:00.000  -2483640.9428  -4660072.8555   3568172.1291   2   8   0.0008   0.0012   0.0011   0.0008  -0.0009  -0.0007   0.00    1.2
2022/07/05 00:38:15.000  -2483640.9427  -4660072.8553   3568172.1288   2   8   0.0008   0.0012   0.0011   0.0008  -0.0009  -0.0007   0.00    1.2
2022/07/05 00:38:30.000  -2483640.9426  -4660072.8552   3568172.1286   2   8   0.0008   0.0012   0.0011   0.0008  -0.0009  -0.0007   0.00    1.2
2022/07/05 00:38:45.000  -2483640.9425  -4660072.8551   3568172.1283   2   8   0.0008   0.0012   0.0011   0.0008  -0.0009  -0.0007   0.00    1.2
2022/07/05 00:39:00.000  -2483640.9424  -4660072.8549   3568172.1281   2   8   0.0008   0.0012   0.0011   0.0008  -0.0009  -0.0007   0.00    1.2
2022/07/05 00:39:15.000  -2483640.9422  -4660072.8548   3568172.1279   2   8   0.0008   0.0012   0.0011   0.0008  -0.0009  -0.0007   0.00    1.2
2022/07/05 00:39:30.000  -2483640.9421  -4660072.8546   3568172.1276   2   8   0.0008   0.0012   0.0011   0.0008  -0.0009  -0.0007   0.00    1.2
2022/07/05 00:39:45.000  -2483640.9420  -4660072.8544   3568172.1273   2   8   0.0008   0.0012   0.0011   0.0008  -0.0009  -0.0007   0.00    1.3
2022/07/05 00:40:00.000  -2483640.9418  -4660072.8542   3568172.1270   2   8   0.0008   0.0012   0.0011   0.0008  -0.0009  -0.0007   0.00    1.3
2022/07/05 00:40:15.000  -2483640.9417  -4660072.8540   3568172.1266   2   8   0.0008   0.0012   0.0011   0.0008  -0.0009  -0.0007   0.00    1.3
2022/07/05 00:40:30.000  -2483640.9415  -4660072.8537   3568172.1263   2   8   0.0008   0.0012   0.0011   0.0008  -0.0009  -0.0007   0.00    1.3
2022/07/05 00:40:45.000  -2483640.9413  -4660072.8535   3568172.1259   2   8   0.0008   0.0012   0.0011   0.0008  -0.0009  -0.0007   0.00    1.3
2022/07/05 00:41:00.000  -2483640.9412  -4660072.8532   3568172.1256   2   8   0.0008   0.0012   0.0011   0.0008  -0.0009  -0.0007   0.00    1.3
2022/07/05 00:41:15.000  -2483640.9410  -4660072.8529   3568172.1252   2   8   0.0008   0.0012   0.0011   0.0008  -0.0009  -0.0007   0.00    1.4
2022/07/05 00:41:30.000  -2483640.9408  -4660072.8527   3568172.1249   2   8   0.0008   0.0012   0.0011   0.0008  -0.0009  -0.0006   0.00    1.4
2022/07/05 00:41:45.000  -2483640.9406  -4660072.8525   3568172.1245   2   8   0.0008   0.0012   0.0011   0.0008  -0.0009  -0.0006   0.00    1.4
2022/07/05 00:42:00.000  -2483640.9404  -4660072.8523   3568172.1242   2   8   0.0008   0.0012   0.0011   0.0008  -0.0009  -0.0006   0.00    1.4
2022/07/05 00:42:15.000  -2483640.9403  -4660072.8521   3568172.1239   2   8   0.0008   0.0012   0.0011   0.0008  -0.0009  -0.0006   0.00    1.5
2022/07/05 00:42:30.000  -2483640.9403  -4660072.8521   3568172.1239   2   7   0.0008   0.0012   0.0011   0.0008  -0.0009  -0.0006   0.00    1.5
2022/07/05 00:42:45.000  -2483640.9403  -4660072.8522   3568172.1239   2   7   0.0008   0.0011   0.0011   0.0008  -0.0009  -0.0006   0.00    1.5
2022/07/05 00:43:00.000  -2483640.9403  -4660072.8522   3568172.1239   2   7   0.0008   0.0011   0.0011   0.0008  -0.0009  -0.0006   0.00    1.5
2022/07/05 00:43:15.000  -2483640.9525  -4660072.8616   3568172.1477   1   7   0.0006   0.0008   0.0008   0.0005  -0.0006  -0.0006   0.00    4.1
2022/07/05 00:43:30.000  -2483640.9525  -4660072.8616   3568172.1477   1   7   0.0006   0.0008   0.0008   0.0005  -0.0006  -0.0006   0.00    4.2
2022/07/05 00:43:45.000  -2483640.9525  -4660072.8618   3568172.1477   1   7   0.0006   0.0008   0.0008   0.0005  -0.0006  -0.0006   0.00    4.3
2022/07/05 00:44:00.000  -2483640.9525  -4660072.8619   3568172.1477   1   7   0.0006   0.0008   0.0008   0.0005  -0.0006  -0.0006   0.00    4.4
2022/07/05 00:44:15.000  -2483640.9525  -4660072.8620   3568172.1477   1   7   0.0006   0.0008   0.0008   0.0005  -0.0006  -0.0006   0.00    4.4
2022/07/05 00:44:30.000  -2483640.9525  -4660072.8622   3568172.1478   1   7   0.0006   0.0008   0.0008   0.0005  -0.0006  -0.0006   0.00    4.5
2022/07/05 00:44:45.000  -2483640.9525  -4660072.8624   3568172.1478   1   7   0.0006   0.0008   0.0008   0.0005  -0.0006  -0.0006   0.00    4.6
2022/07/05 00:45:00.000  -2483640.9525  -4660072.8625   3568172.1478   1   7   0.0006   0.0008   0.0008   0.0005  -0.0006  -0.0005   0.00    4.7
2022/07/05 00:45:15.000  -2483640.9525  -4660072.8626   3568172.1479   1   7   0.0006   0.0008   0.0008   0.0005  -0.0006  -0.0005   0.00    4.8
2022/07/05 00:45:30.000  -2483640.9524  -4660072.8628   3568172.1479   1   7   0.0006   0.0008   0.0008   0.0005  -0.0006  -0.0005   0.00    4.9
2022/07/05 00:45:45.000  -2483640.9524  -4660072.8629   3568172.1480   1   7   0.0006   0.0008   0.0008   0.0005  -0.0006  -0.0005   0.00    5.3
2022/07/05 00:46:00.000  -2483640.9524  -4660072.8631   3568172.1481   1   7   0.0006   0.0008   0.0008   0.0005  -0.0006  -0.0005   0.00    5.9
2022/07/05 00:46:15.000  -2483640.9524  -4660072.8633   3568172.1482   1   7   0.0006   0.0008   0.0008   0.0005  -0.0006  -0.0005   0.00    6.4
2022/07/05 00:46:30.000  -2483640.9524  -4660072.8634   3568172.1483   1   7   0.0006   0.0008   0.0008   0.0005  -0.0006  -0.0005   0.00    6.9
2022/07/05 00:46:45.000  -2483640.9523  -4660072.8636   3568172.1484   1   7   0.0006   0.0008   0.0008   0.0005  -0.0006  -0.0005   0.00    7.5
2022/07/05 00:47:00.000  -2483640.9523  -4660072.8638   3568172.1484   1   7   0.0006   0.0007   0.0008   0.0005  -0.0006  -0.0005   0.00    8.0
2022/07/05 00:47:15.000  -2483640.9523  -4660072.8639   3568172.1485   1   7   0.0006   0.0007   0.0008   0.0005  -0.0006  -0.0005   0.00    8.6
2022/07/05 00:47:30.000  -2483640.9522  -4660072.8640   3568172.1485   1   7   0.0006   0.0007   0.0008   0.0005  -0.0006  -0.0005   0.00    9.2
2022/07/05 00:47:45.000  -2483640.9522  -4660072.8641   3568172.1485   1   7   0.0006   0.0007   0.0008   0.0005  -0.0006  -0.0005   0.00    9.8
2022/07/05 00:48:00.000  -2483640.9521  -4660072.8642   3568172.1486   1   7   0.0006   0.0007   0.0008   0.0005  -0.0006  -0.0005   0.00   10.4
2022/07/05 00:48:15.000  -2483640.9521  -4660072.8643   3568172.1487   1   7   0.0006   0.0007   0.0008   0.0005  -0.0006  -0.0005   0.00   11.0
2022/07/05 00:48:30.000  -2483640.9520  -4660072.8644   3568172.1488   1   7   0.0006   0.0007   0.0008   0.0005  -0.0006  -0.0005   0.00   11.7
2022/07/05 00:48:45.000  -2483640.9520  -4660072.8645   3568172.1489   1   7   0.0006   0.0007   0.0008   0.0005  -0.0006  -0.0005   0.00   12.3
2022/07/05 00:49:00.000  -2483640.9520  -4660072.8647   3568172.1490   1   7   0.0006   0.0007   0.0008   0.0005  -0.0006  -0.0005   0.00   13.0
2022/07/05 00:49:15.000  -2483640.9519  -4660072.8648   3568172.1490   1   7   0.0005   0.0007   0.0008   0.0005  -0.0006  -0.0005   0.00   13.7
2022/07/05 00:49:30.000  -2483640.9519  -4660072.8649   3568172.1491   1   7   0.0005   0.0007   0.0008   0.0005  -0.0006  -0.0005   0.00   14.4
2022/07/05 00:49:45.000  -2483640.9517  -4660072.8650   3568172.1491   1   7   0.0005   0.0007   0.0008   0.0005  -0.0006  -0.0005   0.00   15.1
2022/07/05 00:50:00.000  -2483640.9516  -4660072.8651   3568172.1491   1   7   0.0005   0.0007   0.0008   0.0005  -0.0006  -0.0005   0.00   15.9
2022/07/05 00:50:15.000  -2483640.9515  -4660072.8651   3568172.1491   1   7   0.0005   0.0007   0.0008   0.0005  -0.0006  -0.0005   0.00   16.7
2022/07/05 00:50:30.000  -2483640.9513  -4660072.8651   3568172.1491   1   7   0.0005   0.0007   0.0008   0.0005  -0.0006  -0.0005   0.00   17.5
2022/07/05 00:50:45.000  -2483640.9512  -4660072.8651   3568172.1490   1   7   0.0005   0.0007   0.0008   0.0005  -0.0006  -0.0005   0.00   18.4
2022/07/05 00:51:00.000  -2483640.9511  -4660072.8652   3568172.1490   1   7   0.0005   0.0007   0.0008   0.0005  -0.0006  -0.0005   0.00   19.3
2022/07/05 00:51:15.000  -2483640.9510  -4660072.8652   3568172.1489   1   7   0.0005   0.0007   0.0008   0.0005  -0.0006  -0.0005   0.00   20.2
2022/07/05 00:51:30.000  -2483640.9508  -4660072.8652   3568172.1488   1   7   0.0005   0.0007   0.0008   0.0005  -0.0006  -0.0005   0.00   21.1
2022/07/05 00:51:45.000  -2483640.9508  -4660072.8653   3568172.1488   1   7   0.0005   0.0007   0.0008   0.0005  -0.0006  -0.0005   0.00   22.1
2022/07/05 00:52:00.000  -2483640.9507  -4660072.8654   3568172.1487   1   7   0.0005   0.0007   0.0008   0.0005  -0.0006  -0.0005   0.00   23.0
2022/07/05 00:52:15.000  -2483640.9506  -4660072.8655   3568172.1486   1   7   0.0005   0.0007   0.0008   0.0005  -0.0006  -0.0005   0.00   24.1
2022/07/05 00:52:30.000  -2483640.9505  -4660072.8656   3568172.1486   1   7   0.0005   0.0007   0.0008   0.0005  -0.0006  -0.0005   0.00   25.2
2022/07/05 00:52:45.000  -2483640.9504  -4660072.8657   3568172.1485   1   7   0.0005   0.0007   0.0008   0.0005  -0.0006  -0.0005   0.00   26.3
2022/07/05 00:53:00.000  -2483640.9503  -4660072.8657   3568172.1484   1   7   0.0005   0.0007   0.0008   0.0005  -0.0006  -0.0005   0.00   27.5
2022/07/05 00:53:15.000  -2483640.9502  -4660072.8658   3568172.1483   1   7   0.0005   0.0007   0.0008   0.0005  -0.0006  -0.0005   0.00   28.7
2022/07/05 00:53:30.000  -2483640.9501  -4660072.8659   3568172.1482   1   7   0.0005   0.0007   0.0008   0.0005  -0.0006  -0.0005   0.00   29.9
2022/07/05 00:53:45.000  -2483640.9499  -4660072.8659   3568172.1481   1   7   0.0005   0.0007   0.0008   0.0005  -0.0006  -0.0005   0.00   31.2
2022/07/05 00:54:00.000  -2483640.9498  -4660072.8660   3568172.1480   1   7   0.0005   0.0007   0.0008   0.0005  -0.0006  -0.0005   0.00   32.5
2022/07/05 00:54:15.000  -2483640.9497  -4660072.8661   3568172.1479   1   7   0.0005   0.0007   0.0008   0.0005  -0.0006  -0.0005   0.00   33.8
2022/07/05 00:54:30.000  -2483640.9496  -4660072.8662   3568172.1478   1   7   0.0005   0.0007   0.0008   0.0005  -0.0006  -0.0005   0.00   35.1
2022/07/05 00:54:45.000  -2483640.9496  -4660072.8663   3568172.1478   1   7   0.0005   0.0007   0.0008   0.0005  -0.0006  -0.0005   0.00   36.5
2022/07/05 00:55:00.000  -2483640.9433  -4660072.8598   3568172.1355   2   7   0.0006   0.0009   0.0009   0.0006  -0.0007  -0.0006   0.00    1.5
2022/07/05 00:55:15.000  -2483640.9433  -4660072.8599   3568172.1356   2   7   0.0006   0.0009   0.0009   0.0006  -0.0007  -0.0006   0.00    2.0
2022/07/05 00:55:30.000  -2483640.9433  -4660072.8601   3568172.1356   2   7   0.0006   0.0009   0.0009   0.0006  -0.0007  -0.0006   0.00    2.6
2022/07/05 00:55:45.000  -2483640.9501  -4660072.8678   3568172.1466   1   7   0.0005   0.0007   0.0008   0.0005  -0.0006  -0.0005   0.00    3.1
2022/07/05 00:56:00.000  -2483640.9501  -4660072.8678   3568172.1467   1   7   0.0005   0.0007   0.0008   0.0005  -0.0006  -0.0005   0.00    3.6
2022/07/05 00:56:15.000  -2483640.9499  -4660072.8678   3568172.1467   1   7   0.0005   0.0007   0.0008   0.0005  -0.0006  -0.0005   0.00    4.2
2022/07/05 00:56:30.000  -2483640.9498  -4660072.8679   3568172.1466   1   7   0.0005   0.0007   0.0008   0.0005  -0.0006  -0.0005   0.00    4.7
2022/07/05 00:56:45.000  -2483640.9497  -4660072.8679   3568172.1466   1   7   0.0005   0.0007   0.0008   0.0005  -0.0006  -0.0005   0.00    5.2
2022/07/05 00:57:00.000  -2483640.9495  -4660072.8679   3568172.1465   1   7   0.0005   0.0007   0.0008   0.0005  -0.0006  -0.0005   0.00    5.8
2022/07/05 00:57:15.000  -2483640.9494  -4660072.8679   3568172.1465   1   7   0.0005   0.0007   0.0008   0.0005  -0.0006  -0.0005   0.00    6.4
2022/07/05 00:57:30.000  -2483640.9492  -4660072.8679   3568172.1464   1   7   0.0005   0.0007   0.0008   0.0005  -0.0006  -0.0005   0.00    7.0
2022/07/05 00:57:45.000  -2483640.9491  -4660072.8679   3568172.1463   1   7   0.0005   0.0007   0.0008   0.0005  -0.0006  -0.0005   0.00    7.6
2022/07/05 00:58:00.000  -2483640.9489  -4660072.8679   3568172.1463   1   7   0.0005   0.0007   0.0008   0.0005  -0.0006  -0.0005   0.00    8.2
2022/07/05 00:58:15.000  -2483640.9487  -4660072.8679   3568172.1462   1   7   0.0005   0.0007   0.0008   0.0005  -0.0005  -0.0005   0.00    9.8
2022/07/05 00:58:30.000  -2483640.9486  -4660072.8679   3568172.1462   1   7   0.0005   0.0007   0.0008   0.0005  -0.0005  -0.0005   0.00   11.5
2022/07/05 00:58:45.000  -2483640.9427  -4660072.8611   3568172.1360   2   8   0.0006   0.0008   0.0009   0.0006  -0.0007  -0.0005   0.00    1.0
2022/07/05 00:59:00.000  -2483640.9426  -4660072.8611   3568172.1359   2   8   0.0006   0.0008   0.0009   0.0006  -0.0007  -0.0005   0.00    1.1
2022/07/05 00:59:15.000  -2483640.9425  -4660072.8611   3568172.1359   2   8   0.0006   0.0008   0.0009   0.0006  -0.0007  -0.0005   0.00    1.1
2022/07/05 00:59:30.000  -2483640.9424  -4660072.8611   3568172.1358   2   8   0.0006   0.0008   0.0009   0.0006  -0.0007  -0.0005   0.00    1.1
2022/07/05 00:59:45.000  -2483640.9423  -4660072.8611   3568172.1357   2   8   0.0006   0.0008   0.0009   0.0006  -0.0007  -0.0005   0.00    1.2
2022/07/05 01:00:00.000  -2483640.9422  -4660072.8611   3568172.1356   2   8   0.0006   0.0008   0.0009   0.0006  -0.0007  -0.0005   0.00    1.2
2022/07/05 01:00:15.000  -2483640.9421  -4660072.8610   3568172.1355   2   8   0.0006   0.0008   0.0009   0.0006  -0.0007  -0.0005   0.00    1.3
2022/07/05 01:00:30.000  -2483640.9420  -4660072.8610   3568172.1354   2   8   0.0006   0.0008   0.0009   0.0006  -0.0007  -0.0005   0.00    1.3
2022/07/05 01:00:45.000  -2483640.9419  -4660072.8610   3568172.1353   2   8   0.0006   0.0008   0.0009   0.0006  -0.0007  -0.0005   0.00    1.4
2022/07/05 01:01:00.000  -2483640.9418  -4660072.8609   3568172.1351   2   8   0.0006   0.0008   0.0009   0.0006  -0.0007  -0.0005   0.00    1.5
2022/07/05 01:01:15.000  -2483640.9417  -4660072.8609   3568172.1350   2   8   0.0006   0.0008   0.0009   0.0006  -0.0007  -0.0005   0.00    1.5
2022/07/05 01:01:30.000  -2483640.9416  -4660072.8608   3568172.1349   2   8   0.0006   0.0008   0.0009   0.0006  -0.0007  -0.0005   0.00    1.6
2022/07/05 01:01:45.000  -2483640.9415  -4660072.8608   3568172.1348   2   8   0.0006   0.0008   0.0009   0.0006  -0.0007  -0.0005   0.00    1.6
2022/07/05 01:02:00.000  -2483640.9414  -4660072.8608   3568172.1346   2   8   0.0006   0.0008   0.0009   0.0006  -0.0007  -0.0005   0.00    1.7
2022/07/05 01:02:15.000  -2483640.9413  -4660072.8607   3568172.1345   2   8   0.0006   0.0008   0.0009   0.0006  -0.0007  -0.0005   0.00    1.7
2022/07/05 01:02:30.000  -2483640.9412  -4660072.8607   3568172.1344   2   8   0.0006   0.0008   0.0009   0.0006  -0.0007  -0.0005   0.00    1.8
2022/07/05 01:02:45.000  -2483640.9412  -4660072.8607   3568172.1343   2   8   0.0006   0.0008   0.0009   0.0006  -0.0007  -0.0005   0.00    1.8
2022/07/05 01:03:00.000  -2483640.9411  -4660072.8607   3568172.1342   2   8   0.0006   0.0008   0.0009   0.0006  -0.0007  -0.0005   0.00    1.9
2022/07/05 01:03:15.000  -2483640.9410  -4660072.8606   3568172.1341   2   8   0.0006   0.0008   0.0008   0.0006  -0.0007  -0.0005   0.00    1.9
2022/07/05 01:03:30.000  -2483640.9409  -4660072.8606   3568172.1340   2   8   0.0006   0.0008   0.0008   0.0006  -0.0007  -0.0005   0.00    2.0
2022/07/05 01:03:45.000  -2483640.9408  -4660072.8606   3568172.1338   2   8   0.0006   0.0008   0.0008   0.0006  -0.0006  -0.0005   0.00    2.0
2022/07/05 01:04:00.000  -2483640.9408  -4660072.8605   3568172.1337   2   8   0.0006   0.0008   0.0008   0.0006  -0.0006  -0.0005   0.00    2.1
2022/07/05 01:04:15.000  -2483640.9407  -4660072.8605   3568172.1336   2   8   0.0006   0.0008   0.0008   0.0006  -0.0006  -0.0005   0.00    2.1
2022/07/05 01:04:30.000  -2483640.9406  -4660072.8604   3568172.1335   2   8   0.0006   0.0008   0.0008   0.0006  -0.0006  -0.0005   0.00    2.2
2022/07/05 01:04:45.000  -2483640.9405  -4660072.8604   3568172.1333   2   8   0.0006   0.0008   0.0008   0.0006  -0.0006  -0.0005   0.00    2.3
2022/07/05 01:05:00.000  -2483640.9405  -4660072.8603   3568172.1331   2   8   0.0006   0.0008   0.0008   0.0006  -0.0006  -0.0005   0.00    2.3
2022/07/05 01:05:15.000  -2483640.9404  -4660072.8602   3568172.1330   2   8   0.0006   0.0008   0.0008   0.0006  -0.0006  -0.0005   0.00    2.4
2022/07/05 01:05:30.000  -2483640.9403  -4660072.8601   3568172.1328   2   8   0.0006   0.0008   0.0008   0.0006  -0.0006  -0.0005   0.00    2.5
2022/07/05 01:05:45.000  -2483640.9403  -4660072.8600   3568172.1327   2   8   0.0006   0.0008   0.0008   0.0006  -0.0006  -0.0005   0.00    2.6
2022/07/05 01:06:00.000  -2483640.9402  -4660072.8599   3568172.1325   2   8   0.0006   0.0008   0.0008   0.0006  -0.0006  -0.0005   0.00    2.7
2022/07/05 01:06:15.000  -2483640.9401  -4660072.8598   3568172.1324   2   8   0.0006   0.0008   0.0008   0.0006  -0.0006  -0.0005   0.00    2.8
2022/07/05 01:06:30.000  -2483640.9401  -4660072.8597   3568172.1322   2   8   0.0006   0.0008   0.0008   0.0006  -0.0006  -0.0005   0.00    3.0
2022/07/05 01:06:45.000  -2483640.9413  -4660072.8636   3568172.1343   1   8   0.0005   0.0006   0.0007   0.0004  -0.0005  -0.0004   0.00    3.1
2022/07/05 01:07:00.000  -2483640.9412  -4660072.8635   3568172.1341   1   8   0.0005   0.0006   0.0007   0.0004  -0.0005  -0.0004   0.00    3.3
2022/07/05 01:07:15.000  -2483640.9411  -4660072.8633   3568172.1338   1   8   0.0005   0.0006   0.0007   0.0004  -0.0005  -0.0004   0.00    3.4
2022/07/05 01:07:30.000  -2483640.9410  -4660072.8632   3568172.1336   1   8   0.0005   0.0006   0.0007   0.0004  -0.0005  -0.0004   0.00    3.6
2022/07/05 01:07:45.000  -2483640.9408  -4660072.8631   3568172.1333   1   8   0.0005   0.0006   0.0007   0.0004  -0.0005  -0.0004   0.00    3.8
2022/07/05 01:08:00.000  -2483640.9407  -4660072.8630   3568172.1332   1   8   0.0005   0.0006   0.0007   0.0004  -0.0005  -0.0004   0.00    4.0
2022/07/05 01:08:15.000  -2483640.9406  -4660072.8629   3568172.1330   1   8   0.0005   0.0006   0.0007   0.0004  -0.0005  -0.0004   0.00    4.2
2022/07/05 01:08:30.000  -2483640.9405  -4660072.8628   3568172.1328   1   8   0.0005   0.0006   0.0006   0.0004  -0.0005  -0.0004   0.00    4.4
2022/07/05 01:08:45.000  -2483640.9404  -4660072.8627   3568172.1327   1   8   0.0005   0.0006   0.0006   0.0004  -0.0005  -0.0004   0.00    4.6
2022/07/05 01:09:00.000  -2483640.9403  -4660072.8626   3568172.1326   1   8   0.0005   0.0006   0.0006   0.0004  -0.0005  -0.0004   0.00    4.8
2022/07/05 01:09:15.000  -2483640.9402  -4660072.8626   3568172.1325   1   8   0.0005   0.0006   0.0006   0.0004  -0.0005  -0.0004   0.00    6.3
2022/07/05 01:09:30.000  -2483640.9401  -4660072.8625   3568172.1323   1   8   0.0005   0.0006   0.0006   0.0004  -0.0005  -0.0004   0.00    7.9
2022/07/05 01:09:45.000  -2483640.9400  -4660072.8624   3568172.1322   1   8   0.0005   0.0006   0.0006   0.0004  -0.0005  -0.0004   0.00    9.6
2022/07/05 01:10:00.000  -2483640.9399  -4660072.8624   3568172.1321   1   8   0.0005   0.0006   0.0006   0.0004  -0.0005  -0.0004   0.00   11.5
2022/07/05 01:10:15.000  -2483640.9398  -4660072.8624   3568172.1320   1   8   0.0005   0.0006   0.0006   0.0004  -0.0005  -0.0004   0.00   13.5
2022/07/05 01:10:30.000  -2483640.9397  -4660072.8624   3568172.1320   1   8   0.0005   0.0006   0.0006   0.0004  -0.0005  -0.0004   0.00   15.7
2022/07/05 01:10:45.000  -2483640.9396  -4660072.8624   3568172.1319   1   8   0.0005   0.0006   0.0006   0.0004  -0.0005  -0.0004   0.00   18.1
2022/07/05 01:11:00.000  -2483640.9395  -4660072.8623   3568172.1318   1   8   0.0005   0.0006   0.0006   0.0004  -0.0005  -0.0004   0.00   20.7
2022/07/05 01:11:15.000  -2483640.9394  -4660072.8623   3568172.1318   1   8   0.0005   0.0006   0.0006   0.0004  -0.0005  -0.0004   0.00   23.4
2022/07/05 01:11:30.000  -2483640.9393  -4660072.8623   3568172.1318   1   8   0.0005   0.0006   0.0006   0.0004  -0.0005  -0.0004   0.00   26.4
2022/07/05 01:11:45.000  -2483640.9393  -4660072.8624   3568172.1318   1   8   0.0005   0.0006   0.0006   0.0004  -0.0004  -0.0004   0.00   29.5
2022/07/05 01:12:00.000  -2483640.9392  -4660072.8624   3568172.1317   1   8   0.0005   0.0006   0.0006   0.0004  -0.0004  -0.0004   0.00   32.6
2022/07/05 01:12:15.000  -2483640.9391  -4660072.8623   3568172.1317   1   8   0.0005   0.0006   0.0006   0.0004  -0.0004  -0.0004   0.00   35.9
2022/07/05 01:12:30.000  -2483640.9390  -4660072.8623   3568172.1317   1   8   0.0005   0.0006   0.0006   0.0004  -0.0004  -0.0004   0.00   39.5
2022/07/05 01:12:45.000  -2483640.9389  -4660072.8623   3568172.1317   1   8   0.0005   0.0006   0.0006   0.0004  -0.0004  -0.0004   0.00   43.1
2022/07/05 01:13:00.000  -2483640.9389  -4660072.8623   3568172.1317   1   8   0.0005   0.0006   0.0006   0.0004  -0.0004  -0.0004   0.00   46.8
2022/07/05 01:13:15.000  -2483640.9388  -4660072.8622   3568172.1317   1   8   0.0005   0.0006   0.0006   0.0004  -0.0004  -0.0004   0.00   50.8
2022/07/05 01:13:30.000  -2483640.9388  -4660072.8622   3568172.1317   1   8   0.0005   0.0006   0.0006   0.0004  -0.0004  -0.0004   0.00   55.1
2022/07/05 01:13:45.000  -2483640.9388  -4660072.8622   3568172.1317   1   8   0.0005   0.0006   0.0006   0.0004  -0.0004  -0.0004   0.00   59.7
2022/07/05 01:14:00.000  -2483640.9387  -4660072.8622   3568172.1317   1   8   0.0005   0.0006   0.0006   0.0004  -0.0004  -0.0004   0.00   64.3
2022/07/05 01:14:15.000  -2483640.9387  -4660072.8622   3568172.1317   1   8   0.0004   0.0006   0.0006   0.0004  -0.0004  -0.0004   0.00   69.0
2022/07/05 01:14:30.000  -2483640.9387  -4660072.8622   3568172.1318   1   8   0.0004   0.0006   0.0006   0.0004  -0.0004  -0.0004   0.00   74.0
2022/07/05 01:14:45.000  -2483640.9387  -4660072.8622   3568172.1318   1   8   0.0004   0.0006   0.0006   0.0004  -0.0004  -0.0004   0.00   78.9
2022/07/05 01:15:00.000  -2483640.9387  -4660072.8622   3568172.1318   1   8   0.0004   0.0006   0.0006   0.0004  -0.0004  -0.0004   0.00   83.7
2022/07/05 01:15:15.000  -2483640.9387  -4660072.8622   3568172.1319   1   8   0.0004   0.0006   0.0006   0.0004  -0.0004  -0.0004   0.00   88.2
2022/07/05 01:15:30.000  -2483640.9387  -4660072.8622   3568172.1319   1   8   0.0004   0.0006   0.0006   0.0004  -0.0004  -0.0004   0.00   92.3
2022/07/05 01:15:45.000  -2483640.9388  -4660072.8622   3568172.1320   1   8   0.0004   0.0006   0.0006   0.0004  -0.0004  -0.0004   0.00   96.2
2022/07/05 01:16:00.000  -2483640.9388  -4660072.8622   3568172.1320   1   8   0.0004   0.0006   0.0006   0.0004  -0.0004  -0.0004   0.00   99.7
2022/07/05 01:16:15.000  -2483640.9389  -4660072.8623   3568172.1321   1   8   0.0004   0.0006   0.0006   0.0004  -0.0004  -0.0004   0.00  103.1
2022/07/05 01:16:30.000  -2483640.9389  -4660072.8623   3568172.1321   1   8   0.0004   0.0006   0.0006   0.0004  -0.0004  -0.0004   0.00  106.1
2022/07/05 01:16:45.000  -2483640.9389  -4660072.8624   3568172.1322   1   8   0.0004   0.0006   0.0006   0.0004  -0.0004  -0.0004   0.00  108.6
2022/07/05 01:17:00.000  -2483640.9389  -4660072.8624   3568172.1322   1   8   0.0004   0.0006   0.0006   0.0004  -0.0004  -0.0004   0.00  111.3
2022/07/05 01:17:15.000  -2483640.9390  -4660072.8625   3568172.1322   1   8   0.0004   0.0006   0.0006   0.0004  -0.0004  -0.0004   0.00  113.5
2022/07/05 01:17:30.000  -2483640.9390  -4660072.8625   3568172.1322   1   8   0.0004   0.0006   0.0006   0.0004  -0.0004  -0.0004   0.00  115.6
2022/07/05 01:17:45.000  -2483640.9390  -4660072.8625   3568172.1322   1   8   0.0004   0.0006   0.0006   0.0004  -0.0004  -0.0004   0.00  117.2
2022/07/05 01:18:00.000  -2483640.9390  -4660072.8625   3568172.1322   1   8   0.0004   0.0006   0.0006   0.0004  -0.0004  -0.0004   0.00  119.2
2022/07/05 01:18:15.000  -2483640.9390  -4660072.8625   3568172.1322   1   8   0.0004   0.0006   0.0006   0.0004  -0.0004  -0.0004   0.00  121.1
2022/07/05 01:18:30.000  -2483640.9390  -4660072.8626   3568172.1322   1   8   0.0004   0.0006   0.0006   0.0004  -0.0004  -0.0004   0.00  122.7
2022/07/05 01:18:45.000  -2483640.9391  -4660072.8626   3568172.1323   1   8   0.0004   0.0006   0.0006   0.0004  -0.0004  -0.0004   0.00  123.9
2022/07/05 01:19:00.000  -2483640.9391  -4660072.8627   3568172.1323   1   8   0.0004   0.0006   0.0006   0.0004  -0.0004  -0.0004   0.00  125.2
2022/07/05 01:19:15.000  -2483640.9391  -4660072.8627   3568172.1323   1   8   0.0004   0.0006   0.0006   0.0004  -0.0004  -0.0004   0.00  125.8
2022/07/05 01:19:30.000  -2483640.9391  -4660072.8627   3568172.1324   1   8   0.0004   0.0006   0.0006   0.0004  -0.0004  -0.0004   0.00  126.6
2022/07/05 01:19:45.000  -2483640.9391  -4660072.8628   3568172.1324   1   8   0.0004   0.0006   0.0006   0.0004  -0.0004  -0.0004   0.00  126.8
2022/07/05 01:20:00.000  -2483640.9391  -4660072.8628   3568172.1324   1   8   0.0004   0.0006   0.0006   0.0004  -0.0004  -0.0004   0.00  127.4
2022/07/05 01:20:15.000  -2483640.9392  -4660072.8629   3568172.1325   1   8   0.0004   0.0006   0.0006   0.0004  -0.0004  -0.0004   0.00  127.7
2022/07/05 01:20:30.000  -2483640.9392  -4660072.8629   3568172.1325   1   8   0.0004   0.0006   0.0006   0.0004  -0.0004  -0.0004   0.00  127.0
2022/07/05 01:20:45.000  -2483640.9393  -4660072.8630   3568172.1326   1   8   0.0004   0.0006   0.0006   0.0004  -0.0004  -0.0004   0.00  125.9
2022/07/05 01:21:00.000  -2483640.9393  -4660072.8631   3568172.1326   1   8   0.0004   0.0006   0.0005   0.0004  -0.0004  -0.0003   0.00  124.7
2022/07/05 01:21:15.000  -2483640.9394  -4660072.8632   3568172.1327   1   8   0.0004   0.0006   0.0005   0.0004  -0.0004  -0.0003   0.00  123.4
2022/07/05 01:21:30.000  -2483640.9394  -4660072.8632   3568172.1328   1   8   0.0004   0.0006   0.0005   0.0004  -0.0004  -0.0003   0.00  122.2
2022/07/05 01:21:45.000  -2483640.9395  -4660072.8633   3568172.1328   1   8   0.0004   0.0006   0.0005   0.0004  -0.0004  -0.0003   0.00  120.9
2022/07/05 01:22:00.000  -2483640.9395  -4660072.8634   3568172.1328   1   8   0.0004   0.0006   0.0005   0.0004  -0.0004  -0.0003   0.00  119.1
2022/07/05 01:22:15.000  -2483640.9395  -4660072.8634   3568172.1329   1   8   0.0004   0.0006   0.0005   0.0004  -0.0004  -0.0003   0.00  117.6
2022/07/05 01:22:30.000  -2483640.9395  -4660072.8634   3568172.1329   1   8   0.0004   0.0006   0.0005   0.0004  -0.0004  -0.0003   0.00  116.8
2022/07/05 01:22:45.000  -2483640.9395  -4660072.8635   3568172.1329   1   8   0.0004   0.0006   0.0005   0.0004  -0.0004  -0.0003   0.00  115.3
2022/07/05 01:23:00.000  -2483640.9395  -4660072.8635   3568172.1329   1   8   0.0004   0.0006   0.0005   0.0004  -0.0004  -0.0003   0.00  114.5
2022/07/05 01:23:15.000  -2483640.9395  -4660072.8635   3568172.1329   1   8   0.0004   0.0006   0.0005   0.0004  -0.0004  -0.0003   0.00  113.6
2022/07/05 01:23:30.000  -2483640.9395  -4660072.8636   3568172.1330   1   8   0.0004   0.0006   0.0005   0.0004  -0.0004  -0.0003   0.00  112.9
2022/07/05 01:23:45.000  -2483640.9396  -4660072.8636   3568172.1330   1   8   0.0004   0.0006   0.0005   0.0004  -0.0004  -0.0003   0.00  112.7
2022/07/05 01:24:00.000  -2483640.9396  -4660072.8637   3568172.1330   1   8   0.0004   0.0006   0.0005   0.0004  -0.0004  -0.0003   0.00  112.4
2022/07/05 01:24:15.000  -2483640.9396  -4660072.8637   3568172.1330   1   8   0.0004   0.0006   0.0005   0.0004  -0.0004  -0.0003   0.00  111.9
2022/07/05 01:24:30.000  -2483640.9396  -4660072.8637   3568172.1330   1   8   0.0004   0.0006   0.0005   0.0004  -0.0004  -0.0003   0.00  111.4
2022/07/05 01:24:45.000  -2483640.9396  -4660072.8638   3568172.1330   1   8   0.0004   0.0006   0.0005   0.0004  -0.0004  -0.0003   0.00  111.0
2022/07/05 01:25:00.000  -2483640.9396  -4660072.8638   3568172.1330   1   8   0.0004   0.0006   0.0005   0.0004  -0.0004  -0.0003   0.00  110.8
2022/07/05 01:25:15.000  -2483640.9396  -4660072.8638   3568172.1330   1   8   0.0004   0.0006   0.0005   0.0004  -0.0004  -0.0003   0.00  110.5
2022/07/05 01:25:30.000  -2483640.9395  -4660072.8638   3568172.1330   1   8   0.0004   0.0006   0.0005   0.0004  -0.0004  -0.0003   0.00  109.8
2022/07/05 01:25:45.000  -2483640.9395  -4660072.8638   3568172.1331   1   8   0.0004   0.0006   0.0005   0.0004  -0.0004  -0.0003   0.00  109.1
2022/07/05 01:26:00.000  -2483640.9394  -4660072.8638   3568172.1331   1   8   0.0004   0.0006   0.0005   0.0004  -0.0004  -0.0003   0.00  108.3
2022/07/05 01:26:15.000  -2483640.9394  -4660072.8638   3568172.1331   1   8   0.0004   0.0006   0.0005   0.0004  -0.0004  -0.0003   0.00  107.6
2022/07/05 01:26:30.000  -2483640.9393  -4660072.8638   3568172.1331   1   8   0.0004   0.0006   0.0005   0.0004  -0.0004  -0.0003   0.00  107.1
2022/07/05 01:26:45.000  -2483640.9393  -4660072.8638   3568172.1332   1   8   0.0004   0.0006   0.0005   0.0004  -0.0004  -0.0003   0.00  106.6
2022/07/05 01:27:00.000  -2483640.9393  -4660072.8638   3568172.1332   1   8   0.0004   0.0006   0.0005   0.0004  -0.0004  -0.0003   0.00  106.4
2022/07/05 01:27:15.000  -2483640.9392  -4660072.8637   3568172.1332   1   8   0.0004   0.0006   0.0005   0.0004  -0.0004  -0.0003   0.00  106.0
2022/07/05 01:27:30.000  -2483640.9391  -4660072.8637   3568172.1332   1   8   0.0004   0.0006   0.0005   0.0004  -0.0004  -0.0003   0.00  105.6
2022/07/05 01:27:45.000  -2483640.9391  -4660072.8637   3568172.1333   1   8   0.0004   0.0006   0.0005   0.0004  -0.0004  -0.0003   0.00  105.2
2022/07/05 01:28:00.000  -2483640.9391  -4660072.8637   3568172.1333   1   8   0.0004   0.0006   0.0005   0.0004  -0.0004  -0.0003   0.00  104.7
2022/07/05 01:28:15.000  -2483640.9391  -4660072.8636   3568172.1333   1   8   0.0004   0.0006   0.0005   0.0004  -0.0004  -0.0003   0.00  104.4
2022/07/05 01:28:30.000  -2483640.9391  -4660072.8636   3568172.1333   1   8   0.0004   0.0006   0.0005   0.0004  -0.0004  -0.0003   0.00  104.2
2022/07/05 01:28:45.000  -2483640.9391  -4660072.8635   3568172.1333   1   8   0.0004   0.0006   0.0005   0.0004  -0.0004  -0.0003   0.00  103.6
2022/07/05 01:29:00.000  -2483640.9391  -4660072.8634   3568172.1332   1   8   0.0004   0.0006   0.0005   0.0004  -0.0004  -0.0003   0.00  103.5
2022/07/05 01:29:15.000  -2483640.9391  -4660072.8633   3568172.1332   1   8   0.0004   0.0006   0.0005   0.0004  -0.0004  -0.0003   0.00  103.1
2022/07/05 01:29:30.000  -2483640.9379  -4660072.8612   3568172.1318   2   9   0.0005   0.0006   0.0006   0.0004  -0.0004  -0.0004   0.00    1.1
2022/07/05 01:29:45.000  -2483640.9379  -4660072.8612   3568172.1318   2   9   0.0005   0.0006   0.0006   0.0004  -0.0004  -0.0004   0.00    1.2
2022/07/05 01:30:00.000  -2483640.9379  -4660072.8611   3568172.1318   2   9   0.0005   0.0006   0.0006   0.0004  -0.0004  -0.0004   0.00    1.2
2022/07/05 01:30:15.000  -2483640.9378  -4660072.8611   3568172.1318   2   9   0.0005   0.0006   0.0006   0.0004  -0.0004  -0.0004   0.00    1.3
2022/07/05 01:30:30.000  -2483640.9378  -4660072.8610   3568172.1318   2   9   0.0005   0.0006   0.0006   0.0004  -0.0004  -0.0004   0.00    1.4
2022/07/05 01:30:45.000  -2483640.9378  -4660072.8610   3568172.1318   2   9   0.0005   0.0006   0.0006   0.0004  -0.0004  -0.0004   0.00    1.6
2022/07/05 01:31:00.000  -2483640.9378  -4660072.8609   3568172.1317   2   9   0.0005   0.0006   0.0006   0.0004  -0.0004  -0.0004   0.00    1.7
2022/07/05 01:31:15.000  -2483640.9378  -4660072.8609   3568172.1317   2   9   0.0005   0.0006   0.0006   0.0004  -0.0004  -0.0004   0.00    1.8
2022/07/05 01:31:30.000  -2483640.9378  -4660072.8608   3568172.1317   2   9   0.0005   0.0006   0.0005   0.0004  -0.0004  -0.0004   0.00    1.9
2022/07/05 01:31:45.000  -2483640.9377  -4660072.8608   3568172.1317   2   9   0.0005   0.0006   0.0005   0.0004  -0.0004  -0.0004   0.00    2.0
2022/07/05 01:32:00.000  -2483640.9377  -4660072.8607   3568172.1316   2   9   0.0005   0.0006   0.0005   0.0004  -0.0004  -0.0004   0.00    2.1
2022/07/05 01:32:15.000  -2483640.9377  -4660072.8607   3568172.1316   2   9   0.0004   0.0006   0.0005   0.0004  -0.0004  -0.0004   0.00    2.2
2022/07/05 01:32:30.000  -2483640.9376  -4660072.8606   3568172.1315   2   9   0.0004   0.0006   0.0005   0.0004  -0.0004  -0.0004   0.00    2.3
2022/07/05 01:32:45.000  -2483640.9376  -4660072.8606   3568172.1315   2   9   0.0004   0.0006   0.0005   0.0004  -0.0004  -0.0004   0.00    2.4
2022/07/05 01:33:00.000  -2483640.9376  -4660072.8605   3568172.1315   2   9   0.0004   0.0006   0.0005   0.0004  -0.0004  -0.0004   0.00    2.5
2022/07/05 01:33:15.000  -2483640.9375  -4660072.8605   3568172.1314   2   9   0.0004   0.0006   0.0005   0.0004  -0.0004  -0.0004   0.00    2.6
2022/07/05 01:33:30.000  -2483640.9375  -4660072.8605   3568172.1314   2   9   0.0004   0.0006   0.0005   0.0004  -0.0004  -0.0004   0.00    2.7
2022/07/05 01:33:45.000  -2483640.9374  -4660072.8604   3568172.1313   2   9   0.0004   0.0006   0.0005   0.0004  -0.0004  -0.0004   0.00    2.7
2022/07/05 01:34:00.000  -2483640.9373  -4660072.8604   3568172.1312   2   9   0.0004   0.0006   0.0005   0.0004  -0.0004  -0.0003   0.00    2.8
2022/07/05 01:34:15.000  -2483640.9373  -4660072.8603   3568172.1312   2   9   0.0004   0.0006   0.0005   0.0004  -0.0004  -0.0003   0.00    2.9
2022/07/05 01:34:30.000  -2483640.9372  -4660072.8603   3568172.1311   2   9   0.0004   0.0006   0.0005   0.0004  -0.0004  -0.0003   0.00    2.9
2022/07/05 01:34:45.000  -2483640.9371  -4660072.8603   3568172.1310   2   9   0.0004   0.0006   0.0005   0.0004  -0.0004  -0.0003   0.00    3.0
2022/07/05 01:35:00.000  -2483640.9377  -4660072.8611   3568172.1323   1   9   0.0004   0.0006   0.0005   0.0004  -0.0004  -0.0003   0.00    3.0
2022/07/05 01:35:15.000  -2483640.9376  -4660072.8610   3568172.1322   1   9   0.0004   0.0006   0.0005   0.0004  -0.0004  -0.0003   0.00    3.1
2022/07/05 01:35:30.000  -2483640.9374  -4660072.8608   3568172.1321   1   9   0.0004   0.0006   0.0005   0.0004  -0.0004  -0.0003   0.00    3.1
2022/07/05 01:35:45.000  -2483640.9373  -4660072.8607   3568172.1320   1   9   0.0004   0.0006   0.0005   0.0004  -0.0004  -0.0003   0.00    3.1
2022/07/05 01:36:00.000  -2483640.9372  -4660072.8606   3568172.1319   1   9   0.0004   0.0005   0.0005   0.0004  -0.0004  -0.0003   0.00    3.2
2022/07/05 01:36:15.000  -2483640.9371  -4660072.8605   3568172.1318   1   9   0.0004   0.0005   0.0005   0.0004  -0.0004  -0.0003   0.00    3.2
2022/07/05 01:36:30.000  -2483640.9370  -4660072.8604   3568172.1317   1   9   0.0004   0.0005   0.0005   0.0004  -0.0004  -0.0003   0.00    3.3
2022/07/05 01:36:45.000  -2483640.9369  -4660072.8603   3568172.1316   1   9   0.0004   0.0005   0.0005   0.0004  -0.0004  -0.0003   0.00    3.3
2022/07/05 01:37:00.000  -2483640.9367  -4660072.8602   3568172.1315   1   9   0.0004   0.0005   0.0005   0.0004  -0.0004  -0.0003   0.00    3.4
2022/07/05 01:37:15.000  -2483640.9366  -4660072.8601   3568172.1313   1   9   0.0004   0.0005   0.0005   0.0004  -0.0004  -0.0003   0.00    3.5
2022/07/05 01:37:30.000  -2483640.9365  -4660072.8600   3568172.1312   1   9   0.0004   0.0005   0.0005   0.0004  -0.0003  -0.0003   0.00   11.3
2022/07/05 01:37:45.000  -2483640.9364  -4660072.8599   3568172.1311   1   9   0.0004   0.0005   0.0005   0.0004  -0.0003  -0.0003   0.00   19.2
2022/07/05 01:38:00.000  -2483640.9363  -4660072.8597   3568172.1309   1   9   0.0004   0.0005   0.0005   0.0004  -0.0003  -0.0003   0.00   27.1
2022/07/05 01:38:15.000  -2483640.9362  -4660072.8596   3568172.1308   1   9   0.0004   0.0005   0.0005   0.0004  -0.0003  -0.0003   0.00   35.1
2022/07/05 01:38:30.000  -2483640.9361  -4660072.8596   3568172.1306   1   9   0.0004   0.0005   0.0005   0.0004  -0.0003  -0.0003   0.00   43.1
2022/07/05 01:38:45.000  -2483640.9360  -4660072.8595   3568172.1305   1   9   0.0004   0.0005   0.0005   0.0004  -0.0003  -0.0003   0.00   50.9
2022/07/05 01:39:00.000  -2483640.9359  -4660072.8594   3568172.1304   1   9   0.0004   0.0005   0.0005   0.0004  -0.0003  -0.0003   0.00   57.6
2022/07/05 01:39:15.000  -2483640.9358  -4660072.8593   3568172.1302   1   9   0.0004   0.0005   0.0005   0.0004  -0.0003  -0.0003   0.00   58.6
2022/07/05 01:39:30.000  -2483640.9357  -4660072.8592   3568172.1301   1   9   0.0004   0.0005   0.0005   0.0004  -0.0003  -0.0003   0.00   59.4
2022/07/05 01:39:45.000  -2483640.9356  -4660072.8591   3568172.1299   1   9   0.0004   0.0005   0.0005   0.0004  -0.0003  -0.0003   0.00   60.2
2022/07/05 01:40:00.000  -2483640.9355  -4660072.8590   3568172.1298   1   9   0.0004   0.0005   0.0005   0.0004  -0.0003  -0.0003   0.00   61.1
2022/07/05 01:40:15.000  -2483640.9354  -4660072.8589   3568172.1297   1   9   0.0004   0.0005   0.0005   0.0004  -0.0003  -0.0003   0.00   61.9
2022/07/05 01:40:30.000  -2483640.9353  -4660072.8588   3568172.1295   1   9   0.0004   0.0005   0.0005   0.0004  -0.0003  -0.0003   0.00   62.7
2022/07/05 01:40:45.000  -2483640.9352  -4660072.8587   3568172.1294   1   9   0.0004   0.0005   0.0005   0.0004  -0.0003  -0.0003   0.00   63.5
