% program   : RTKPOST ver.2.4.3 b34
% inp file  : C:\Users\89231\Documents\Учеба\Диссертация\Данные\Лос-Анджелес 03-05.07.22\03.07.2022\cit11840.22o
% inp file  : C:\Users\89231\Documents\Учеба\Диссертация\Данные\Лос-Анджелес 03-05.07.22\03.07.2022\whc11840.22o
% inp file  : C:\Users\89231\Documents\Учеба\Диссертация\Данные\Лос-Анджелес 03-05.07.22\03.07.2022\cit11840.22n
% inp file  : C:\Users\89231\Documents\Учеба\Диссертация\Данные\Лос-Анджелес 03-05.07.22\03.07.2022\igs22170.sp3
% obs start : 2022/07/03 00:00:00.0 GPST (week2217      0.0s)
% obs end   : 2022/07/03 23:59:45.0 GPST (week2217  86385.0s)
% pos mode  : Static
% freqs     : L1+2
% solution  : Forward
% elev mask : 15.0 deg
% dynamics  : off
% tidecorr  : off
% ionos opt : Broadcast
% tropo opt : Saastamoinen
% ephemeris : Precise
% navi sys  : GPS
% amb res   : Fix and Hold
% val thres : 3.0
% antenna1  :                       ( 0.0000  0.0000  0.0000)
% antenna2  :                       ( 0.0000  0.0000  0.0000)
% ref pos   : -2488199.3244  -4673487.1517   3544649.2637
%
% (x/y/z-ecef=WGS84,Q=1:fix,2:float,3:sbas,4:dgps,5:single,6:ppp,ns=# of satellites)
%  GPST                      x-ecef(m)      y-ecef(m)      z-ecef(m)   Q  ns   sdx(m)   sdy(m)   sdz(m)  sdxy(m)  sdyz(m)  sdzx(m) age(s)  ratio
2022/07/03 00:00:00.000  -2491490.2510  -4660803.2398   3559128.9616   1   8   0.0054   0.0102   0.0075   0.0058  -0.0075  -0.0049   0.00    3.8
2022/07/03 00:00:15.000  -2491490.2519  -4660803.2422   3559128.9652   1   8   0.0038   0.0072   0.0053   0.0041  -0.0053  -0.0035   0.00    5.8
2022/07/03 00:00:30.000  -2491490.2513  -4660803.2400   3559128.9645   1   8   0.0031   0.0059   0.0043   0.0034  -0.0043  -0.0028   0.00    6.6
2022/07/03 00:00:45.000  -2491490.2507  -4660803.2387   3559128.9635   1   8   0.0027   0.0051   0.0037   0.0029  -0.0037  -0.0025   0.00    7.9
2022/07/03 00:01:00.000  -2491490.2506  -4660803.2378   3559128.9630   1   8   0.0024   0.0046   0.0034   0.0026  -0.0033  -0.0022   0.00    9.0
2022/07/03 00:01:15.000  -2491490.2501  -4660803.2370   3559128.9625   1   8   0.0022   0.0042   0.0031   0.0024  -0.0031  -0.0020   0.00    9.8
2022/07/03 00:01:30.000  -2491490.2494  -4660803.2357   3559128.9616   1   8   0.0020   0.0039   0.0028   0.0022  -0.0028  -0.0019   0.00   10.5
2022/07/03 00:01:45.000  -2491490.2487  -4660803.2343   3559128.9606   1   8   0.0019   0.0036   0.0027   0.0020  -0.0026  -0.0017   0.00   10.5
2022/07/03 00:02:00.000  -2491490.2484  -4660803.2338   3559128.9602   1   8   0.0018   0.0034   0.0025   0.0019  -0.0025  -0.0016   0.00   11.7
2022/07/03 00:02:15.000  -2491490.2480  -4660803.2331   3559128.9591   1   8   0.0017   0.0032   0.0024   0.0018  -0.0024  -0.0016   0.00   12.2
2022/07/03 00:02:30.000  -2491490.2477  -4660803.2327   3559128.9589   1   8   0.0016   0.0031   0.0023   0.0017  -0.0023  -0.0015   0.00   49.6
2022/07/03 00:02:45.000  -2491490.2474  -4660803.2325   3559128.9587   1   8   0.0015   0.0029   0.0022   0.0017  -0.0022  -0.0014   0.00   72.8
2022/07/03 00:03:00.000  -2491490.2471  -4660803.2331   3559128.9588   1   8   0.0015   0.0028   0.0021   0.0016  -0.0021  -0.0014   0.00   96.0
2022/07/03 00:03:15.000  -2491490.2466  -4660803.2333   3559128.9587   1   8   0.0014   0.0027   0.0020   0.0015  -0.0020  -0.0013   0.00  124.4
2022/07/03 00:03:30.000  -2491490.2459  -4660803.2332   3559128.9582   1   8   0.0014   0.0026   0.0019   0.0015  -0.0019  -0.0013   0.00  143.4
2022/07/03 00:03:45.000  -2491490.2453  -4660803.2330   3559128.9580   1   8   0.0013   0.0026   0.0019   0.0014  -0.0019  -0.0012   0.00  168.4
2022/07/03 00:04:00.000  -2491490.2449  -4660803.2330   3559128.9580   1   8   0.0013   0.0025   0.0018   0.0014  -0.0018  -0.0012   0.00  183.8
2022/07/03 00:04:15.000  -2491490.2445  -4660803.2329   3559128.9580   1   8   0.0013   0.0024   0.0018   0.0014  -0.0018  -0.0012   0.00  203.6
2022/07/03 00:04:30.000  -2491490.2442  -4660803.2327   3559128.9581   1   8   0.0012   0.0023   0.0017   0.0013  -0.0017  -0.0011   0.00  221.1
2022/07/03 00:04:45.000  -2491490.2438  -4660803.2323   3559128.9580   1   8   0.0012   0.0023   0.0017   0.0013  -0.0017  -0.0011   0.00  233.6
2022/07/03 00:05:00.000  -2491490.2435  -4660803.2318   3559128.9579   1   8   0.0012   0.0022   0.0017   0.0013  -0.0016  -0.0011   0.00  242.7
2022/07/03 00:05:15.000  -2491490.2433  -4660803.2316   3559128.9580   1   8   0.0011   0.0022   0.0016   0.0012  -0.0016  -0.0011   0.00  257.7
2022/07/03 00:05:30.000  -2491490.2430  -4660803.2314   3559128.9581   1   8   0.0011   0.0021   0.0016   0.0012  -0.0016  -0.0010   0.00  275.1
2022/07/03 00:05:45.000  -2491490.2429  -4660803.2313   3559128.9584   1   8   0.0011   0.0021   0.0016   0.0012  -0.0015  -0.0010   0.00  288.5
2022/07/03 00:06:00.000  -2491490.2428  -4660803.2312   3559128.9588   1   8   0.0011   0.0020   0.0015   0.0012  -0.0015  -0.0010   0.00  297.8
2022/07/03 00:06:15.000  -2491490.2426  -4660803.2311   3559128.9590   1   8   0.0010   0.0020   0.0015   0.0011  -0.0015  -0.0010   0.00  304.1
2022/07/03 00:06:30.000  -2491490.2424  -4660803.2308   3559128.9592   1   8   0.0010   0.0020   0.0015   0.0011  -0.0014  -0.0010   0.00  304.8
2022/07/03 00:06:45.000  -2491490.2424  -4660803.2306   3559128.9593   1   8   0.0010   0.0019   0.0014   0.0011  -0.0014  -0.0009   0.00  303.8
2022/07/03 00:07:00.000  -2491490.2421  -4660803.2302   3559128.9594   1   8   0.0010   0.0019   0.0014   0.0011  -0.0014  -0.0009   0.00  300.2
2022/07/03 00:07:15.000  -2491490.2422  -4660803.2305   3559128.9598   1   8   0.0010   0.0019   0.0014   0.0011  -0.0014  -0.0009   0.00  296.1
2022/07/03 00:07:30.000  -2491490.2422  -4660803.2305   3559128.9601   1   8   0.0010   0.0018   0.0014   0.0010  -0.0014  -0.0009   0.00  291.1
2022/07/03 00:07:45.000  -2491490.2422  -4660803.2306   3559128.9603   1   8   0.0009   0.0018   0.0014   0.0010  -0.0013  -0.0009   0.00  281.9
2022/07/03 00:08:00.000  -2491490.2422  -4660803.2307   3559128.9606   1   8   0.0009   0.0018   0.0013   0.0010  -0.0013  -0.0009   0.00  269.7
2022/07/03 00:08:15.000  -2491490.2422  -4660803.2311   3559128.9611   1   8   0.0009   0.0018   0.0013   0.0010  -0.0013  -0.0009   0.00  266.9
2022/07/03 00:08:30.000  -2491490.2423  -4660803.2317   3559128.9616   1   8   0.0009   0.0017   0.0013   0.0010  -0.0013  -0.0008   0.00  259.5
2022/07/03 00:08:45.000  -2491490.2423  -4660803.2323   3559128.9621   1   8   0.0009   0.0017   0.0013   0.0010  -0.0013  -0.0008   0.00  252.6
2022/07/03 00:09:00.000  -2491490.2422  -4660803.2327   3559128.9624   1   8   0.0009   0.0017   0.0013   0.0009  -0.0012  -0.0008   0.00  252.3
2022/07/03 00:09:15.000  -2491490.2423  -4660803.2331   3559128.9627   1   8   0.0009   0.0017   0.0013   0.0009  -0.0012  -0.0008   0.00  252.4
2022/07/03 00:09:30.000  -2491490.2424  -4660803.2336   3559128.9630   1   8   0.0009   0.0016   0.0012   0.0009  -0.0012  -0.0008   0.00  252.0
2022/07/03 00:09:45.000  -2491490.2423  -4660803.2340   3559128.9633   1   8   0.0009   0.0016   0.0012   0.0009  -0.0012  -0.0008   0.00  250.7
2022/07/03 00:10:00.000  -2491490.2424  -4660803.2346   3559128.9636   1   8   0.0008   0.0016   0.0012   0.0009  -0.0012  -0.0008   0.00  253.4
2022/07/03 00:10:15.000  -2491490.2425  -4660803.2352   3559128.9639   1   8   0.0008   0.0016   0.0012   0.0009  -0.0012  -0.0008   0.00  258.4
2022/07/03 00:10:30.000  -2491490.2424  -4660803.2356   3559128.9641   1   8   0.0008   0.0016   0.0012   0.0009  -0.0012  -0.0008   0.00  268.0
2022/07/03 00:10:45.000  -2491490.2425  -4660803.2360   3559128.9643   1   8   0.0008   0.0016   0.0012   0.0009  -0.0011  -0.0008   0.00  275.7
2022/07/03 00:11:00.000  -2491490.2425  -4660803.2363   3559128.9644   1   8   0.0008   0.0015   0.0012   0.0009  -0.0011  -0.0007   0.00  282.4
2022/07/03 00:11:15.000  -2491490.2425  -4660803.2366   3559128.9645   1   8   0.0008   0.0015   0.0012   0.0009  -0.0011  -0.0007   0.00  292.2
2022/07/03 00:11:30.000  -2491490.2425  -4660803.2368   3559128.9646   1   8   0.0008   0.0015   0.0011   0.0008  -0.0011  -0.0007   0.00  299.8
2022/07/03 00:11:45.000  -2491490.2424  -4660803.2370   3559128.9646   1   8   0.0008   0.0015   0.0011   0.0008  -0.0011  -0.0007   0.00  309.1
2022/07/03 00:12:00.000  -2491490.2424  -4660803.2371   3559128.9646   1   8   0.0008   0.0015   0.0011   0.0008  -0.0011  -0.0007   0.00  312.9
2022/07/03 00:12:15.000  -2491490.2423  -4660803.2374   3559128.9647   1   8   0.0008   0.0015   0.0011   0.0008  -0.0011  -0.0007   0.00  321.0
2022/07/03 00:12:30.000  -2491490.2422  -4660803.2375   3559128.9646   1   8   0.0008   0.0014   0.0011   0.0008  -0.0011  -0.0007   0.00  326.6
2022/07/03 00:12:45.000  -2491490.2422  -4660803.2377   3559128.9646   1   8   0.0008   0.0014   0.0011   0.0008  -0.0011  -0.0007   0.00  339.0
2022/07/03 00:13:00.000  -2491490.2421  -4660803.2377   3559128.9645   1   8   0.0007   0.0014   0.0011   0.0008  -0.0011  -0.0007   0.00  348.6
2022/07/03 00:13:15.000  -2491490.2421  -4660803.2378   3559128.9644   1   8   0.0007   0.0014   0.0011   0.0008  -0.0010  -0.0007   0.00  355.5
2022/07/03 00:13:30.000  -2491490.2420  -4660803.2378   3559128.9642   1   8   0.0007   0.0014   0.0011   0.0008  -0.0010  -0.0007   0.00  361.3
2022/07/03 00:13:45.000  -2491490.2420  -4660803.2379   3559128.9642   1   8   0.0007   0.0014   0.0011   0.0008  -0.0010  -0.0007   0.00  362.1
2022/07/03 00:14:00.000  -2491490.2420  -4660803.2379   3559128.9642   1   8   0.0007   0.0014   0.0011   0.0008  -0.0010  -0.0007   0.00  362.9
2022/07/03 00:14:15.000  -2491490.2419  -4660803.2377   3559128.9641   1   8   0.0007   0.0014   0.0010   0.0008  -0.0010  -0.0007   0.00  366.8
2022/07/03 00:14:30.000  -2491490.2418  -4660803.2378   3559128.9641   1   8   0.0007   0.0013   0.0010   0.0008  -0.0010  -0.0007   0.00  368.3
2022/07/03 00:14:45.000  -2491490.2417  -4660803.2377   3559128.9640   1   8   0.0007   0.0013   0.0010   0.0007  -0.0010  -0.0007   0.00  369.2
2022/07/03 00:15:00.000  -2491490.2416  -4660803.2377   3559128.9640   1   8   0.0007   0.0013   0.0010   0.0007  -0.0010  -0.0007   0.00  372.8
2022/07/03 00:15:15.000  -2491490.2415  -4660803.2376   3559128.9639   1   8   0.0007   0.0013   0.0010   0.0007  -0.0010  -0.0006   0.00  373.5
2022/07/03 00:15:30.000  -2491490.2414  -4660803.2376   3559128.9639   1   8   0.0007   0.0013   0.0010   0.0007  -0.0010  -0.0006   0.00  376.1
2022/07/03 00:15:45.000  -2491490.2413  -4660803.2375   3559128.9638   1   8   0.0007   0.0013   0.0010   0.0007  -0.0010  -0.0006   0.00  380.0
2022/07/03 00:16:00.000  -2491490.2411  -4660803.2375   3559128.9638   1   8   0.0007   0.0013   0.0010   0.0007  -0.0010  -0.0006   0.00  381.5
2022/07/03 00:16:15.000  -2491490.2410  -4660803.2374   3559128.9637   1   8   0.0007   0.0013   0.0010   0.0007  -0.0010  -0.0006   0.00  382.9
2022/07/03 00:16:30.000  -2491490.2408  -4660803.2374   3559128.9636   1   8   0.0007   0.0013   0.0010   0.0007  -0.0009  -0.0006   0.00  390.6
2022/07/03 00:16:45.000  -2491490.2406  -4660803.2373   3559128.9635   1   8   0.0007   0.0013   0.0010   0.0007  -0.0009  -0.0006   0.00  395.7
2022/07/03 00:17:00.000  -2491490.2405  -4660803.2374   3559128.9634   1   8   0.0007   0.0013   0.0010   0.0007  -0.0009  -0.0006   0.00  398.6
2022/07/03 00:17:15.000  -2491490.2402  -4660803.2375   3559128.9633   1   8   0.0007   0.0012   0.0010   0.0007  -0.0009  -0.0006   0.00  400.0
2022/07/03 00:17:30.000  -2491490.2401  -4660803.2376   3559128.9633   1   8   0.0007   0.0012   0.0010   0.0007  -0.0009  -0.0006   0.00  410.7
2022/07/03 00:17:45.000  -2491490.2400  -4660803.2378   3559128.9633   1   8   0.0006   0.0012   0.0010   0.0007  -0.0009  -0.0006   0.00  416.8
2022/07/03 00:18:00.000  -2491490.2399  -4660803.2380   3559128.9633   1   8   0.0006   0.0012   0.0010   0.0007  -0.0009  -0.0006   0.00  423.2
2022/07/03 00:18:15.000  -2491490.2398  -4660803.2381   3559128.9633   1   8   0.0006   0.0012   0.0010   0.0007  -0.0009  -0.0006   0.00  426.6
2022/07/03 00:18:30.000  -2491490.2396  -4660803.2383   3559128.9633   1   8   0.0006   0.0012   0.0009   0.0007  -0.0009  -0.0006   0.00  431.7
2022/07/03 00:18:45.000  -2491490.2395  -4660803.2384   3559128.9633   1   8   0.0006   0.0012   0.0009   0.0007  -0.0009  -0.0006   0.00  433.3
2022/07/03 00:19:00.000  -2491490.2394  -4660803.2383   3559128.9633   1   8   0.0006   0.0012   0.0009   0.0007  -0.0009  -0.0006   0.00  434.9
2022/07/03 00:19:15.000  -2491490.2393  -4660803.2384   3559128.9632   1   8   0.0006   0.0012   0.0009   0.0007  -0.0009  -0.0006   0.00  441.0
2022/07/03 00:19:30.000  -2491490.2392  -4660803.2384   3559128.9633   1   8   0.0006   0.0012   0.0009   0.0007  -0.0009  -0.0006   0.00  451.8
2022/07/03 00:19:45.000  -2491490.2391  -4660803.2383   3559128.9632   1   8   0.0006   0.0012   0.0009   0.0006  -0.0009  -0.0006   0.00  458.6
2022/07/03 00:20:00.000  -2491490.2390  -4660803.2382   3559128.9630   1   8   0.0006   0.0012   0.0009   0.0006  -0.0009  -0.0006   0.00  464.0
2022/07/03 00:20:15.000  -2491490.2390  -4660803.2382   3559128.9629   1   8   0.0006   0.0012   0.0009   0.0006  -0.0009  -0.0006   0.00  474.5
2022/07/03 00:20:30.000  -2491490.2390  -4660803.2382   3559128.9628   1   8   0.0006   0.0011   0.0009   0.0006  -0.0009  -0.0006   0.00  481.1
2022/07/03 00:20:45.000  -2491490.2390  -4660803.2381   3559128.9628   1   8   0.0006   0.0011   0.0009   0.0006  -0.0009  -0.0006   0.00  490.5
2022/07/03 00:21:00.000  -2491490.2390  -4660803.2381   3559128.9627   1   8   0.0006   0.0011   0.0009   0.0006  -0.0008  -0.0006   0.00  493.7
2022/07/03 00:21:15.000  -2491490.2390  -4660803.2381   3559128.9626   1   8   0.0006   0.0011   0.0009   0.0006  -0.0008  -0.0006   0.00  499.5
2022/07/03 00:21:30.000  -2491490.2390  -4660803.2381   3559128.9625   1   8   0.0006   0.0011   0.0009   0.0006  -0.0008  -0.0006   0.00  502.6
2022/07/03 00:21:45.000  -2491490.2391  -4660803.2382   3559128.9625   1   8   0.0006   0.0011   0.0009   0.0006  -0.0008  -0.0006   0.00  503.7
2022/07/03 00:22:00.000  -2491490.2390  -4660803.2383   3559128.9624   1   8   0.0006   0.0011   0.0009   0.0006  -0.0008  -0.0006   0.00  503.1
2022/07/03 00:22:15.000  -2491490.2390  -4660803.2384   3559128.9623   1   8   0.0006   0.0011   0.0009   0.0006  -0.0008  -0.0006   0.00  505.2
2022/07/03 00:22:30.000  -2491490.2390  -4660803.2385   3559128.9622   1   8   0.0006   0.0011   0.0009   0.0006  -0.0008  -0.0005   0.00  509.0
2022/07/03 00:22:45.000  -2491490.2390  -4660803.2386   3559128.9622   1   8   0.0006   0.0011   0.0009   0.0006  -0.0008  -0.0005   0.00  510.2
2022/07/03 00:23:00.000  -2491490.2390  -4660803.2388   3559128.9622   1   8   0.0006   0.0011   0.0009   0.0006  -0.0008  -0.0005   0.00  513.1
2022/07/03 00:23:15.000  -2491490.2390  -4660803.2390   3559128.9621   1   8   0.0006   0.0011   0.0009   0.0006  -0.0008  -0.0005   0.00  518.3
2022/07/03 00:23:30.000  -2491490.2389  -4660803.2392   3559128.9621   1   8   0.0006   0.0011   0.0009   0.0006  -0.0008  -0.0005   0.00  515.5
2022/07/03 00:23:45.000  -2491490.2389  -4660803.2393   3559128.9621   1   8   0.0006   0.0011   0.0009   0.0006  -0.0008  -0.0005   0.00  515.3
2022/07/03 00:24:00.000  -2491490.2389  -4660803.2395   3559128.9621   1   8   0.0006   0.0011   0.0009   0.0006  -0.0008  -0.0005   0.00  515.4
2022/07/03 00:24:15.000  -2491490.2392  -4660803.2401   3559128.9622   2   8   0.0007   0.0012   0.0010   0.0007  -0.0009  -0.0006   0.00    2.3
2022/07/03 00:24:30.000  -2491490.2386  -4660803.2397   3559128.9621   1   8   0.0006   0.0011   0.0009   0.0006  -0.0008  -0.0005   0.00    3.7
2022/07/03 00:24:45.000  -2491490.2385  -4660803.2398   3559128.9621   1   8   0.0006   0.0011   0.0009   0.0006  -0.0008  -0.0005   0.00    5.0
2022/07/03 00:25:00.000  -2491490.2384  -4660803.2398   3559128.9621   1   8   0.0006   0.0010   0.0008   0.0006  -0.0008  -0.0005   0.00    6.3
2022/07/03 00:25:15.000  -2491490.2383  -4660803.2399   3559128.9622   1   8   0.0006   0.0010   0.0008   0.0006  -0.0008  -0.0005   0.00    7.6
2022/07/03 00:25:30.000  -2491490.2381  -4660803.2400   3559128.9622   1   8   0.0006   0.0010   0.0008   0.0006  -0.0008  -0.0005   0.00    8.6
2022/07/03 00:25:45.000  -2491490.2380  -4660803.2401   3559128.9622   1   8   0.0006   0.0010   0.0008   0.0006  -0.0008  -0.0005   0.00    9.6
2022/07/03 00:26:00.000  -2491490.2378  -4660803.2401   3559128.9621   1   8   0.0006   0.0010   0.0008   0.0006  -0.0008  -0.0005   0.00   10.5
2022/07/03 00:26:15.000  -2491490.2376  -4660803.2400   3559128.9621   1   8   0.0006   0.0010   0.0008   0.0006  -0.0008  -0.0005   0.00   11.2
2022/07/03 00:26:30.000  -2491490.2374  -4660803.2400   3559128.9620   1   8   0.0005   0.0010   0.0008   0.0006  -0.0008  -0.0005   0.00   11.8
2022/07/03 00:26:45.000  -2491490.2372  -4660803.2400   3559128.9620   1   8   0.0005   0.0010   0.0008   0.0006  -0.0008  -0.0005   0.00   12.4
2022/07/03 00:27:00.000  -2491490.2370  -4660803.2399   3559128.9620   1   8   0.0005   0.0010   0.0008   0.0006  -0.0008  -0.0005   0.00   19.1
2022/07/03 00:27:15.000  -2491490.2368  -4660803.2399   3559128.9620   1   8   0.0005   0.0010   0.0008   0.0006  -0.0008  -0.0005   0.00   25.7
2022/07/03 00:27:30.000  -2491490.2367  -4660803.2399   3559128.9619   1   8   0.0005   0.0010   0.0008   0.0006  -0.0007  -0.0005   0.00   32.2
2022/07/03 00:27:45.000  -2491490.2365  -4660803.2398   3559128.9619   1   8   0.0005   0.0010   0.0008   0.0006  -0.0007  -0.0005   0.00   38.5
2022/07/03 00:28:00.000  -2491490.2363  -4660803.2398   3559128.9619   1   8   0.0005   0.0010   0.0008   0.0006  -0.0007  -0.0005   0.00   44.7
2022/07/03 00:28:15.000  -2491490.2362  -4660803.2397   3559128.9618   1   8   0.0005   0.0010   0.0008   0.0005  -0.0007  -0.0005   0.00   50.4
2022/07/03 00:28:30.000  -2491490.2360  -4660803.2397   3559128.9618   1   8   0.0005   0.0010   0.0008   0.0005  -0.0007  -0.0005   0.00   55.8
2022/07/03 00:28:45.000  -2491490.2359  -4660803.2396   3559128.9618   1   8   0.0005   0.0010   0.0008   0.0005  -0.0007  -0.0005   0.00   61.3
2022/07/03 00:29:00.000  -2491490.2358  -4660803.2396   3559128.9618   1   8   0.0005   0.0010   0.0008   0.0005  -0.0007  -0.0005   0.00   66.8
2022/07/03 00:29:15.000  -2491490.2357  -4660803.2395   3559128.9617   1   8   0.0005   0.0010   0.0008   0.0005  -0.0007  -0.0005   0.00   72.0
2022/07/03 00:29:30.000  -2491490.2355  -4660803.2394   3559128.9617   1   8   0.0005   0.0010   0.0008   0.0005  -0.0007  -0.0005   0.00   76.7
2022/07/03 00:29:45.000  -2491490.2354  -4660803.2394   3559128.9616   1   8   0.0005   0.0010   0.0008   0.0005  -0.0007  -0.0005   0.00   80.9
2022/07/03 00:30:00.000  -2491490.2353  -4660803.2394   3559128.9616   1   8   0.0005   0.0010   0.0008   0.0005  -0.0007  -0.0005   0.00   85.2
2022/07/03 00:30:15.000  -2491490.2353  -4660803.2394   3559128.9616   1   8   0.0005   0.0010   0.0008   0.0005  -0.0007  -0.0005   0.00   89.0
2022/07/03 00:30:30.000  -2491490.2358  -4660803.2396   3559128.9611   2   9   0.0006   0.0010   0.0009   0.0006  -0.0008  -0.0006   0.00    1.0
2022/07/03 00:30:45.000  -2491490.2351  -4660803.2392   3559128.9615   1   8   0.0005   0.0009   0.0008   0.0005  -0.0007  -0.0005   0.00   90.3
2022/07/03 00:31:00.000  -2491490.2350  -4660803.2392   3559128.9615   1   8   0.0005   0.0009   0.0008   0.0005  -0.0007  -0.0005   0.00   88.5
2022/07/03 00:31:15.000  -2491490.2349  -4660803.2392   3559128.9615   1   8   0.0005   0.0009   0.0008   0.0005  -0.0007  -0.0005   0.00   86.6
2022/07/03 00:31:30.000  -2491490.2349  -4660803.2392   3559128.9614   1   8   0.0005   0.0009   0.0008   0.0005  -0.0007  -0.0005   0.00   84.6
2022/07/03 00:31:45.000  -2491490.2355  -4660803.2394   3559128.9610   2   9   0.0006   0.0010   0.0009   0.0006  -0.0008  -0.0005   0.00    1.8
2022/07/03 00:32:00.000  -2491490.2355  -4660803.2394   3559128.9610   2   9   0.0006   0.0010   0.0009   0.0006  -0.0008  -0.0005   0.00    2.5
2022/07/03 00:32:15.000  -2491490.2354  -4660803.2394   3559128.9609   2   9   0.0006   0.0010   0.0009   0.0006  -0.0008  -0.0005   0.00    1.2
2022/07/03 00:32:30.000  -2491490.2353  -4660803.2393   3559128.9609   2   9   0.0006   0.0010   0.0009   0.0006  -0.0008  -0.0005   0.00    2.4
2022/07/03 00:32:45.000  -2491490.2345  -4660803.2390   3559128.9612   1   9   0.0005   0.0009   0.0008   0.0005  -0.0007  -0.0005   0.00    4.3
2022/07/03 00:33:00.000  -2491490.2343  -4660803.2385   3559128.9610   1   9   0.0005   0.0009   0.0008   0.0005  -0.0007  -0.0005   0.00    3.9
2022/07/03 00:33:15.000  -2491490.2350  -4660803.2392   3559128.9608   2   9   0.0006   0.0010   0.0009   0.0006  -0.0008  -0.0005   0.00    3.0
2022/07/03 00:33:30.000  -2491490.2349  -4660803.2392   3559128.9608   2   9   0.0006   0.0010   0.0009   0.0006  -0.0008  -0.0005   0.00    2.2
2022/07/03 00:33:45.000  -2491490.2348  -4660803.2392   3559128.9608   2   9   0.0006   0.0010   0.0009   0.0006  -0.0008  -0.0005   0.00    1.7
2022/07/03 00:34:00.000  -2491490.2347  -4660803.2392   3559128.9608   2   9   0.0006   0.0010   0.0009   0.0006  -0.0008  -0.0005   0.00    1.3
2022/07/03 00:34:15.000  -2491490.2347  -4660803.2392   3559128.9608   2   9   0.0006   0.0010   0.0009   0.0006  -0.0008  -0.0005   0.00    1.0
2022/07/03 00:34:30.000  -2491490.2346  -4660803.2393   3559128.9608   2   9   0.0006   0.0010   0.0009   0.0006  -0.0008  -0.0005   0.00    1.2
2022/07/03 00:34:45.000  -2491490.2345  -4660803.2393   3559128.9607   2   9   0.0006   0.0010   0.0009   0.0006  -0.0008  -0.0005   0.00    1.4
2022/07/03 00:35:00.000  -2491490.2344  -4660803.2393   3559128.9607   2   9   0.0006   0.0010   0.0009   0.0006  -0.0008  -0.0005   0.00    1.7
2022/07/03 00:35:15.000  -2491490.2343  -4660803.2393   3559128.9608   2   9   0.0006   0.0010   0.0009   0.0006  -0.0008  -0.0005   0.00    2.0
2022/07/03 00:35:30.000  -2491490.2342  -4660803.2393   3559128.9608   2   9   0.0006   0.0010   0.0009   0.0006  -0.0008  -0.0005   0.00    2.3
2022/07/03 00:35:45.000  -2491490.2341  -4660803.2394   3559128.9607   2   9   0.0006   0.0010   0.0009   0.0006  -0.0008  -0.0005   0.00    2.6
2022/07/03 00:36:00.000  -2491490.2340  -4660803.2394   3559128.9607   2   9   0.0006   0.0010   0.0009   0.0006  -0.0008  -0.0005   0.00    3.0
2022/07/03 00:36:15.000  -2491490.2333  -4660803.2415   3559128.9620   1   9   0.0005   0.0008   0.0007   0.0005  -0.0006  -0.0004   0.00    3.3
2022/07/03 00:36:30.000  -2491490.2331  -4660803.2414   3559128.9619   1   9   0.0005   0.0008   0.0007   0.0005  -0.0006  -0.0004   0.00    3.6
2022/07/03 00:36:45.000  -2491490.2330  -4660803.2412   3559128.9618   1   9   0.0005   0.0008   0.0007   0.0005  -0.0006  -0.0004   0.00    4.0
2022/07/03 00:37:00.000  -2491490.2328  -4660803.2411   3559128.9617   1   9   0.0005   0.0008   0.0007   0.0005  -0.0006  -0.0004   0.00    4.3
2022/07/03 00:37:15.000  -2491490.2327  -4660803.2411   3559128.9617   1   9   0.0005   0.0008   0.0007   0.0005  -0.0006  -0.0004   0.00    4.6
2022/07/03 00:37:30.000  -2491490.2326  -4660803.2411   3559128.9617   1   9   0.0005   0.0008   0.0007   0.0005  -0.0006  -0.0004   0.00    4.9
2022/07/03 00:37:45.000  -2491490.2325  -4660803.2411   3559128.9617   1   9   0.0005   0.0008   0.0007   0.0005  -0.0006  -0.0004   0.00    5.2
2022/07/03 00:38:00.000  -2491490.2324  -4660803.2411   3559128.9618   1   9   0.0005   0.0008   0.0007   0.0005  -0.0006  -0.0004   0.00    5.5
2022/07/03 00:38:15.000  -2491490.2323  -4660803.2411   3559128.9618   1   9   0.0005   0.0008   0.0007   0.0005  -0.0006  -0.0004   0.00    5.8
2022/07/03 00:38:30.000  -2491490.2323  -4660803.2412   3559128.9618   1   9   0.0005   0.0008   0.0007   0.0005  -0.0006  -0.0004   0.00    6.1
2022/07/03 00:38:45.000  -2491490.2322  -4660803.2412   3559128.9619   1   9   0.0005   0.0008   0.0007   0.0005  -0.0006  -0.0004   0.00    8.6
2022/07/03 00:39:00.000  -2491490.2321  -4660803.2413   3559128.9620   1   9   0.0005   0.0008   0.0007   0.0004  -0.0006  -0.0004   0.00   11.1
2022/07/03 00:39:15.000  -2491490.2320  -4660803.2413   3559128.9620   1   9   0.0005   0.0008   0.0007   0.0004  -0.0006  -0.0004   0.00   13.7
2022/07/03 00:39:30.000  -2491490.2320  -4660803.2414   3559128.9621   1   9   0.0005   0.0008   0.0007   0.0004  -0.0006  -0.0004   0.00   16.3
2022/07/03 00:39:45.000  -2491490.2319  -4660803.2414   3559128.9621   1   9   0.0005   0.0008   0.0007   0.0004  -0.0006  -0.0004   0.00   18.9
2022/07/03 00:40:00.000  -2491490.2318  -4660803.2414   3559128.9621   1   9   0.0005   0.0008   0.0007   0.0004  -0.0006  -0.0004   0.00   21.4
2022/07/03 00:40:15.000  -2491490.2318  -4660803.2414   3559128.9621   1   9   0.0005   0.0008   0.0007   0.0004  -0.0006  -0.0004   0.00   24.1
2022/07/03 00:40:30.000  -2491490.2317  -4660803.2415   3559128.9621   1   9   0.0004   0.0008   0.0007   0.0004  -0.0006  -0.0004   0.00   26.6
2022/07/03 00:40:45.000  -2491490.2317  -4660803.2416   3559128.9621   1   9   0.0004   0.0008   0.0007   0.0004  -0.0006  -0.0004   0.00   29.2
2022/07/03 00:41:00.000  -2491490.2317  -4660803.2417   3559128.9621   1   9   0.0004   0.0008   0.0007   0.0004  -0.0006  -0.0004   0.00   31.9
2022/07/03 00:41:15.000  -2491490.2316  -4660803.2418   3559128.9621   1   9   0.0004   0.0008   0.0007   0.0004  -0.0006  -0.0004   0.00   34.4
2022/07/03 00:41:30.000  -2491490.2161  -4660803.2036   3559128.9306   2   9   0.0005   0.0009   0.0008   0.0005  -0.0007  -0.0005   0.00    1.6
2022/07/03 00:41:45.000  -2491490.2161  -4660803.2037   3559128.9306   2   9   0.0005   0.0009   0.0008   0.0005  -0.0007  -0.0005   0.00    1.4
2022/07/03 00:42:00.000  -2491490.2160  -4660803.2039   3559128.9307   2   9   0.0005   0.0009   0.0008   0.0005  -0.0007  -0.0005   0.00    1.8
2022/07/03 00:42:15.000  -2491490.2160  -4660803.2040   3559128.9307   2   9   0.0005   0.0009   0.0008   0.0005  -0.0007  -0.0005   0.00    2.1
2022/07/03 00:42:30.000  -2491490.2159  -4660803.2041   3559128.9307   2   9   0.0005   0.0009   0.0008   0.0005  -0.0007  -0.0005   0.00    2.5
2022/07/03 00:42:45.000  -2491490.2159  -4660803.2042   3559128.9307   2   9   0.0005   0.0009   0.0008   0.0005  -0.0007  -0.0005   0.00    2.8
2022/07/03 00:43:00.000  -2491490.2191  -4660803.2128   3559128.9405   1   9   0.0005   0.0008   0.0007   0.0005  -0.0006  -0.0004   0.00    3.1
2022/07/03 00:43:15.000  -2491490.2192  -4660803.2132   3559128.9407   1   9   0.0005   0.0008   0.0007   0.0005  -0.0006  -0.0004   0.00    3.4
2022/07/03 00:43:30.000  -2491490.2192  -4660803.2137   3559128.9409   1   9   0.0005   0.0008   0.0007   0.0005  -0.0006  -0.0004   0.00    3.7
2022/07/03 00:43:45.000  -2491490.2193  -4660803.2141   3559128.9411   1   9   0.0005   0.0008   0.0007   0.0005  -0.0006  -0.0004   0.00    3.9
2022/07/03 00:44:00.000  -2491490.2194  -4660803.2145   3559128.9413   1   9   0.0005   0.0008   0.0007   0.0005  -0.0006  -0.0004   0.00    4.2
2022/07/03 00:44:15.000  -2491490.2195  -4660803.2150   3559128.9415   1   9   0.0004   0.0008   0.0007   0.0004  -0.0006  -0.0004   0.00    4.4
2022/07/03 00:44:30.000  -2491490.2196  -4660803.2153   3559128.9416   1   9   0.0004   0.0008   0.0007   0.0004  -0.0006  -0.0004   0.00    4.6
2022/07/03 00:44:45.000  -2491490.2197  -4660803.2157   3559128.9418   1   9   0.0004   0.0008   0.0007   0.0004  -0.0006  -0.0004   0.00    4.8
2022/07/03 00:45:00.000  -2491490.2197  -4660803.2160   3559128.9420   1   9   0.0004   0.0008   0.0007   0.0004  -0.0006  -0.0004   0.00    5.0
2022/07/03 00:45:15.000  -2491490.2198  -4660803.2164   3559128.9422   1   9   0.0004   0.0008   0.0007   0.0004  -0.0006  -0.0004   0.00    5.3
2022/07/03 00:45:30.000  -2491490.2199  -4660803.2168   3559128.9425   1   9   0.0004   0.0008   0.0007   0.0004  -0.0006  -0.0004   0.00    6.3
2022/07/03 00:45:45.000  -2491490.2200  -4660803.2171   3559128.9426   1   9   0.0004   0.0007   0.0007   0.0004  -0.0006  -0.0004   0.00    7.4
2022/07/03 00:46:00.000  -2491490.2201  -4660803.2174   3559128.9428   1   9   0.0004   0.0007   0.0007   0.0004  -0.0006  -0.0004   0.00    8.6
2022/07/03 00:46:15.000  -2491490.2202  -4660803.2177   3559128.9429   1   9   0.0004   0.0007   0.0007   0.0004  -0.0006  -0.0004   0.00    9.8
2022/07/03 00:46:30.000  -2491490.2202  -4660803.2179   3559128.9430   1   9   0.0004   0.0007   0.0007   0.0004  -0.0006  -0.0004   0.00   11.1
2022/07/03 00:46:45.000  -2491490.2203  -4660803.2182   3559128.9432   1   9   0.0004   0.0007   0.0007   0.0004  -0.0006  -0.0004   0.00   12.4
2022/07/03 00:47:00.000  -2491490.2203  -4660803.2184   3559128.9433   1   9   0.0004   0.0007   0.0007   0.0004  -0.0006  -0.0004   0.00   13.6
2022/07/03 00:47:15.000  -2491490.2204  -4660803.2186   3559128.9434   1   9   0.0004   0.0007   0.0007   0.0004  -0.0006  -0.0004   0.00   15.0
2022/07/03 00:47:30.000  -2491490.2204  -4660803.2189   3559128.9435   1   9   0.0004   0.0007   0.0007   0.0004  -0.0006  -0.0004   0.00   16.3
2022/07/03 00:47:45.000  -2491490.2205  -4660803.2191   3559128.9436   1   9   0.0004   0.0007   0.0007   0.0004  -0.0006  -0.0004   0.00   17.7
2022/07/03 00:48:00.000  -2491490.2205  -4660803.2193   3559128.9437   1   9   0.0004   0.0007   0.0007   0.0004  -0.0006  -0.0004   0.00   19.1
2022/07/03 00:48:15.000  -2491490.2205  -4660803.2195   3559128.9438   1   9   0.0004   0.0007   0.0007   0.0004  -0.0005  -0.0004   0.00   20.5
2022/07/03 00:48:30.000  -2491490.2206  -4660803.2198   3559128.9440   1   9   0.0004   0.0007   0.0007   0.0004  -0.0005  -0.0004   0.00   21.8
2022/07/03 00:48:45.000  -2491490.2206  -4660803.2200   3559128.9441   1   9   0.0004   0.0007   0.0007   0.0004  -0.0005  -0.0004   0.00   23.3
2022/07/03 00:49:00.000  -2491490.2207  -4660803.2203   3559128.9442   1   9   0.0004   0.0007   0.0007   0.0004  -0.0005  -0.0004   0.00   24.7
2022/07/03 00:49:15.000  -2491490.2208  -4660803.2205   3559128.9444   1   9   0.0004   0.0007   0.0007   0.0004  -0.0005  -0.0004   0.00   26.0
2022/07/03 00:49:30.000  -2491490.2209  -4660803.2208   3559128.9445   1   9   0.0004   0.0007   0.0007   0.0004  -0.0005  -0.0004   0.00   27.4
2022/07/03 00:49:45.000  -2491490.2209  -4660803.2211   3559128.9447   1   9   0.0004   0.0007   0.0007   0.0004  -0.0005  -0.0004   0.00   28.8
2022/07/03 00:50:00.000  -2491490.2210  -4660803.2214   3559128.9449   1   9   0.0004   0.0007   0.0007   0.0004  -0.0005  -0.0004   0.00   30.0
2022/07/03 00:50:15.000  -2491490.2211  -4660803.2217   3559128.9451   1   9   0.0004   0.0007   0.0006   0.0004  -0.0005  -0.0004   0.00   31.3
2022/07/03 00:50:30.000  -2491490.2205  -4660803.2215   3559128.9440   1   8   0.0004   0.0007   0.0007   0.0004  -0.0005  -0.0004   0.00   39.0
2022/07/03 00:50:45.000  -2491490.2206  -4660803.2218   3559128.9441   1   8   0.0004   0.0007   0.0007   0.0004  -0.0005  -0.0004   0.00   40.5
2022/07/03 00:51:00.000  -2491490.2207  -4660803.2221   3559128.9443   1   8   0.0004   0.0007   0.0007   0.0004  -0.0005  -0.0004   0.00   42.1
2022/07/03 00:51:15.000  -2491490.2208  -4660803.2224   3559128.9445   1   8   0.0004   0.0007   0.0007   0.0004  -0.0005  -0.0004   0.00   43.4
2022/07/03 00:51:30.000  -2491490.2212  -4660803.2228   3559128.9448   1   7   0.0004   0.0007   0.0007   0.0004  -0.0005  -0.0004   0.00   46.4
2022/07/03 00:51:45.000  -2491490.2212  -4660803.2231   3559128.9449   1   7   0.0004   0.0007   0.0007   0.0004  -0.0005  -0.0004   0.00   48.1
2022/07/03 00:52:00.000  -2491490.2213  -4660803.2232   3559128.9450   1   7   0.0004   0.0007   0.0007   0.0004  -0.0005  -0.0004   0.00   49.9
2022/07/03 00:52:15.000  -2491490.2213  -4660803.2234   3559128.9451   1   7   0.0004   0.0007   0.0007   0.0004  -0.0005  -0.0004   0.00   51.5
2022/07/03 00:52:30.000  -2491490.2214  -4660803.2236   3559128.9452   1   7   0.0004   0.0007   0.0007   0.0004  -0.0005  -0.0004   0.00   53.3
2022/07/03 00:52:45.000  -2491490.2215  -4660803.2239   3559128.9453   1   7   0.0004   0.0007   0.0007   0.0004  -0.0005  -0.0004   0.00   55.1
2022/07/03 00:53:00.000  -2491490.2216  -4660803.2241   3559128.9454   1   7   0.0004   0.0007   0.0007   0.0004  -0.0005  -0.0004   0.00   56.5
2022/07/03 00:53:15.000  -2491490.2217  -4660803.2244   3559128.9455   1   7   0.0004   0.0007   0.0007   0.0004  -0.0005  -0.0004   0.00   58.3
2022/07/03 00:53:30.000  -2491490.2218  -4660803.2247   3559128.9457   1   7   0.0004   0.0007   0.0007   0.0004  -0.0005  -0.0004   0.00   59.9
2022/07/03 00:53:45.000  -2491490.2219  -4660803.2249   3559128.9458   1   7   0.0004   0.0007   0.0007   0.0004  -0.0005  -0.0004   0.00   61.6
2022/07/03 00:54:00.000  -2491490.2220  -4660803.2252   3559128.9460   1   7   0.0004   0.0007   0.0007   0.0004  -0.0005  -0.0004   0.00   63.0
2022/07/03 00:54:15.000  -2491490.2221  -4660803.2255   3559128.9461   1   7   0.0004   0.0007   0.0007   0.0004  -0.0005  -0.0004   0.00   64.1
2022/07/03 00:54:30.000  -2491490.2222  -4660803.2258   3559128.9463   1   7   0.0004   0.0007   0.0007   0.0004  -0.0005  -0.0004   0.00   65.3
2022/07/03 00:54:45.000  -2491490.2223  -4660803.2261   3559128.9465   1   7   0.0004   0.0007   0.0007   0.0004  -0.0005  -0.0004   0.00   66.4
2022/07/03 00:55:00.000  -2491490.2224  -4660803.2264   3559128.9466   1   7   0.0004   0.0007   0.0007   0.0004  -0.0005  -0.0004   0.00   67.5
2022/07/03 00:55:15.000  -2491490.2225  -4660803.2267   3559128.9468   1   7   0.0004   0.0007   0.0007   0.0004  -0.0005  -0.0004   0.00   68.5
2022/07/03 00:55:30.000  -2491490.2226  -4660803.2270   3559128.9469   1   7   0.0004   0.0007   0.0007   0.0004  -0.0005  -0.0004   0.00   69.7
2022/07/03 00:55:45.000  -2491490.2227  -4660803.2272   3559128.9471   1   7   0.0004   0.0007   0.0007   0.0004  -0.0005  -0.0004   0.00   70.6
2022/07/03 00:56:00.000  -2491490.2228  -4660803.2275   3559128.9473   1   7   0.0004   0.0007   0.0007   0.0004  -0.0005  -0.0004   0.00   71.5
2022/07/03 00:56:15.000  -2491490.2229  -4660803.2278   3559128.9474   1   7   0.0004   0.0007   0.0006   0.0004  -0.0005  -0.0004   0.00   72.5
2022/07/03 00:56:30.000  -2491490.2230  -4660803.2280   3559128.9476   1   7   0.0004   0.0007   0.0006   0.0004  -0.0005  -0.0004   0.00   73.6
2022/07/03 00:56:45.000  -2491490.2231  -4660803.2282   3559128.9477   1   7   0.0004   0.0007   0.0006   0.0004  -0.0005  -0.0004   0.00   74.7
2022/07/03 00:57:00.000  -2491490.2232  -4660803.2284   3559128.9479   1   7   0.0004   0.0006   0.0006   0.0004  -0.0005  -0.0004   0.00   75.6
2022/07/03 00:57:15.000  -2491490.2233  -4660803.2286   3559128.9480   1   7   0.0004   0.0006   0.0006   0.0004  -0.0005  -0.0004   0.00   76.7
2022/07/03 00:57:30.000  -2491490.2234  -4660803.2289   3559128.9481   1   7   0.0004   0.0006   0.0006   0.0004  -0.0005  -0.0004   0.00   77.8
2022/07/03 00:57:45.000  -2491490.2234  -4660803.2290   3559128.9482   1   7   0.0004   0.0006   0.0006   0.0004  -0.0005  -0.0004   0.00   79.2
2022/07/03 00:58:00.000  -2491490.2235  -4660803.2292   3559128.9483   1   7   0.0004   0.0006   0.0006   0.0004  -0.0005  -0.0004   0.00   80.4
2022/07/03 00:58:15.000  -2491490.2236  -4660803.2294   3559128.9485   1   7   0.0004   0.0006   0.0006   0.0004  -0.0005  -0.0004   0.00   81.8
2022/07/03 00:58:30.000  -2491490.2236  -4660803.2296   3559128.9486   1   7   0.0004   0.0006   0.0006   0.0004  -0.0005  -0.0004   0.00   82.9
2022/07/03 00:58:45.000  -2491490.2237  -4660803.2298   3559128.9487   1   7   0.0004   0.0006   0.0006   0.0004  -0.0005  -0.0004   0.00   84.3
2022/07/03 00:59:00.000  -2491490.2237  -4660803.2299   3559128.9487   1   7   0.0004   0.0006   0.0006   0.0004  -0.0005  -0.0004   0.00   85.7
2022/07/03 00:59:15.000  -2491490.2238  -4660803.2300   3559128.9488   1   7   0.0004   0.0006   0.0006   0.0004  -0.0005  -0.0004   0.00   87.1
2022/07/03 00:59:30.000  -2491490.2238  -4660803.2302   3559128.9489   1   7   0.0004   0.0006   0.0006   0.0004  -0.0005  -0.0004   0.00   88.3
2022/07/03 00:59:45.000  -2491490.2238  -4660803.2303   3559128.9489   1   7   0.0004   0.0006   0.0006   0.0004  -0.0005  -0.0004   0.00   89.9
2022/07/03 01:00:00.000  -2491490.2239  -4660803.2304   3559128.9490   1   7   0.0004   0.0006   0.0006   0.0004  -0.0005  -0.0004   0.00   91.5
2022/07/03 01:00:15.000  -2491490.2239  -4660803.2305   3559128.9491   1   7   0.0004   0.0006   0.0006   0.0004  -0.0005  -0.0004   0.00   93.2
2022/07/03 01:00:30.000  -2491490.2239  -4660803.2306   3559128.9491   1   7   0.0004   0.0006   0.0006   0.0004  -0.0005  -0.0004   0.00   94.9
2022/07/03 01:00:45.000  -2491490.2240  -4660803.2307   3559128.9492   1   7   0.0004   0.0006   0.0006   0.0004  -0.0005  -0.0004   0.00   96.4
2022/07/03 01:01:00.000  -2491490.2240  -4660803.2309   3559128.9493   1   7   0.0004   0.0006   0.0006   0.0004  -0.0005  -0.0004   0.00   97.7
2022/07/03 01:01:15.000  -2491490.2241  -4660803.2310   3559128.9494   1   7   0.0004   0.0006   0.0006   0.0004  -0.0005  -0.0004   0.00   98.9
2022/07/03 01:01:30.000  -2491490.2242  -4660803.2312   3559128.9494   1   7   0.0004   0.0006   0.0006   0.0004  -0.0005  -0.0004   0.00   99.7
2022/07/03 01:01:45.000  -2491490.2243  -4660803.2313   3559128.9496   1   7   0.0004   0.0006   0.0006   0.0004  -0.0005  -0.0004   0.00  100.2
2022/07/03 01:02:00.000  -2491490.2243  -4660803.2315   3559128.9497   1   7   0.0004   0.0006   0.0006   0.0004  -0.0005  -0.0004   0.00  100.9
2022/07/03 01:02:15.000  -2491490.2244  -4660803.2316   3559128.9498   1   7   0.0004   0.0006   0.0006   0.0004  -0.0005  -0.0004   0.00  101.6
2022/07/03 01:02:30.000  -2491490.2245  -4660803.2318   3559128.9500   1   7   0.0004   0.0006   0.0006   0.0004  -0.0005  -0.0004   0.00  102.5
2022/07/03 01:02:45.000  -2491490.2245  -4660803.2319   3559128.9501   1   7   0.0004   0.0006   0.0006   0.0004  -0.0005  -0.0004   0.00  103.7
2022/07/03 01:03:00.000  -2491490.2246  -4660803.2320   3559128.9502   1   7   0.0004   0.0006   0.0006   0.0004  -0.0005  -0.0004   0.00  104.7
2022/07/03 01:03:15.000  -2491490.2247  -4660803.2321   3559128.9503   1   7   0.0004   0.0006   0.0006   0.0004  -0.0005  -0.0004   0.00  105.3
2022/07/03 01:03:30.000  -2491490.2248  -4660803.2322   3559128.9504   1   7   0.0004   0.0006   0.0006   0.0004  -0.0005  -0.0004   0.00  106.5
2022/07/03 01:03:45.000  -2491490.2249  -4660803.2324   3559128.9506   1   7   0.0004   0.0006   0.0006   0.0004  -0.0005  -0.0004   0.00  107.5
2022/07/03 01:04:00.000  -2491490.2249  -4660803.2325   3559128.9507   1   7   0.0004   0.0006   0.0006   0.0004  -0.0005  -0.0004   0.00  108.7
2022/07/03 01:04:15.000  -2491490.2250  -4660803.2326   3559128.9508   1   7   0.0004   0.0006   0.0006   0.0004  -0.0005  -0.0004   0.00  109.3
2022/07/03 01:04:30.000  -2491490.2251  -4660803.2328   3559128.9509   1   7   0.0004   0.0006   0.0006   0.0004  -0.0005  -0.0004   0.00  110.2
2022/07/03 01:04:45.000  -2491490.2252  -4660803.2329   3559128.9510   1   7   0.0004   0.0006   0.0006   0.0004  -0.0005  -0.0004   0.00  111.0
2022/07/03 01:05:00.000  -2491490.2252  -4660803.2331   3559128.9512   1   7   0.0004   0.0006   0.0006   0.0004  -0.0005  -0.0004   0.00  111.5
2022/07/03 01:05:15.000  -2491490.2253  -4660803.2332   3559128.9513   1   7   0.0004   0.0006   0.0006   0.0004  -0.0005  -0.0004   0.00  112.1
2022/07/03 01:05:30.000  -2491490.2254  -4660803.2334   3559128.9515   1   7   0.0004   0.0006   0.0006   0.0004  -0.0005  -0.0004   0.00  112.9
2022/07/03 01:05:45.000  -2491490.2255  -4660803.2335   3559128.9516   1   7   0.0004   0.0006   0.0006   0.0004  -0.0005  -0.0004   0.00  113.5
2022/07/03 01:06:00.000  -2491490.2255  -4660803.2336   3559128.9517   1   7   0.0004   0.0006   0.0006   0.0004  -0.0005  -0.0004   0.00  114.2
2022/07/03 01:06:15.000  -2491490.2256  -4660803.2337   3559128.9518   1   7   0.0004   0.0006   0.0006   0.0004  -0.0005  -0.0004   0.00  114.9
2022/07/03 01:06:30.000  -2491490.2256  -4660803.2338   3559128.9519   1   7   0.0004   0.0006   0.0006   0.0004  -0.0005  -0.0004   0.00  115.7
2022/07/03 01:06:45.000  -2491490.2257  -4660803.2339   3559128.9520   1   7   0.0004   0.0006   0.0006   0.0004  -0.0005  -0.0004   0.00  116.4
2022/07/03 01:07:00.000  -2491490.2258  -4660803.2340   3559128.9521   1   7   0.0004   0.0006   0.0006   0.0004  -0.0005  -0.0004   0.00  117.0
2022/07/03 01:07:15.000  -2491490.2258  -4660803.2341   3559128.9522   1   7   0.0004   0.0006   0.0006   0.0004  -0.0005  -0.0004   0.00  118.1
2022/07/03 01:07:30.000  -2491490.2259  -4660803.2342   3559128.9524   1   7   0.0004   0.0006   0.0006   0.0004  -0.0005  -0.0004   0.00  118.9
2022/07/03 01:07:45.000  -2491490.2260  -4660803.2343   3559128.9525   1   7   0.0004   0.0006   0.0006   0.0004  -0.0005  -0.0004   0.00  119.8
2022/07/03 01:08:00.000  -2491490.2260  -4660803.2343   3559128.9526   1   7   0.0004   0.0006   0.0006   0.0004  -0.0005  -0.0004   0.00  120.7
2022/07/03 01:08:15.000  -2491490.2261  -4660803.2344   3559128.9527   1   7   0.0004   0.0006   0.0006   0.0004  -0.0005  -0.0004   0.00  121.8
2022/07/03 01:08:30.000  -2491490.2262  -4660803.2345   3559128.9528   1   7   0.0004   0.0006   0.0006   0.0004  -0.0005  -0.0004   0.00  122.8
2022/07/03 01:08:45.000  -2491490.2262  -4660803.2345   3559128.9529   1   7   0.0004   0.0006   0.0006   0.0004  -0.0005  -0.0004   0.00  123.6
2022/07/03 01:09:00.000  -2491490.2263  -4660803.2346   3559128.9530   1   7   0.0004   0.0006   0.0006   0.0004  -0.0005  -0.0004   0.00  124.6
2022/07/03 01:09:15.000  -2491490.2263  -4660803.2347   3559128.9531   1   7   0.0004   0.0006   0.0006   0.0004  -0.0005  -0.0004   0.00  125.7
2022/07/03 01:09:30.000  -2491490.2264  -4660803.2347   3559128.9532   1   7   0.0004   0.0006   0.0006   0.0004  -0.0005  -0.0004   0.00  126.6
2022/07/03 01:09:45.000  -2491490.2264  -4660803.2348   3559128.9532   1   7   0.0004   0.0006   0.0006   0.0004  -0.0004  -0.0004   0.00  127.6
2022/07/03 01:10:00.000  -2491490.2265  -4660803.2349   3559128.9533   1   7   0.0004   0.0006   0.0006   0.0004  -0.0004  -0.0004   0.00  128.3
2022/07/03 01:10:15.000  -2491490.2265  -4660803.2350   3559128.9534   1   7   0.0004   0.0006   0.0006   0.0004  -0.0004  -0.0004   0.00  129.0
2022/07/03 01:10:30.000  -2491490.2266  -4660803.2352   3559128.9535   1   7   0.0004   0.0006   0.0006   0.0004  -0.0004  -0.0004   0.00  129.8
2022/07/03 01:10:45.000  -2491490.2267  -4660803.2353   3559128.9536   1   7   0.0004   0.0006   0.0006   0.0004  -0.0004  -0.0004   0.00  130.5
2022/07/03 01:11:00.000  -2491490.2267  -4660803.2354   3559128.9537   1   7   0.0004   0.0006   0.0006   0.0004  -0.0004  -0.0004   0.00  131.9
2022/07/03 01:11:15.000  -2491490.2268  -4660803.2355   3559128.9538   1   7   0.0004   0.0006   0.0006   0.0004  -0.0004  -0.0004   0.00  133.6
2022/07/03 01:11:30.000  -2491490.2268  -4660803.2356   3559128.9538   1   7   0.0004   0.0006   0.0006   0.0004  -0.0004  -0.0004   0.00  135.3
2022/07/03 01:11:45.000  -2491490.2268  -4660803.2356   3559128.9538   1   7   0.0004   0.0006   0.0006   0.0004  -0.0004  -0.0004   0.00  136.7
2022/07/03 01:12:00.000  -2491490.2269  -4660803.2357   3559128.9539   1   7   0.0004   0.0006   0.0006   0.0004  -0.0004  -0.0004   0.00  138.1
2022/07/03 01:12:15.000  -2491490.2269  -4660803.2358   3559128.9539   1   7   0.0004   0.0006   0.0006   0.0004  -0.0004  -0.0004   0.00  139.2
2022/07/03 01:12:30.000  -2491490.2269  -4660803.2359   3559128.9540   1   7   0.0004   0.0006   0.0006   0.0004  -0.0004  -0.0004   0.00  140.1
2022/07/03 01:12:45.000  -2491490.2270  -4660803.2359   3559128.9540   1   7   0.0004   0.0006   0.0006   0.0004  -0.0004  -0.0004   0.00  141.4
2022/07/03 01:13:00.000  -2491490.2270  -4660803.2360   3559128.9540   1   7   0.0004   0.0006   0.0006   0.0004  -0.0004  -0.0004   0.00  142.7
2022/07/03 01:13:15.000  -2491490.2270  -4660803.2360   3559128.9541   1   7   0.0004   0.0006   0.0006   0.0004  -0.0004  -0.0004   0.00  144.1
2022/07/03 01:13:30.000  -2491490.2270  -4660803.2361   3559128.9541   1   7   0.0004   0.0006   0.0006   0.0004  -0.0004  -0.0004   0.00  145.5
2022/07/03 01:13:45.000  -2491490.2270  -4660803.2361   3559128.9541   1   7   0.0004   0.0006   0.0006   0.0003  -0.0004  -0.0004   0.00  147.3
2022/07/03 01:14:00.000  -2491490.2271  -4660803.2361   3559128.9541   1   7   0.0004   0.0006   0.0006   0.0003  -0.0004  -0.0004   0.00  149.3
2022/07/03 01:14:15.000  -2491490.2271  -4660803.2362   3559128.9541   1   7   0.0004   0.0006   0.0006   0.0003  -0.0004  -0.0004   0.00  150.7
2022/07/03 01:14:30.000  -2491490.2271  -4660803.2362   3559128.9541   1   7   0.0004   0.0006   0.0006   0.0003  -0.0004  -0.0004   0.00  151.8
2022/07/03 01:14:45.000  -2491490.2271  -4660803.2363   3559128.9542   1   7   0.0004   0.0006   0.0006   0.0003  -0.0004  -0.0004   0.00  153.1
2022/07/03 01:15:00.000  -2491490.2272  -4660803.2364   3559128.9542   1   7   0.0004   0.0006   0.0006   0.0003  -0.0004  -0.0004   0.00  153.7
2022/07/03 01:15:15.000  -2491490.2273  -4660803.2364   3559128.9543   1   7   0.0004   0.0006   0.0006   0.0003  -0.0004  -0.0004   0.00  154.4
2022/07/03 01:15:30.000  -2491490.2273  -4660803.2365   3559128.9543   1   7   0.0004   0.0006   0.0006   0.0003  -0.0004  -0.0004   0.00  154.8
2022/07/03 01:15:45.000  -2491490.2274  -4660803.2366   3559128.9544   1   7   0.0004   0.0006   0.0006   0.0003  -0.0004  -0.0004   0.00  154.5
2022/07/03 01:16:00.000  -2491490.2274  -4660803.2367   3559128.9544   1   7   0.0004   0.0006   0.0006   0.0003  -0.0004  -0.0004   0.00  155.3
2022/07/03 01:16:15.000  -2491490.2275  -4660803.2367   3559128.9545   1   7   0.0004   0.0006   0.0006   0.0003  -0.0004  -0.0004   0.00  156.0
2022/07/03 01:16:30.000  -2491490.2275  -4660803.2368   3559128.9545   1   7   0.0004   0.0006   0.0006   0.0003  -0.0004  -0.0004   0.00  157.0
2022/07/03 01:16:45.000  -2491490.2276  -4660803.2369   3559128.9546   1   7   0.0004   0.0005   0.0006   0.0003  -0.0004  -0.0004   0.00  157.6
2022/07/03 01:17:00.000  -2491490.2277  -4660803.2370   3559128.9547   1   7   0.0004   0.0005   0.0006   0.0003  -0.0004  -0.0003   0.00  158.6
2022/07/03 01:17:15.000  -2491490.2277  -4660803.2371   3559128.9548   1   7   0.0004   0.0005   0.0006   0.0003  -0.0004  -0.0003   0.00  159.9
2022/07/03 01:17:30.000  -2491490.2278  -4660803.2372   3559128.9549   1   7   0.0004   0.0005   0.0006   0.0003  -0.0004  -0.0003   0.00  161.0
2022/07/03 01:17:45.000  -2491490.2278  -4660803.2373   3559128.9550   1   7   0.0004   0.0005   0.0006   0.0003  -0.0004  -0.0003   0.00  161.9
2022/07/03 01:18:00.000  -2491490.2279  -4660803.2374   3559128.9551   1   7   0.0004   0.0005   0.0006   0.0003  -0.0004  -0.0003   0.00  162.5
2022/07/03 01:18:15.000  -2491490.2280  -4660803.2376   3559128.9552   1   7   0.0004   0.0005   0.0006   0.0003  -0.0004  -0.0003   0.00  162.8
2022/07/03 01:18:30.000  -2491490.2281  -4660803.2377   3559128.9553   1   7   0.0004   0.0005   0.0006   0.0003  -0.0004  -0.0003   0.00  162.7
2022/07/03 01:18:45.000  -2491490.2282  -4660803.2378   3559128.9554   1   7   0.0004   0.0005   0.0006   0.0003  -0.0004  -0.0003   0.00  162.9
2022/07/03 01:19:00.000  -2491490.2282  -4660803.2379   3559128.9555   1   7   0.0004   0.0005   0.0006   0.0003  -0.0004  -0.0003   0.00  164.2
2022/07/03 01:19:15.000  -2491490.2266  -4660803.2348   3559128.9532   2   8   0.0004   0.0006   0.0006   0.0004  -0.0004  -0.0004   0.00    1.2
2022/07/03 01:19:30.000  -2491490.2267  -4660803.2349   3559128.9533   2   8   0.0004   0.0006   0.0006   0.0004  -0.0004  -0.0004   0.00    1.5
2022/07/03 01:19:45.000  -2491490.2268  -4660803.2350   3559128.9534   2   8   0.0004   0.0006   0.0006   0.0004  -0.0004  -0.0004   0.00    1.7
2022/07/03 01:20:00.000  -2491490.2268  -4660803.2351   3559128.9535   2   8   0.0004   0.0006   0.0006   0.0004  -0.0004  -0.0004   0.00    1.8
2022/07/03 01:20:15.000  -2491490.2269  -4660803.2352   3559128.9536   2   8   0.0004   0.0006   0.0006   0.0004  -0.0004  -0.0004   0.00    2.0
2022/07/03 01:20:30.000  -2491490.2269  -4660803.2353   3559128.9537   2   8   0.0004   0.0006   0.0006   0.0004  -0.0004  -0.0004   0.00    2.2
2022/07/03 01:20:45.000  -2491490.2270  -4660803.2354   3559128.9537   2   8   0.0004   0.0006   0.0006   0.0004  -0.0004  -0.0004   0.00    2.4
2022/07/03 01:21:00.000  -2491490.2270  -4660803.2355   3559128.9538   2   8   0.0004   0.0006   0.0006   0.0004  -0.0004  -0.0004   0.00    2.6
2022/07/03 01:21:15.000  -2491490.2271  -4660803.2356   3559128.9539   2   8   0.0004   0.0006   0.0006   0.0004  -0.0004  -0.0004   0.00    2.8
2022/07/03 01:21:30.000  -2491490.2272  -4660803.2357   3559128.9540   2   8   0.0004   0.0006   0.0006   0.0004  -0.0004  -0.0004   0.00    2.9
2022/07/03 01:21:45.000  -2491490.2295  -4660803.2397   3559128.9578   1   8   0.0004   0.0005   0.0005   0.0003  -0.0004  -0.0003   0.00    3.0
2022/07/03 01:22:00.000  -2491490.2296  -4660803.2399   3559128.9580   1   8   0.0004   0.0005   0.0005   0.0003  -0.0004  -0.0003   0.00    3.2
2022/07/03 01:22:15.000  -2491490.2297  -4660803.2401   3559128.9582   1   8   0.0004   0.0005   0.0005   0.0003  -0.0004  -0.0003   0.00    3.3
2022/07/03 01:22:30.000  -2491490.2298  -4660803.2402   3559128.9584   1   8   0.0004   0.0005   0.0005   0.0003  -0.0004  -0.0003   0.00    3.4
2022/07/03 01:22:45.000  -2491490.2299  -4660803.2404   3559128.9586   1   8   0.0004   0.0005   0.0005   0.0003  -0.0004  -0.0003   0.00    3.5
2022/07/03 01:23:00.000  -2491490.2300  -4660803.2405   3559128.9587   1   8   0.0004   0.0005   0.0005   0.0003  -0.0004  -0.0003   0.00    3.7
2022/07/03 01:23:15.000  -2491490.2302  -4660803.2407   3559128.9589   1   8   0.0004   0.0005   0.0005   0.0003  -0.0004  -0.0003   0.00    3.8
2022/07/03 01:23:30.000  -2491490.2302  -4660803.2408   3559128.9590   1   8   0.0004   0.0005   0.0005   0.0003  -0.0004  -0.0003   0.00    3.9
2022/07/03 01:23:45.000  -2491490.2303  -4660803.2409   3559128.9591   1   8   0.0004   0.0005   0.0005   0.0003  -0.0004  -0.0003   0.00    4.1
2022/07/03 01:24:00.000  -2491490.2304  -4660803.2410   3559128.9592   1   8   0.0004   0.0005   0.0005   0.0003  -0.0004  -0.0003   0.00    4.3
2022/07/03 01:24:15.000  -2491490.2304  -4660803.2412   3559128.9593   1   8   0.0004   0.0005   0.0005   0.0003  -0.0004  -0.0003   0.00    6.1
2022/07/03 01:24:30.000  -2491490.2305  -4660803.2412   3559128.9594   1   8   0.0004   0.0005   0.0005   0.0003  -0.0004  -0.0003   0.00    7.8
2022/07/03 01:24:45.000  -2491490.2305  -4660803.2413   3559128.9595   1   8   0.0004   0.0005   0.0005   0.0003  -0.0004  -0.0003   0.00    9.7
2022/07/03 01:25:00.000  -2491490.2306  -4660803.2414   3559128.9596   1   8   0.0004   0.0005   0.0005   0.0003  -0.0004  -0.0003   0.00   11.5
2022/07/03 01:25:15.000  -2491490.2307  -4660803.2416   3559128.9598   1   8   0.0004   0.0005   0.0005   0.0003  -0.0004  -0.0003   0.00   13.2
2022/07/03 01:25:30.000  -2491490.2308  -4660803.2417   3559128.9600   1   8   0.0004   0.0005   0.0005   0.0003  -0.0004  -0.0003   0.00   14.9
2022/07/03 01:25:45.000  -2491490.2284  -4660803.2377   3559128.9566   2   8   0.0004   0.0006   0.0006   0.0004  -0.0004  -0.0003   0.00    1.3
2022/07/03 01:26:00.000  -2491490.2285  -4660803.2377   3559128.9567   2   8   0.0004   0.0006   0.0006   0.0004  -0.0004  -0.0003   0.00    1.5
2022/07/03 01:26:15.000  -2491490.2286  -4660803.2378   3559128.9568   2   8   0.0004   0.0006   0.0006   0.0004  -0.0004  -0.0003   0.00    1.8
2022/07/03 01:26:30.000  -2491490.2286  -4660803.2379   3559128.9569   2   8   0.0004   0.0006   0.0006   0.0004  -0.0004  -0.0003   0.00    2.1
2022/07/03 01:26:45.000  -2491490.2287  -4660803.2380   3559128.9570   2   8   0.0004   0.0006   0.0006   0.0004  -0.0004  -0.0003   0.00    2.4
2022/07/03 01:27:00.000  -2491490.2288  -4660803.2381   3559128.9571   2   8   0.0004   0.0006   0.0006   0.0004  -0.0004  -0.0003   0.00    2.6
2022/07/03 01:27:15.000  -2491490.2288  -4660803.2381   3559128.9572   2   8   0.0004   0.0006   0.0006   0.0004  -0.0004  -0.0003   0.00    2.9
2022/07/03 01:27:30.000  -2491490.2315  -4660803.2426   3559128.9609   1   8   0.0004   0.0005   0.0005   0.0003  -0.0004  -0.0003   0.00    3.1
2022/07/03 01:27:45.000  -2491490.2316  -4660803.2426   3559128.9611   1   8   0.0004   0.0005   0.0005   0.0003  -0.0004  -0.0003   0.00    3.3
2022/07/03 01:28:00.000  -2491490.2317  -4660803.2427   3559128.9612   1   8   0.0004   0.0005   0.0005   0.0003  -0.0004  -0.0003   0.00    3.6
2022/07/03 01:28:15.000  -2491490.2318  -4660803.2428   3559128.9614   1   8   0.0004   0.0005   0.0005   0.0003  -0.0004  -0.0003   0.00    3.8
2022/07/03 01:28:30.000  -2491490.2319  -4660803.2429   3559128.9615   1   8   0.0004   0.0005   0.0005   0.0003  -0.0004  -0.0003   0.00    4.0
2022/07/03 01:28:45.000  -2491490.2319  -4660803.2430   3559128.9617   1   8   0.0003   0.0005   0.0005   0.0003  -0.0004  -0.0003   0.00    4.2
2022/07/03 01:29:00.000  -2491490.2320  -4660803.2431   3559128.9618   1   8   0.0003   0.0005   0.0005   0.0003  -0.0004  -0.0003   0.00    4.5
2022/07/03 01:29:15.000  -2491490.2321  -4660803.2431   3559128.9620   1   8   0.0003   0.0005   0.0005   0.0003  -0.0004  -0.0003   0.00    4.7
2022/07/03 01:29:30.000  -2491490.2322  -4660803.2432   3559128.9621   1   8   0.0003   0.0005   0.0005   0.0003  -0.0004  -0.0003   0.00    5.0
2022/07/03 01:29:45.000  -2491490.2322  -4660803.2433   3559128.9622   1   8   0.0003   0.0005   0.0005   0.0003  -0.0004  -0.0003   0.00    5.2
2022/07/03 01:30:00.000  -2491490.2324  -4660803.2434   3559128.9624   1   8   0.0003   0.0005   0.0005   0.0003  -0.0004  -0.0003   0.00    6.8
2022/07/03 01:30:15.000  -2491490.2324  -4660803.2435   3559128.9626   1   8   0.0003   0.0005   0.0005   0.0003  -0.0004  -0.0003   0.00    8.4
2022/07/03 01:30:30.000  -2491490.2325  -4660803.2436   3559128.9628   1   8   0.0003   0.0005   0.0005   0.0003  -0.0004  -0.0003   0.00    9.9
2022/07/03 01:30:45.000  -2491490.2326  -4660803.2437   3559128.9630   1   8   0.0003   0.0005   0.0005   0.0003  -0.0004  -0.0003   0.00   11.5
2022/07/03 01:31:00.000  -2491490.2327  -4660803.2438   3559128.9631   1   8   0.0003   0.0005   0.0005   0.0003  -0.0004  -0.0003   0.00   13.1
2022/07/03 01:31:15.000  -2491490.2328  -4660803.2439   3559128.9633   1   8   0.0003   0.0005   0.0005   0.0003  -0.0004  -0.0003   0.00   14.7
2022/07/03 01:31:30.000  -2491490.2328  -4660803.2440   3559128.9634   1   8   0.0003   0.0005   0.0005   0.0003  -0.0004  -0.0003   0.00   16.3
2022/07/03 01:31:45.000  -2491490.2329  -4660803.2441   3559128.9635   1   8   0.0003   0.0005   0.0005   0.0003  -0.0004  -0.0003   0.00   18.0
2022/07/03 01:32:00.000  -2491490.2329  -4660803.2442   3559128.9637   1   8   0.0003   0.0005   0.0005   0.0003  -0.0004  -0.0003   0.00   19.7
2022/07/03 01:32:15.000  -2491490.2330  -4660803.2443   3559128.9638   1   8   0.0003   0.0005   0.0005   0.0003  -0.0004  -0.0003   0.00   21.5
2022/07/03 01:32:30.000  -2491490.2330  -4660803.2443   3559128.9639   1   8   0.0003   0.0005   0.0005   0.0003  -0.0004  -0.0003   0.00   23.4
2022/07/03 01:32:45.000  -2491490.2330  -4660803.2444   3559128.9640   1   8   0.0003   0.0005   0.0005   0.0003  -0.0004  -0.0003   0.00   25.2
2022/07/03 01:33:00.000  -2491490.2331  -4660803.2444   3559128.9640   1   8   0.0003   0.0005   0.0005   0.0003  -0.0004  -0.0003   0.00   27.1
2022/07/03 01:33:15.000  -2491490.2331  -4660803.2445   3559128.9641   1   8   0.0003   0.0005   0.0005   0.0003  -0.0004  -0.0003   0.00   29.1
2022/07/03 01:33:30.000  -2491490.2332  -4660803.2445   3559128.9642   1   8   0.0003   0.0005   0.0005   0.0003  -0.0004  -0.0003   0.00   31.0
2022/07/03 01:33:45.000  -2491490.2332  -4660803.2446   3559128.9643   1   8   0.0003   0.0005   0.0005   0.0003  -0.0004  -0.0003   0.00   33.0
2022/07/03 01:34:00.000  -2491490.2333  -4660803.2447   3559128.9644   1   8   0.0003   0.0005   0.0005   0.0003  -0.0003  -0.0003   0.00   34.9
2022/07/03 01:34:15.000  -2491490.2333  -4660803.2448   3559128.9646   1   8   0.0003   0.0005   0.0005   0.0003  -0.0003  -0.0003   0.00   36.8
2022/07/03 01:34:30.000  -2491490.2334  -4660803.2449   3559128.9647   1   8   0.0003   0.0005   0.0005   0.0003  -0.0003  -0.0003   0.00   38.6
2022/07/03 01:34:45.000  -2491490.2334  -4660803.2450   3559128.9648   1   8   0.0003   0.0005   0.0005   0.0003  -0.0003  -0.0003   0.00   40.6
2022/07/03 01:35:00.000  -2491490.2335  -4660803.2450   3559128.9649   1   8   0.0003   0.0005   0.0005   0.0003  -0.0003  -0.0003   0.00   42.6
2022/07/03 01:35:15.000  -2491490.2335  -4660803.2451   3559128.9650   1   8   0.0003   0.0005   0.0005   0.0003  -0.0003  -0.0003   0.00   44.5
2022/07/03 01:35:30.000  -2491490.2335  -4660803.2452   3559128.9651   1   8   0.0003   0.0005   0.0005   0.0003  -0.0003  -0.0003   0.00   46.7
2022/07/03 01:35:45.000  -2491490.2336  -4660803.2452   3559128.9651   1   8   0.0003   0.0005   0.0005   0.0003  -0.0003  -0.0003   0.00   48.8
2022/07/03 01:36:00.000  -2491490.2336  -4660803.2453   3559128.9652   1   8   0.0003   0.0005   0.0005   0.0003  -0.0003  -0.0003   0.00   50.9
2022/07/03 01:36:15.000  -2491490.2337  -4660803.2454   3559128.9654   1   8   0.0003   0.0005   0.0005   0.0003  -0.0003  -0.0003   0.00   52.8
2022/07/03 01:36:30.000  -2491490.2338  -4660803.2455   3559128.9655   1   8   0.0003   0.0005   0.0005   0.0003  -0.0003  -0.0003   0.00   54.6
2022/07/03 01:36:45.000  -2491490.2338  -4660803.2456   3559128.9656   1   8   0.0003   0.0005   0.0005   0.0003  -0.0003  -0.0003   0.00   56.3
2022/07/03 01:37:00.000  -2491490.2339  -4660803.2457   3559128.9657   1   8   0.0003   0.0005   0.0005   0.0003  -0.0003  -0.0003   0.00   58.3
2022/07/03 01:37:15.000  -2491490.2340  -4660803.2458   3559128.9658   1   8   0.0003   0.0005   0.0005   0.0003  -0.0003  -0.0003   0.00   60.1
2022/07/03 01:37:30.000  -2491490.2341  -4660803.2458   3559128.9660   1   8   0.0003   0.0005   0.0005   0.0003  -0.0003  -0.0003   0.00   61.9
2022/07/03 01:37:45.000  -2491490.2341  -4660803.2459   3559128.9661   1   8   0.0003   0.0005   0.0005   0.0003  -0.0003  -0.0003   0.00   63.7
2022/07/03 01:38:00.000  -2491490.2342  -4660803.2460   3559128.9662   1   8   0.0003   0.0005   0.0005   0.0003  -0.0003  -0.0003   0.00   65.7
2022/07/03 01:38:15.000  -2491490.2342  -4660803.2461   3559128.9663   1   8   0.0003   0.0005   0.0005   0.0003  -0.0003  -0.0003   0.00   67.7
2022/07/03 01:38:30.000  -2491490.2343  -4660803.2461   3559128.9664   1   8   0.0003   0.0005   0.0005   0.0003  -0.0003  -0.0003   0.00   69.6
2022/07/03 01:38:45.000  -2491490.2321  -4660803.2428   3559128.9634   2   8   0.0004   0.0005   0.0005   0.0003  -0.0004  -0.0003   0.00    1.8
2022/07/03 01:39:00.000  -2491490.2321  -4660803.2429   3559128.9634   2   8   0.0004   0.0005   0.0005   0.0003  -0.0004  -0.0003   0.00    2.7
2022/07/03 01:39:15.000  -2491490.2343  -4660803.2462   3559128.9662   1   8   0.0003   0.0005   0.0005   0.0003  -0.0003  -0.0003   0.00    3.7
2022/07/03 01:39:30.000  -2491490.2343  -4660803.2463   3559128.9663   1   8   0.0003   0.0005   0.0005   0.0003  -0.0003  -0.0003   0.00    4.6
2022/07/03 01:39:45.000  -2491490.2344  -4660803.2463   3559128.9664   1   8   0.0003   0.0005   0.0005   0.0003  -0.0003  -0.0003   0.00    5.5
2022/07/03 01:40:00.000  -2491490.2344  -4660803.2464   3559128.9664   1   8   0.0003   0.0005   0.0005   0.0003  -0.0003  -0.0003   0.00    6.5
2022/07/03 01:40:15.000  -2491490.2344  -4660803.2465   3559128.9664   1   8   0.0003   0.0005   0.0005   0.0003  -0.0003  -0.0003   0.00    7.5
2022/07/03 01:40:30.000  -2491490.2323  -4660803.2431   3559128.9637   2   9   0.0004   0.0005   0.0005   0.0003  -0.0004  -0.0003   0.00    1.2
2022/07/03 01:40:45.000  -2491490.2323  -4660803.2431   3559128.9637   2   9   0.0004   0.0005   0.0005   0.0003  -0.0004  -0.0003   0.00    1.4
