% program   : RTKPOST ver.2.4.3 b34
% inp file  : C:\Users\89231\Documents\Учеба\Диссертация\Данные\Лос-Анджелес 03-05.07.22\04.07.2022\cmp91850.22o
% inp file  : C:\Users\89231\Documents\Учеба\Диссертация\Данные\Лос-Анджелес 03-05.07.22\04.07.2022\wlsn1850.22o
% inp file  : C:\Users\89231\Documents\Учеба\Диссертация\Данные\Лос-Анджелес 03-05.07.22\04.07.2022\jplm1850.22n
% inp file  : C:\Users\89231\Documents\Учеба\Диссертация\Данные\Лос-Анджелес 03-05.07.22\04.07.2022\igs22171.sp3
% obs start : 2022/07/04 00:00:00.0 GPST (week2217  86400.0s)
% obs end   : 2022/07/04 23:59:45.0 GPST (week2217 172785.0s)
% pos mode  : Static
% freqs     : L1+2
% solution  : Forward
% elev mask : 15.0 deg
% dynamics  : off
% tidecorr  : off
% ionos opt : Broadcast
% tropo opt : Saastamoinen
% ephemeris : Precise
% navi sys  : GPS
% amb res   : Fix and Hold
% val thres : 3.0
% antenna1  :                       ( 0.0000  0.0000  0.1265)
% antenna2  :                       ( 0.0000  0.0000  0.0614)
% ref pos   : -2483640.9733  -4660072.8873   3568172.2297
%
% (x/y/z-ecef=WGS84,Q=1:fix,2:float,3:sbas,4:dgps,5:single,6:ppp,ns=# of satellites)
%  GPST                      x-ecef(m)      y-ecef(m)      z-ecef(m)   Q  ns   sdx(m)   sdy(m)   sdz(m)  sdxy(m)  sdyz(m)  sdzx(m) age(s)  ratio
2022/07/04 00:00:00.000  -2508506.3557  -4637174.9330   3579500.1284   2   8   0.5230   0.9946   0.7485   0.5607  -0.7330  -0.4841   0.00    2.0
2022/07/04 00:00:15.000  -2508506.3762  -4637174.8805   3579500.0883   2   8   0.3633   0.6898   0.5100   0.3838  -0.4991  -0.3284   0.00    1.9
2022/07/04 00:00:30.000  -2508506.3553  -4637174.8123   3579499.9528   2   8   0.2873   0.5441   0.3918   0.2966  -0.3829  -0.2503   0.00    1.8
2022/07/04 00:00:45.000  -2508506.3124  -4637174.8562   3579499.9274   2   8   0.2393   0.4521   0.3147   0.2398  -0.3070  -0.1988   0.00    1.7
2022/07/04 00:01:00.000  -2508506.2824  -4637174.8765   3579499.9189   2   8   0.2052   0.3869   0.2592   0.1988  -0.2523  -0.1615   0.00    1.7
2022/07/04 00:01:15.000  -2508506.2665  -4637174.8734   3579499.8937   2   8   0.1794   0.3380   0.2172   0.1676  -0.2111  -0.1332   0.00    1.6
2022/07/04 00:01:30.000  -2508506.2616  -4637174.8797   3579499.8784   2   8   0.1591   0.2999   0.1848   0.1431  -0.1792  -0.1113   0.00    1.6
2022/07/04 00:01:45.000  -2508506.2781  -4637174.9084   3579499.9017   2   8   0.1426   0.2693   0.1591   0.1234  -0.1542  -0.0941   0.00    1.6
2022/07/04 00:02:00.000  -2508506.3238  -4637174.9690   3579499.9255   2   8   0.1290   0.2443   0.1386   0.1074  -0.1342  -0.0804   0.00    1.6
2022/07/04 00:02:15.000  -2508506.3711  -4637175.0638   3579499.9810   2   8   0.1176   0.2233   0.1219   0.0940  -0.1180  -0.0692   0.00    1.5
2022/07/04 00:02:30.000  -2508506.3989  -4637175.1244   3579500.0069   2   8   0.1078   0.2055   0.1081   0.0828  -0.1048  -0.0602   0.00    1.6
2022/07/04 00:02:45.000  -2508506.4469  -4637175.1953   3579500.0574   2   8   0.0993   0.1902   0.0967   0.0732  -0.0938  -0.0527   0.00    1.6
2022/07/04 00:03:00.000  -2508506.4778  -4637175.2663   3579500.1019   2   8   0.0919   0.1768   0.0871   0.0650  -0.0845  -0.0465   0.00    1.5
2022/07/04 00:03:15.000  -2508506.5051  -4637175.3531   3579500.1436   2   8   0.0854   0.1650   0.0789   0.0580  -0.0767  -0.0412   0.00    1.6
2022/07/04 00:03:30.000  -2508506.5168  -4637175.4121   3579500.1596   2   8   0.0796   0.1545   0.0719   0.0518  -0.0701  -0.0368   0.00    1.6
2022/07/04 00:03:45.000  -2508506.5334  -4637175.4478   3579500.1633   2   8   0.0744   0.1451   0.0658   0.0464  -0.0643  -0.0331   0.00    1.6
2022/07/04 00:04:00.000  -2508506.5350  -4637175.4363   3579500.1640   2   7   0.0699   0.1376   0.0606   0.0417  -0.0594  -0.0299   0.00    1.8
2022/07/04 00:04:15.000  -2508506.5323  -4637175.4301   3579500.1678   2   7   0.0658   0.1308   0.0560   0.0374  -0.0551  -0.0271   0.00    1.8
2022/07/04 00:04:30.000  -2508506.5238  -4637175.4116   3579500.1616   2   7   0.0620   0.1245   0.0519   0.0335  -0.0513  -0.0247   0.00    1.8
2022/07/04 00:04:45.000  -2508506.5208  -4637175.3944   3579500.1522   2   7   0.0586   0.1188   0.0483   0.0301  -0.0479  -0.0226   0.00    1.8
2022/07/04 00:05:00.000  -2508506.5069  -4637175.3717   3579500.1388   2   7   0.0555   0.1134   0.0451   0.0269  -0.0449  -0.0207   0.00    1.8
2022/07/04 00:05:15.000  -2508506.4861  -4637175.3560   3579500.1315   2   7   0.0526   0.1084   0.0422   0.0241  -0.0423  -0.0191   0.00    1.9
2022/07/04 00:05:30.000  -2508506.4785  -4637175.3554   3579500.1309   2   7   0.0500   0.1038   0.0396   0.0215  -0.0398  -0.0176   0.00    1.9
2022/07/04 00:05:45.000  -2508506.4693  -4637175.3415   3579500.1234   2   7   0.0475   0.0994   0.0373   0.0192  -0.0377  -0.0163   0.00    1.9
2022/07/04 00:06:00.000  -2508506.4585  -4637175.3236   3579500.1185   2   7   0.0453   0.0954   0.0352   0.0170  -0.0357  -0.0152   0.00    1.9
2022/07/04 00:06:15.000  -2508506.4402  -4637175.2860   3579500.1127   2   7   0.0432   0.0916   0.0333   0.0151  -0.0339  -0.0141   0.00    1.9
2022/07/04 00:06:30.000  -2508506.4183  -4637175.2452   3579500.1082   2   7   0.0412   0.0880   0.0315   0.0132  -0.0322  -0.0132   0.00    2.0
2022/07/04 00:06:45.000  -2508506.3969  -4637175.2182   3579500.1066   2   7   0.0394   0.0846   0.0299   0.0115  -0.0307  -0.0124   0.00    2.0
2022/07/04 00:07:00.000  -2508506.3745  -4637175.2093   3579500.1060   2   7   0.0378   0.0814   0.0284   0.0099  -0.0293  -0.0116   0.00    2.1
2022/07/04 00:07:15.000  -2508506.3535  -4637175.1942   3579500.1030   2   7   0.0362   0.0785   0.0271   0.0084  -0.0280  -0.0109   0.00    2.2
2022/07/04 00:07:30.000  -2508506.3374  -4637175.1633   3579500.0941   2   7   0.0347   0.0756   0.0258   0.0069  -0.0268  -0.0103   0.00    2.3
2022/07/04 00:07:45.000  -2508506.3225  -4637175.1412   3579500.0850   2   7   0.0334   0.0729   0.0247   0.0054  -0.0257  -0.0097   0.00    2.4
2022/07/04 00:08:00.000  -2508506.3056  -4637175.1056   3579500.0757   2   7   0.0321   0.0704   0.0236   0.0038  -0.0246  -0.0092   0.00    2.4
2022/07/04 00:08:15.000  -2508506.2879  -4637175.0812   3579500.0672   2   7   0.0309   0.0680   0.0226   0.0016  -0.0237  -0.0087   0.00    2.5
2022/07/04 00:08:30.000  -2508506.2693  -4637175.0559   3579500.0626   2   7   0.0298   0.0657   0.0217  -0.0027  -0.0228  -0.0083   0.00    2.6
2022/07/04 00:08:45.000  -2508506.2568  -4637175.0237   3579500.0570   2   7   0.0287   0.0636   0.0208  -0.0038  -0.0219  -0.0079   0.00    2.7
2022/07/04 00:09:00.000  -2508506.2454  -4637174.9902   3579500.0531   2   7   0.0277   0.0615   0.0200  -0.0045  -0.0211  -0.0075   0.00    2.7
2022/07/04 00:09:15.000  -2508506.2384  -4637174.9607   3579500.0537   2   7   0.0267   0.0596   0.0192  -0.0050  -0.0204  -0.0072   0.00    2.7
2022/07/04 00:09:30.000  -2508506.2297  -4637174.9337   3579500.0539   2   7   0.0259   0.0577   0.0185  -0.0053  -0.0197  -0.0069   0.00    2.8
2022/07/04 00:09:45.000  -2508506.2184  -4637174.9070   3579500.0519   2   7   0.0250   0.0559   0.0179  -0.0056  -0.0190  -0.0066   0.00    2.8
2022/07/04 00:10:00.000  -2508506.2064  -4637174.8825   3579500.0512   2   7   0.0242   0.0543   0.0172  -0.0057  -0.0184  -0.0063   0.00    2.8
2022/07/04 00:10:15.000  -2508506.1938  -4637174.8714   3579500.0498   2   7   0.0234   0.0526   0.0166  -0.0058  -0.0178  -0.0060   0.00    2.9
2022/07/04 00:10:30.000  -2508506.1820  -4637174.8615   3579500.0491   2   7   0.0227   0.0511   0.0161  -0.0059  -0.0172  -0.0058   0.00    2.9
2022/07/04 00:10:45.000  -2508506.1699  -4637174.8568   3579500.0487   2   7   0.0220   0.0496   0.0155  -0.0059  -0.0167  -0.0056   0.00    2.9
2022/07/04 00:11:00.000  -2508506.1572  -4637174.8551   3579500.0487   2   7   0.0214   0.0482   0.0150  -0.0059  -0.0162  -0.0054   0.00    3.0
2022/07/04 00:11:15.000  -2508506.1314  -4637174.8554   3579500.0195   1   7   0.0009   0.0015   0.0012   0.0009  -0.0012  -0.0008   0.00    3.0
2022/07/04 00:11:30.000  -2508506.1310  -4637174.8553   3579500.0193   1   7   0.0009   0.0015   0.0012   0.0009  -0.0011  -0.0008   0.00    3.1
2022/07/04 00:11:45.000  -2508506.1306  -4637174.8549   3579500.0189   1   7   0.0008   0.0015   0.0012   0.0009  -0.0011  -0.0008   0.00    3.1
2022/07/04 00:12:00.000  -2508506.1302  -4637174.8546   3579500.0185   1   7   0.0008   0.0015   0.0012   0.0009  -0.0011  -0.0008   0.00    3.1
2022/07/04 00:12:15.000  -2508506.1297  -4637174.8543   3579500.0182   1   7   0.0008   0.0015   0.0012   0.0009  -0.0011  -0.0008   0.00    3.1
2022/07/04 00:12:30.000  -2508506.1294  -4637174.8542   3579500.0179   1   7   0.0008   0.0015   0.0011   0.0009  -0.0011  -0.0008   0.00    3.2
2022/07/04 00:12:45.000  -2508506.1292  -4637174.8542   3579500.0177   1   7   0.0008   0.0015   0.0011   0.0009  -0.0011  -0.0008   0.00    3.2
2022/07/04 00:13:00.000  -2508506.1290  -4637174.8541   3579500.0175   1   7   0.0008   0.0015   0.0011   0.0009  -0.0011  -0.0008   0.00    3.2
2022/07/04 00:13:15.000  -2508506.1288  -4637174.8542   3579500.0173   1   7   0.0008   0.0014   0.0011   0.0008  -0.0011  -0.0007   0.00    3.3
2022/07/04 00:13:30.000  -2508506.1287  -4637174.8542   3579500.0171   1   7   0.0008   0.0014   0.0011   0.0008  -0.0011  -0.0007   0.00    3.3
2022/07/04 00:13:45.000  -2508506.1286  -4637174.8544   3579500.0171   1   7   0.0008   0.0014   0.0011   0.0008  -0.0011  -0.0007   0.00    5.3
2022/07/04 00:14:00.000  -2508506.1286  -4637174.8547   3579500.0171   1   7   0.0008   0.0014   0.0011   0.0008  -0.0011  -0.0007   0.00    6.0
2022/07/04 00:14:15.000  -2508506.1286  -4637174.8551   3579500.0170   1   7   0.0008   0.0014   0.0011   0.0008  -0.0010  -0.0007   0.00    6.7
2022/07/04 00:14:30.000  -2508506.1287  -4637174.8555   3579500.0170   1   7   0.0008   0.0014   0.0011   0.0008  -0.0010  -0.0007   0.00    7.4
2022/07/04 00:14:45.000  -2508506.1288  -4637174.8559   3579500.0169   1   7   0.0008   0.0014   0.0011   0.0008  -0.0010  -0.0007   0.00    8.1
2022/07/04 00:15:00.000  -2508506.1289  -4637174.8563   3579500.0167   1   7   0.0008   0.0014   0.0011   0.0008  -0.0010  -0.0007   0.00    8.9
2022/07/04 00:15:15.000  -2508506.1290  -4637174.8566   3579500.0166   1   7   0.0008   0.0014   0.0011   0.0008  -0.0010  -0.0007   0.00    9.7
2022/07/04 00:15:30.000  -2508506.1290  -4637174.8569   3579500.0164   1   7   0.0008   0.0013   0.0011   0.0008  -0.0010  -0.0007   0.00   10.6
2022/07/04 00:15:45.000  -2508506.1291  -4637174.8572   3579500.0162   1   7   0.0007   0.0013   0.0011   0.0008  -0.0010  -0.0007   0.00   11.5
2022/07/04 00:16:00.000  -2508506.1292  -4637174.8575   3579500.0160   1   7   0.0007   0.0013   0.0010   0.0008  -0.0010  -0.0007   0.00   12.4
2022/07/04 00:16:15.000  -2508506.1293  -4637174.8578   3579500.0159   1   7   0.0007   0.0013   0.0010   0.0008  -0.0010  -0.0007   0.00   13.4
2022/07/04 00:16:30.000  -2508506.1294  -4637174.8581   3579500.0157   1   7   0.0007   0.0013   0.0010   0.0008  -0.0010  -0.0007   0.00   14.4
2022/07/04 00:16:45.000  -2508506.1294  -4637174.8584   3579500.0156   1   7   0.0007   0.0013   0.0010   0.0008  -0.0010  -0.0007   0.00   15.3
2022/07/04 00:17:00.000  -2508506.1294  -4637174.8587   3579500.0155   1   7   0.0007   0.0013   0.0010   0.0008  -0.0010  -0.0007   0.00   16.2
2022/07/04 00:17:15.000  -2508506.1295  -4637174.8590   3579500.0155   1   7   0.0007   0.0013   0.0010   0.0008  -0.0010  -0.0007   0.00   17.1
2022/07/04 00:17:30.000  -2508506.1294  -4637174.8592   3579500.0154   1   7   0.0007   0.0013   0.0010   0.0007  -0.0010  -0.0007   0.00   18.1
2022/07/04 00:17:45.000  -2508506.1294  -4637174.8595   3579500.0154   1   7   0.0007   0.0013   0.0010   0.0007  -0.0010  -0.0007   0.00   19.0
2022/07/04 00:18:00.000  -2508506.1294  -4637174.8598   3579500.0153   1   7   0.0007   0.0013   0.0010   0.0007  -0.0009  -0.0007   0.00   19.9
2022/07/04 00:18:15.000  -2508506.1294  -4637174.8600   3579500.0153   1   7   0.0007   0.0013   0.0010   0.0007  -0.0009  -0.0007   0.00   20.8
2022/07/04 00:18:30.000  -2508506.1294  -4637174.8602   3579500.0152   1   7   0.0007   0.0013   0.0010   0.0007  -0.0009  -0.0007   0.00   21.6
2022/07/04 00:18:45.000  -2508506.1294  -4637174.8602   3579500.0152   1   7   0.0007   0.0012   0.0010   0.0007  -0.0009  -0.0006   0.00   22.5
2022/07/04 00:19:00.000  -2508506.1293  -4637174.8603   3579500.0152   1   7   0.0007   0.0012   0.0010   0.0007  -0.0009  -0.0006   0.00   23.3
2022/07/04 00:19:15.000  -2508506.1293  -4637174.8603   3579500.0152   1   7   0.0007   0.0012   0.0010   0.0007  -0.0009  -0.0006   0.00   24.1
2022/07/04 00:19:30.000  -2508506.1293  -4637174.8603   3579500.0152   1   7   0.0007   0.0012   0.0010   0.0007  -0.0009  -0.0006   0.00   24.8
2022/07/04 00:19:45.000  -2508506.1293  -4637174.8604   3579500.0153   1   7   0.0007   0.0012   0.0010   0.0007  -0.0009  -0.0006   0.00   25.5
2022/07/04 00:20:00.000  -2508506.1292  -4637174.8604   3579500.0153   1   7   0.0007   0.0012   0.0010   0.0007  -0.0009  -0.0006   0.00   26.2
2022/07/04 00:20:15.000  -2508506.1291  -4637174.8604   3579500.0154   1   7   0.0007   0.0012   0.0010   0.0007  -0.0009  -0.0006   0.00   26.9
2022/07/04 00:20:30.000  -2508506.1291  -4637174.8605   3579500.0154   1   7   0.0007   0.0012   0.0010   0.0007  -0.0009  -0.0006   0.00   27.5
2022/07/04 00:20:45.000  -2508506.1291  -4637174.8605   3579500.0154   1   7   0.0007   0.0012   0.0010   0.0007  -0.0009  -0.0006   0.00   27.9
2022/07/04 00:21:00.000  -2508506.1291  -4637174.8604   3579500.0154   1   7   0.0007   0.0012   0.0010   0.0007  -0.0009  -0.0006   0.00   28.5
2022/07/04 00:21:15.000  -2508506.1292  -4637174.8604   3579500.0154   1   7   0.0007   0.0012   0.0009   0.0007  -0.0009  -0.0006   0.00   29.0
2022/07/04 00:21:30.000  -2508506.1292  -4637174.8603   3579500.0153   1   7   0.0007   0.0012   0.0009   0.0007  -0.0009  -0.0006   0.00   29.5
2022/07/04 00:21:45.000  -2508506.1293  -4637174.8602   3579500.0152   1   7   0.0007   0.0012   0.0009   0.0007  -0.0009  -0.0006   0.00   30.1
2022/07/04 00:22:00.000  -2508506.1293  -4637174.8600   3579500.0151   1   7   0.0007   0.0012   0.0009   0.0007  -0.0009  -0.0006   0.00   30.5
2022/07/04 00:22:15.000  -2508506.1294  -4637174.8599   3579500.0150   1   7   0.0007   0.0012   0.0009   0.0007  -0.0009  -0.0006   0.00   31.1
2022/07/04 00:22:30.000  -2508506.1295  -4637174.8597   3579500.0148   1   7   0.0006   0.0011   0.0009   0.0007  -0.0009  -0.0006   0.00   31.6
2022/07/04 00:22:45.000  -2508506.1321  -4637174.8635   3579500.0199   2   8   0.0009   0.0014   0.0014   0.0009  -0.0012  -0.0008   0.00    1.1
2022/07/04 00:23:00.000  -2508506.1322  -4637174.8634   3579500.0197   2   8   0.0009   0.0014   0.0014   0.0009  -0.0012  -0.0008   0.00    1.2
2022/07/04 00:23:15.000  -2508506.1322  -4637174.8632   3579500.0195   2   8   0.0009   0.0014   0.0013   0.0009  -0.0012  -0.0008   0.00    1.3
2022/07/04 00:23:30.000  -2508506.1323  -4637174.8631   3579500.0192   2   8   0.0009   0.0014   0.0013   0.0009  -0.0012  -0.0008   0.00    1.4
2022/07/04 00:23:45.000  -2508506.1323  -4637174.8630   3579500.0191   2   8   0.0009   0.0014   0.0013   0.0009  -0.0012  -0.0008   0.00    1.4
2022/07/04 00:24:00.000  -2508506.1323  -4637174.8630   3579500.0190   2   8   0.0009   0.0014   0.0013   0.0009  -0.0012  -0.0008   0.00    1.5
2022/07/04 00:24:15.000  -2508506.1323  -4637174.8629   3579500.0188   2   8   0.0009   0.0014   0.0013   0.0009  -0.0012  -0.0008   0.00    1.6
2022/07/04 00:24:30.000  -2508506.1322  -4637174.8627   3579500.0184   2   8   0.0009   0.0014   0.0013   0.0009  -0.0012  -0.0008   0.00    1.1
2022/07/04 00:24:45.000  -2508506.1322  -4637174.8625   3579500.0181   2   8   0.0009   0.0014   0.0013   0.0009  -0.0012  -0.0008   0.00    1.1
2022/07/04 00:25:00.000  -2508506.1322  -4637174.8623   3579500.0177   2   8   0.0009   0.0014   0.0013   0.0009  -0.0011  -0.0008   0.00    1.2
2022/07/04 00:25:15.000  -2508506.1321  -4637174.8621   3579500.0174   2   8   0.0009   0.0014   0.0013   0.0009  -0.0011  -0.0008   0.00    1.2
2022/07/04 00:25:30.000  -2508506.1320  -4637174.8619   3579500.0171   2   9   0.0009   0.0014   0.0013   0.0009  -0.0011  -0.0008   0.00    1.1
2022/07/04 00:25:45.000  -2508506.1320  -4637174.8617   3579500.0167   2   8   0.0009   0.0014   0.0013   0.0009  -0.0011  -0.0008   0.00    1.3
2022/07/04 00:26:00.000  -2508506.1320  -4637174.8614   3579500.0164   2   9   0.0009   0.0014   0.0013   0.0009  -0.0011  -0.0008   0.00    1.0
2022/07/04 00:26:15.000  -2508506.1319  -4637174.8612   3579500.0161   2   9   0.0009   0.0014   0.0013   0.0009  -0.0011  -0.0008   0.00    1.1
2022/07/04 00:26:30.000  -2508506.1319  -4637174.8610   3579500.0158   2   9   0.0009   0.0014   0.0013   0.0009  -0.0011  -0.0008   0.00    1.1
2022/07/04 00:26:45.000  -2508506.1319  -4637174.8608   3579500.0155   2   8   0.0009   0.0014   0.0013   0.0009  -0.0011  -0.0008   0.00    1.7
2022/07/04 00:27:00.000  -2508506.1320  -4637174.8608   3579500.0155   2   8   0.0009   0.0014   0.0013   0.0009  -0.0011  -0.0008   0.00    1.2
2022/07/04 00:27:15.000  -2508506.1321  -4637174.8607   3579500.0154   2   8   0.0009   0.0014   0.0013   0.0009  -0.0011  -0.0008   0.00    1.4
2022/07/04 00:27:30.000  -2508506.1322  -4637174.8607   3579500.0154   2   8   0.0009   0.0013   0.0013   0.0009  -0.0011  -0.0008   0.00    1.2
2022/07/04 00:27:45.000  -2508506.1322  -4637174.8607   3579500.0153   2   8   0.0009   0.0013   0.0013   0.0009  -0.0011  -0.0008   0.00    1.1
2022/07/04 00:28:00.000  -2508506.1323  -4637174.8607   3579500.0153   2   8   0.0009   0.0013   0.0013   0.0009  -0.0011  -0.0008   0.00    2.0
2022/07/04 00:28:15.000  -2508506.1324  -4637174.8607   3579500.0153   2   8   0.0009   0.0013   0.0013   0.0009  -0.0011  -0.0008   0.00    2.0
2022/07/04 00:28:30.000  -2508506.1325  -4637174.8607   3579500.0153   2   8   0.0009   0.0013   0.0013   0.0009  -0.0011  -0.0008   0.00    2.2
2022/07/04 00:28:45.000  -2508506.1326  -4637174.8607   3579500.0153   2   8   0.0009   0.0013   0.0013   0.0009  -0.0011  -0.0008   0.00    1.2
2022/07/04 00:29:00.000  -2508506.1327  -4637174.8608   3579500.0154   2   8   0.0009   0.0013   0.0013   0.0009  -0.0011  -0.0008   0.00    2.3
2022/07/04 00:29:15.000  -2508506.1328  -4637174.8608   3579500.0154   2   8   0.0009   0.0013   0.0013   0.0009  -0.0011  -0.0008   0.00    2.4
2022/07/04 00:29:30.000  -2508506.1328  -4637174.8609   3579500.0155   2   8   0.0009   0.0013   0.0013   0.0009  -0.0011  -0.0008   0.00    1.8
2022/07/04 00:29:45.000  -2508506.1329  -4637174.8609   3579500.0156   2   8   0.0009   0.0013   0.0013   0.0009  -0.0011  -0.0008   0.00    1.1
2022/07/04 00:30:00.000  -2508506.1330  -4637174.8610   3579500.0157   2   8   0.0009   0.0013   0.0013   0.0009  -0.0011  -0.0008   0.00    1.9
2022/07/04 00:30:15.000  -2508506.1331  -4637174.8612   3579500.0158   2   8   0.0009   0.0013   0.0013   0.0009  -0.0011  -0.0008   0.00    2.4
2022/07/04 00:30:30.000  -2508506.1331  -4637174.8613   3579500.0160   2   8   0.0009   0.0013   0.0013   0.0009  -0.0011  -0.0008   0.00    2.6
2022/07/04 00:30:45.000  -2508506.1332  -4637174.8615   3579500.0162   2   8   0.0009   0.0013   0.0013   0.0009  -0.0011  -0.0008   0.00    2.6
2022/07/04 00:31:00.000  -2508506.1333  -4637174.8617   3579500.0164   2   8   0.0009   0.0013   0.0013   0.0009  -0.0011  -0.0008   0.00    2.5
2022/07/04 00:31:15.000  -2508506.1334  -4637174.8618   3579500.0165   2   8   0.0009   0.0013   0.0013   0.0009  -0.0011  -0.0008   0.00    2.1
2022/07/04 00:31:30.000  -2508506.1335  -4637174.8620   3579500.0167   2   8   0.0009   0.0013   0.0013   0.0009  -0.0011  -0.0008   0.00    1.6
2022/07/04 00:31:45.000  -2508506.1337  -4637174.8622   3579500.0169   2   8   0.0009   0.0013   0.0013   0.0009  -0.0011  -0.0008   0.00    1.2
2022/07/04 00:32:00.000  -2508506.1338  -4637174.8624   3579500.0171   2   8   0.0009   0.0013   0.0013   0.0009  -0.0011  -0.0008   0.00    1.1
2022/07/04 00:32:15.000  -2508506.1339  -4637174.8626   3579500.0173   2   8   0.0009   0.0013   0.0013   0.0009  -0.0011  -0.0008   0.00    1.5
2022/07/04 00:32:30.000  -2508506.1340  -4637174.8629   3579500.0176   2   8   0.0009   0.0013   0.0013   0.0009  -0.0011  -0.0008   0.00    1.9
2022/07/04 00:32:45.000  -2508506.1341  -4637174.8631   3579500.0178   2   8   0.0009   0.0013   0.0013   0.0009  -0.0011  -0.0008   0.00    2.3
2022/07/04 00:33:00.000  -2508506.1343  -4637174.8634   3579500.0180   2   8   0.0009   0.0013   0.0013   0.0009  -0.0011  -0.0008   0.00    2.4
2022/07/04 00:33:15.000  -2508506.1344  -4637174.8637   3579500.0183   2   8   0.0009   0.0013   0.0013   0.0009  -0.0011  -0.0008   0.00    2.6
2022/07/04 00:33:30.000  -2508506.1346  -4637174.8640   3579500.0185   2   8   0.0009   0.0013   0.0013   0.0009  -0.0011  -0.0008   0.00    2.7
2022/07/04 00:33:45.000  -2508506.1347  -4637174.8643   3579500.0188   2   8   0.0009   0.0013   0.0013   0.0009  -0.0011  -0.0008   0.00    1.1
2022/07/04 00:34:00.000  -2508506.1349  -4637174.8646   3579500.0191   2   8   0.0009   0.0013   0.0013   0.0009  -0.0011  -0.0008   0.00    1.2
2022/07/04 00:34:15.000  -2508506.1351  -4637174.8649   3579500.0194   2   8   0.0009   0.0013   0.0013   0.0009  -0.0011  -0.0008   0.00    1.3
2022/07/04 00:34:30.000  -2508506.1353  -4637174.8653   3579500.0197   2   8   0.0009   0.0013   0.0013   0.0009  -0.0011  -0.0008   0.00    1.4
2022/07/04 00:34:45.000  -2508506.1355  -4637174.8657   3579500.0201   2   8   0.0009   0.0013   0.0013   0.0009  -0.0011  -0.0008   0.00    1.4
2022/07/04 00:35:00.000  -2508506.1357  -4637174.8660   3579500.0204   2   8   0.0009   0.0013   0.0013   0.0009  -0.0011  -0.0008   0.00    1.5
2022/07/04 00:35:15.000  -2508506.1359  -4637174.8664   3579500.0207   2   8   0.0009   0.0013   0.0013   0.0009  -0.0011  -0.0008   0.00    1.6
2022/07/04 00:35:30.000  -2508506.1361  -4637174.8668   3579500.0209   2   8   0.0009   0.0013   0.0013   0.0009  -0.0011  -0.0008   0.00    1.6
2022/07/04 00:35:45.000  -2508506.1362  -4637174.8671   3579500.0211   2   8   0.0009   0.0013   0.0013   0.0009  -0.0011  -0.0008   0.00    1.7
2022/07/04 00:36:00.000  -2508506.1363  -4637174.8673   3579500.0212   2   8   0.0009   0.0012   0.0013   0.0009  -0.0011  -0.0008   0.00    1.8
2022/07/04 00:36:15.000  -2508506.1364  -4637174.8675   3579500.0213   2   8   0.0009   0.0012   0.0013   0.0009  -0.0010  -0.0008   0.00    1.8
2022/07/04 00:36:30.000  -2508506.1365  -4637174.8677   3579500.0214   2   7   0.0009   0.0012   0.0012   0.0008  -0.0010  -0.0008   0.00    2.0
2022/07/04 00:36:45.000  -2508506.1367  -4637174.8679   3579500.0215   2   7   0.0009   0.0012   0.0012   0.0008  -0.0010  -0.0008   0.00    2.1
2022/07/04 00:37:00.000  -2508506.1368  -4637174.8681   3579500.0216   2   7   0.0009   0.0012   0.0012   0.0008  -0.0010  -0.0008   0.00    2.1
2022/07/04 00:37:15.000  -2508506.1369  -4637174.8682   3579500.0217   2   7   0.0009   0.0012   0.0012   0.0008  -0.0010  -0.0008   0.00    2.2
2022/07/04 00:37:30.000  -2508506.1370  -4637174.8683   3579500.0217   2   7   0.0009   0.0012   0.0012   0.0008  -0.0010  -0.0008   0.00    2.2
2022/07/04 00:37:45.000  -2508506.1371  -4637174.8685   3579500.0217   2   7   0.0009   0.0012   0.0012   0.0008  -0.0010  -0.0008   0.00    2.3
2022/07/04 00:38:00.000  -2508506.1372  -4637174.8685   3579500.0217   2   7   0.0009   0.0012   0.0012   0.0008  -0.0010  -0.0008   0.00    2.3
2022/07/04 00:38:15.000  -2508506.1372  -4637174.8686   3579500.0217   2   7   0.0009   0.0012   0.0012   0.0008  -0.0010  -0.0008   0.00    2.4
2022/07/04 00:38:30.000  -2508506.1373  -4637174.8686   3579500.0216   2   7   0.0009   0.0012   0.0012   0.0008  -0.0010  -0.0008   0.00    2.5
2022/07/04 00:38:45.000  -2508506.1373  -4637174.8686   3579500.0215   2   7   0.0008   0.0012   0.0012   0.0008  -0.0010  -0.0008   0.00    2.5
2022/07/04 00:39:00.000  -2508506.1373  -4637174.8685   3579500.0214   2   7   0.0008   0.0012   0.0012   0.0008  -0.0010  -0.0008   0.00    2.6
2022/07/04 00:39:15.000  -2508506.1373  -4637174.8685   3579500.0213   2   7   0.0008   0.0012   0.0012   0.0008  -0.0010  -0.0008   0.00    2.6
2022/07/04 00:39:30.000  -2508506.1373  -4637174.8684   3579500.0211   2   7   0.0008   0.0012   0.0012   0.0008  -0.0010  -0.0008   0.00    2.7
2022/07/04 00:39:45.000  -2508506.1373  -4637174.8683   3579500.0210   2   7   0.0008   0.0012   0.0012   0.0008  -0.0010  -0.0008   0.00    2.7
2022/07/04 00:40:00.000  -2508506.1372  -4637174.8681   3579500.0208   2   7   0.0008   0.0012   0.0012   0.0008  -0.0010  -0.0008   0.00    2.8
2022/07/04 00:40:15.000  -2508506.1372  -4637174.8680   3579500.0206   2   7   0.0008   0.0012   0.0012   0.0008  -0.0010  -0.0008   0.00    2.9
2022/07/04 00:40:30.000  -2508506.1372  -4637174.8678   3579500.0203   2   7   0.0008   0.0012   0.0012   0.0008  -0.0010  -0.0008   0.00    2.9
2022/07/04 00:40:45.000  -2508506.1372  -4637174.8676   3579500.0201   2   7   0.0008   0.0012   0.0012   0.0008  -0.0010  -0.0008   0.00    3.0
2022/07/04 00:41:00.000  -2508506.1295  -4637174.8545   3579499.9988   1   7   0.0006   0.0009   0.0009   0.0006  -0.0007  -0.0006   0.00    3.0
2022/07/04 00:41:15.000  -2508506.1296  -4637174.8543   3579499.9986   1   7   0.0006   0.0009   0.0009   0.0006  -0.0007  -0.0006   0.00    3.1
2022/07/04 00:41:30.000  -2508506.1297  -4637174.8540   3579499.9984   1   7   0.0006   0.0009   0.0009   0.0006  -0.0007  -0.0006   0.00    3.1
2022/07/04 00:41:45.000  -2508506.1299  -4637174.8539   3579499.9983   1   7   0.0006   0.0009   0.0009   0.0006  -0.0007  -0.0006   0.00    3.2
2022/07/04 00:42:00.000  -2508506.1301  -4637174.8538   3579499.9983   1   7   0.0006   0.0008   0.0009   0.0006  -0.0007  -0.0006   0.00    3.2
2022/07/04 00:42:15.000  -2508506.1303  -4637174.8537   3579499.9982   1   7   0.0006   0.0008   0.0009   0.0006  -0.0007  -0.0006   0.00    3.3
2022/07/04 00:42:30.000  -2508506.1305  -4637174.8536   3579499.9982   1   7   0.0006   0.0008   0.0009   0.0006  -0.0007  -0.0006   0.00    3.3
2022/07/04 00:42:45.000  -2508506.1307  -4637174.8535   3579499.9981   1   7   0.0006   0.0008   0.0009   0.0006  -0.0007  -0.0006   0.00    3.4
2022/07/04 00:43:00.000  -2508506.1309  -4637174.8534   3579499.9980   1   7   0.0006   0.0008   0.0009   0.0005  -0.0007  -0.0006   0.00    3.4
2022/07/04 00:43:15.000  -2508506.1311  -4637174.8533   3579499.9979   1   7   0.0006   0.0008   0.0009   0.0005  -0.0007  -0.0006   0.00    3.5
2022/07/04 00:43:30.000  -2508506.1314  -4637174.8532   3579499.9979   1   7   0.0006   0.0008   0.0009   0.0005  -0.0007  -0.0006   0.00    4.1
2022/07/04 00:43:45.000  -2508506.1316  -4637174.8532   3579499.9978   1   7   0.0006   0.0008   0.0009   0.0005  -0.0007  -0.0006   0.00    4.7
2022/07/04 00:44:00.000  -2508506.1318  -4637174.8532   3579499.9978   1   7   0.0006   0.0008   0.0009   0.0005  -0.0007  -0.0006   0.00    5.3
2022/07/04 00:44:15.000  -2508506.1320  -4637174.8531   3579499.9978   1   7   0.0006   0.0008   0.0009   0.0005  -0.0007  -0.0006   0.00    5.9
2022/07/04 00:44:30.000  -2508506.1323  -4637174.8531   3579499.9978   1   7   0.0006   0.0008   0.0009   0.0005  -0.0007  -0.0006   0.00    6.5
2022/07/04 00:44:45.000  -2508506.1325  -4637174.8531   3579499.9977   1   7   0.0006   0.0008   0.0009   0.0005  -0.0007  -0.0006   0.00    7.1
2022/07/04 00:45:00.000  -2508506.1328  -4637174.8531   3579499.9977   1   7   0.0006   0.0008   0.0009   0.0005  -0.0007  -0.0006   0.00    7.8
2022/07/04 00:45:15.000  -2508506.1331  -4637174.8532   3579499.9978   1   7   0.0006   0.0008   0.0009   0.0005  -0.0007  -0.0006   0.00    8.4
2022/07/04 00:45:30.000  -2508506.1333  -4637174.8533   3579499.9978   1   7   0.0006   0.0008   0.0009   0.0005  -0.0007  -0.0006   0.00    9.1
2022/07/04 00:45:45.000  -2508506.1336  -4637174.8534   3579499.9979   1   7   0.0006   0.0008   0.0009   0.0005  -0.0007  -0.0006   0.00    9.8
2022/07/04 00:46:00.000  -2508506.1339  -4637174.8536   3579499.9980   1   7   0.0006   0.0008   0.0009   0.0005  -0.0007  -0.0006   0.00   10.5
2022/07/04 00:46:15.000  -2508506.1342  -4637174.8538   3579499.9981   1   7   0.0006   0.0008   0.0009   0.0005  -0.0007  -0.0006   0.00   11.3
2022/07/04 00:46:30.000  -2508506.1346  -4637174.8541   3579499.9983   1   7   0.0006   0.0008   0.0009   0.0005  -0.0007  -0.0006   0.00   12.0
2022/07/04 00:46:45.000  -2508506.1349  -4637174.8543   3579499.9985   1   7   0.0006   0.0008   0.0009   0.0005  -0.0007  -0.0006   0.00   12.8
2022/07/04 00:47:00.000  -2508506.1352  -4637174.8545   3579499.9986   1   7   0.0006   0.0008   0.0009   0.0005  -0.0007  -0.0006   0.00   13.5
2022/07/04 00:47:15.000  -2508506.1355  -4637174.8547   3579499.9987   1   7   0.0006   0.0008   0.0009   0.0005  -0.0007  -0.0006   0.00   14.3
2022/07/04 00:47:30.000  -2508506.1332  -4637174.8524   3579499.9966   1   7   0.0006   0.0008   0.0009   0.0005  -0.0007  -0.0006   0.00   17.9
2022/07/04 00:47:45.000  -2508506.1335  -4637174.8525   3579499.9967   1   7   0.0006   0.0008   0.0009   0.0005  -0.0007  -0.0006   0.00   18.9
2022/07/04 00:48:00.000  -2508506.1337  -4637174.8527   3579499.9968   1   7   0.0006   0.0008   0.0009   0.0005  -0.0007  -0.0006   0.00   19.9
2022/07/04 00:48:15.000  -2508506.1340  -4637174.8528   3579499.9969   1   7   0.0006   0.0008   0.0009   0.0005  -0.0007  -0.0006   0.00   20.9
2022/07/04 00:48:30.000  -2508506.1343  -4637174.8530   3579499.9971   1   7   0.0006   0.0008   0.0009   0.0005  -0.0007  -0.0006   0.00   22.0
2022/07/04 00:48:45.000  -2508506.1346  -4637174.8532   3579499.9972   1   7   0.0006   0.0008   0.0009   0.0005  -0.0007  -0.0006   0.00   23.1
2022/07/04 00:49:00.000  -2508506.1350  -4637174.8534   3579499.9974   1   7   0.0006   0.0008   0.0009   0.0005  -0.0007  -0.0006   0.00   24.2
2022/07/04 00:49:15.000  -2508506.1353  -4637174.8536   3579499.9976   1   7   0.0006   0.0008   0.0009   0.0005  -0.0007  -0.0006   0.00   25.4
2022/07/04 00:49:30.000  -2508506.1356  -4637174.8537   3579499.9978   1   7   0.0006   0.0008   0.0009   0.0005  -0.0007  -0.0006   0.00   26.6
2022/07/04 00:49:45.000  -2508506.1359  -4637174.8539   3579499.9979   1   7   0.0006   0.0008   0.0009   0.0005  -0.0007  -0.0006   0.00   27.8
2022/07/04 00:50:00.000  -2508506.1361  -4637174.8541   3579499.9981   1   7   0.0006   0.0008   0.0009   0.0005  -0.0007  -0.0006   0.00   29.1
2022/07/04 00:50:15.000  -2508506.1364  -4637174.8543   3579499.9983   1   7   0.0006   0.0008   0.0009   0.0005  -0.0007  -0.0006   0.00   30.4
2022/07/04 00:50:30.000  -2508506.1367  -4637174.8545   3579499.9985   1   7   0.0006   0.0008   0.0009   0.0005  -0.0007  -0.0006   0.00   31.7
2022/07/04 00:50:45.000  -2508506.1369  -4637174.8547   3579499.9986   1   7   0.0006   0.0008   0.0009   0.0005  -0.0007  -0.0006   0.00   32.9
2022/07/04 00:51:00.000  -2508506.1371  -4637174.8548   3579499.9988   1   7   0.0006   0.0008   0.0009   0.0005  -0.0007  -0.0006   0.00   33.9
2022/07/04 00:51:15.000  -2508506.1374  -4637174.8550   3579499.9990   1   7   0.0006   0.0008   0.0009   0.0005  -0.0006  -0.0006   0.00   35.0
2022/07/04 00:51:30.000  -2508506.1376  -4637174.8553   3579499.9993   1   7   0.0006   0.0008   0.0009   0.0005  -0.0006  -0.0006   0.00   36.0
2022/07/04 00:51:45.000  -2508506.1378  -4637174.8555   3579499.9995   1   7   0.0006   0.0008   0.0009   0.0005  -0.0006  -0.0006   0.00   37.0
2022/07/04 00:52:00.000  -2508506.1380  -4637174.8557   3579499.9997   1   7   0.0006   0.0008   0.0009   0.0005  -0.0006  -0.0006   0.00   38.2
2022/07/04 00:52:15.000  -2508506.1382  -4637174.8558   3579499.9999   1   7   0.0006   0.0008   0.0008   0.0005  -0.0006  -0.0006   0.00   39.3
2022/07/04 00:52:30.000  -2508506.1384  -4637174.8558   3579500.0000   1   7   0.0006   0.0008   0.0008   0.0005  -0.0006  -0.0006   0.00   40.5
2022/07/04 00:52:45.000  -2508506.1385  -4637174.8559   3579500.0001   1   7   0.0006   0.0008   0.0008   0.0005  -0.0006  -0.0006   0.00   41.5
2022/07/04 00:53:00.000  -2508506.1387  -4637174.8559   3579500.0001   1   7   0.0006   0.0007   0.0008   0.0005  -0.0006  -0.0006   0.00   42.4
2022/07/04 00:53:15.000  -2508506.1388  -4637174.8559   3579500.0002   1   7   0.0006   0.0007   0.0008   0.0005  -0.0006  -0.0006   0.00   43.0
2022/07/04 00:53:30.000  -2508506.1390  -4637174.8559   3579500.0002   1   7   0.0006   0.0007   0.0008   0.0005  -0.0006  -0.0006   0.00   43.5
2022/07/04 00:53:45.000  -2508506.1391  -4637174.8559   3579500.0001   1   7   0.0006   0.0007   0.0008   0.0005  -0.0006  -0.0006   0.00   43.9
2022/07/04 00:54:00.000  -2508506.1392  -4637174.8559   3579500.0001   1   7   0.0006   0.0007   0.0008   0.0005  -0.0006  -0.0006   0.00   44.2
2022/07/04 00:54:15.000  -2508506.1394  -4637174.8559   3579500.0001   1   7   0.0006   0.0007   0.0008   0.0005  -0.0006  -0.0006   0.00   44.5
2022/07/04 00:54:30.000  -2508506.1395  -4637174.8559   3579500.0002   1   7   0.0006   0.0007   0.0008   0.0005  -0.0006  -0.0006   0.00   44.9
2022/07/04 00:54:45.000  -2508506.1397  -4637174.8559   3579500.0002   1   7   0.0006   0.0007   0.0008   0.0005  -0.0006  -0.0006   0.00   45.2
2022/07/04 00:55:00.000  -2508506.1399  -4637174.8560   3579500.0003   1   7   0.0006   0.0007   0.0008   0.0005  -0.0006  -0.0006   0.00   45.5
2022/07/04 00:55:15.000  -2508506.1401  -4637174.8560   3579500.0003   1   7   0.0006   0.0007   0.0008   0.0005  -0.0006  -0.0006   0.00   45.8
2022/07/04 00:55:30.000  -2508506.1402  -4637174.8561   3579500.0004   1   7   0.0006   0.0007   0.0008   0.0005  -0.0006  -0.0006   0.00   46.1
2022/07/04 00:55:45.000  -2508506.1404  -4637174.8561   3579500.0005   1   7   0.0006   0.0007   0.0008   0.0005  -0.0006  -0.0006   0.00   46.3
2022/07/04 00:56:00.000  -2508506.1406  -4637174.8561   3579500.0006   1   7   0.0006   0.0007   0.0008   0.0005  -0.0006  -0.0006   0.00   46.6
2022/07/04 00:56:15.000  -2508506.1407  -4637174.8561   3579500.0007   1   7   0.0005   0.0007   0.0008   0.0005  -0.0006  -0.0006   0.00   47.0
2022/07/04 00:56:30.000  -2508506.1409  -4637174.8561   3579500.0008   1   7   0.0005   0.0007   0.0008   0.0005  -0.0006  -0.0005   0.00   47.5
2022/07/04 00:56:45.000  -2508506.1412  -4637174.8561   3579500.0009   1   7   0.0005   0.0007   0.0008   0.0005  -0.0006  -0.0005   0.00   47.8
2022/07/04 00:57:00.000  -2508506.1414  -4637174.8562   3579500.0011   1   7   0.0005   0.0007   0.0008   0.0005  -0.0006  -0.0005   0.00   48.2
2022/07/04 00:57:15.000  -2508506.1417  -4637174.8563   3579500.0013   1   7   0.0005   0.0007   0.0008   0.0005  -0.0006  -0.0005   0.00   48.5
2022/07/04 00:57:30.000  -2508506.1420  -4637174.8565   3579500.0016   1   7   0.0005   0.0007   0.0008   0.0005  -0.0006  -0.0005   0.00   48.8
2022/07/04 00:57:45.000  -2508506.1423  -4637174.8566   3579500.0019   1   7   0.0005   0.0007   0.0008   0.0005  -0.0006  -0.0005   0.00   49.3
2022/07/04 00:58:00.000  -2508506.1426  -4637174.8567   3579500.0022   1   7   0.0005   0.0007   0.0008   0.0005  -0.0006  -0.0005   0.00   49.8
2022/07/04 00:58:15.000  -2508506.1428  -4637174.8569   3579500.0025   1   7   0.0005   0.0007   0.0008   0.0005  -0.0006  -0.0005   0.00   50.5
2022/07/04 00:58:30.000  -2508506.1432  -4637174.8571   3579500.0029   1   7   0.0005   0.0007   0.0008   0.0005  -0.0006  -0.0005   0.00   51.1
2022/07/04 00:58:45.000  -2508506.1435  -4637174.8572   3579500.0032   1   7   0.0005   0.0007   0.0008   0.0005  -0.0006  -0.0005   0.00   52.0
2022/07/04 00:59:00.000  -2508506.1437  -4637174.8573   3579500.0034   1   7   0.0005   0.0007   0.0008   0.0005  -0.0006  -0.0005   0.00   53.1
2022/07/04 00:59:15.000  -2508506.1439  -4637174.8574   3579500.0036   1   7   0.0005   0.0007   0.0008   0.0005  -0.0006  -0.0005   0.00   54.1
2022/07/04 00:59:30.000  -2508506.1441  -4637174.8575   3579500.0038   1   7   0.0005   0.0007   0.0008   0.0005  -0.0006  -0.0005   0.00   55.1
2022/07/04 00:59:45.000  -2508506.1443  -4637174.8575   3579500.0040   1   7   0.0005   0.0007   0.0008   0.0005  -0.0006  -0.0005   0.00   56.0
2022/07/04 01:00:00.000  -2508506.1445  -4637174.8576   3579500.0042   1   7   0.0005   0.0007   0.0008   0.0005  -0.0006  -0.0005   0.00   56.8
2022/07/04 01:00:15.000  -2508506.1447  -4637174.8577   3579500.0045   1   7   0.0005   0.0007   0.0008   0.0005  -0.0006  -0.0005   0.00   57.6
2022/07/04 01:00:30.000  -2508506.1449  -4637174.8578   3579500.0047   1   7   0.0005   0.0007   0.0008   0.0005  -0.0006  -0.0005   0.00   58.4
2022/07/04 01:00:45.000  -2508506.1452  -4637174.8579   3579500.0049   1   7   0.0005   0.0007   0.0008   0.0005  -0.0006  -0.0005   0.00   59.2
2022/07/04 01:01:00.000  -2508506.1454  -4637174.8580   3579500.0052   1   7   0.0005   0.0007   0.0008   0.0005  -0.0006  -0.0005   0.00   60.0
2022/07/04 01:01:15.000  -2508506.1456  -4637174.8581   3579500.0054   1   7   0.0005   0.0007   0.0008   0.0005  -0.0006  -0.0005   0.00   60.9
2022/07/04 01:01:30.000  -2508506.1458  -4637174.8581   3579500.0057   1   7   0.0005   0.0007   0.0008   0.0005  -0.0006  -0.0005   0.00   61.9
2022/07/04 01:01:45.000  -2508506.1461  -4637174.8582   3579500.0059   1   7   0.0005   0.0007   0.0008   0.0005  -0.0006  -0.0005   0.00   62.9
2022/07/04 01:02:00.000  -2508506.1463  -4637174.8583   3579500.0062   1   7   0.0005   0.0007   0.0008   0.0005  -0.0006  -0.0005   0.00   63.9
2022/07/04 01:02:15.000  -2508506.1465  -4637174.8583   3579500.0064   1   7   0.0005   0.0007   0.0008   0.0005  -0.0006  -0.0005   0.00   64.7
2022/07/04 01:02:30.000  -2508506.1467  -4637174.8584   3579500.0067   1   7   0.0005   0.0007   0.0008   0.0005  -0.0006  -0.0005   0.00   65.5
2022/07/04 01:02:45.000  -2508506.1469  -4637174.8585   3579500.0070   1   7   0.0005   0.0007   0.0008   0.0005  -0.0006  -0.0005   0.00   66.1
2022/07/04 01:03:00.000  -2508506.1471  -4637174.8586   3579500.0074   1   7   0.0005   0.0007   0.0008   0.0005  -0.0006  -0.0005   0.00   66.8
2022/07/04 01:03:15.000  -2508506.1471  -4637174.8609   3579500.0129   2   8   0.0006   0.0008   0.0009   0.0005  -0.0006  -0.0006   0.00    1.0
2022/07/04 01:03:30.000  -2508506.1473  -4637174.8610   3579500.0132   2   8   0.0006   0.0008   0.0009   0.0005  -0.0006  -0.0006   0.00    1.1
2022/07/04 01:03:45.000  -2508506.1475  -4637174.8611   3579500.0134   2   8   0.0006   0.0008   0.0009   0.0005  -0.0006  -0.0006   0.00    1.1
2022/07/04 01:04:00.000  -2508506.1477  -4637174.8612   3579500.0137   2   8   0.0006   0.0008   0.0009   0.0005  -0.0006  -0.0006   0.00    1.1
2022/07/04 01:04:15.000  -2508506.1478  -4637174.8612   3579500.0139   2   8   0.0006   0.0008   0.0009   0.0005  -0.0006  -0.0006   0.00    1.2
2022/07/04 01:04:30.000  -2508506.1479  -4637174.8612   3579500.0142   2   8   0.0006   0.0008   0.0009   0.0005  -0.0006  -0.0006   0.00    1.2
2022/07/04 01:04:45.000  -2508506.1481  -4637174.8613   3579500.0144   2   8   0.0006   0.0008   0.0008   0.0005  -0.0006  -0.0005   0.00    1.3
2022/07/04 01:05:00.000  -2508506.1482  -4637174.8613   3579500.0146   2   8   0.0006   0.0008   0.0008   0.0005  -0.0006  -0.0005   0.00    1.4
2022/07/04 01:05:15.000  -2508506.1483  -4637174.8614   3579500.0148   2   8   0.0006   0.0008   0.0008   0.0005  -0.0006  -0.0005   0.00    1.4
2022/07/04 01:05:30.000  -2508506.1484  -4637174.8615   3579500.0150   2   8   0.0006   0.0007   0.0008   0.0005  -0.0006  -0.0005   0.00    1.5
2022/07/04 01:05:45.000  -2508506.1486  -4637174.8615   3579500.0152   2   8   0.0006   0.0007   0.0008   0.0005  -0.0006  -0.0005   0.00    1.5
2022/07/04 01:06:00.000  -2508506.1487  -4637174.8616   3579500.0154   2   8   0.0006   0.0007   0.0008   0.0005  -0.0006  -0.0005   0.00    1.6
2022/07/04 01:06:15.000  -2508506.1488  -4637174.8617   3579500.0156   2   8   0.0006   0.0007   0.0008   0.0005  -0.0006  -0.0005   0.00    1.6
2022/07/04 01:06:30.000  -2508506.1489  -4637174.8617   3579500.0158   2   8   0.0006   0.0007   0.0008   0.0005  -0.0006  -0.0005   0.00    1.7
2022/07/04 01:06:45.000  -2508506.1490  -4637174.8617   3579500.0160   2   8   0.0006   0.0007   0.0008   0.0005  -0.0006  -0.0005   0.00    1.8
2022/07/04 01:07:00.000  -2508506.1491  -4637174.8618   3579500.0161   2   8   0.0006   0.0007   0.0008   0.0005  -0.0006  -0.0005   0.00    1.8
2022/07/04 01:07:15.000  -2508506.1492  -4637174.8618   3579500.0163   2   8   0.0006   0.0007   0.0008   0.0005  -0.0006  -0.0005   0.00    1.9
2022/07/04 01:07:30.000  -2508506.1493  -4637174.8619   3579500.0165   2   8   0.0006   0.0007   0.0008   0.0005  -0.0006  -0.0005   0.00    1.9
2022/07/04 01:07:45.000  -2508506.1494  -4637174.8619   3579500.0166   2   8   0.0006   0.0007   0.0008   0.0005  -0.0006  -0.0005   0.00    2.0
2022/07/04 01:08:00.000  -2508506.1495  -4637174.8619   3579500.0168   2   8   0.0006   0.0007   0.0008   0.0005  -0.0006  -0.0005   0.00    2.1
2022/07/04 01:08:15.000  -2508506.1496  -4637174.8620   3579500.0169   2   8   0.0006   0.0007   0.0008   0.0005  -0.0006  -0.0005   0.00    2.1
2022/07/04 01:08:30.000  -2508506.1497  -4637174.8620   3579500.0171   2   8   0.0006   0.0007   0.0008   0.0005  -0.0006  -0.0005   0.00    2.2
2022/07/04 01:08:45.000  -2508506.1498  -4637174.8621   3579500.0173   2   8   0.0006   0.0007   0.0008   0.0005  -0.0006  -0.0005   0.00    2.3
2022/07/04 01:09:00.000  -2508506.1523  -4637174.8609   3579500.0168   1   7   0.0005   0.0006   0.0007   0.0004  -0.0005  -0.0005   0.00    3.4
2022/07/04 01:09:15.000  -2508506.1525  -4637174.8610   3579500.0171   1   7   0.0005   0.0006   0.0007   0.0004  -0.0005  -0.0005   0.00    3.5
2022/07/04 01:09:30.000  -2508506.1526  -4637174.8610   3579500.0174   1   7   0.0005   0.0006   0.0007   0.0004  -0.0005  -0.0005   0.00    3.6
2022/07/04 01:09:45.000  -2508506.1528  -4637174.8611   3579500.0176   1   7   0.0005   0.0006   0.0007   0.0004  -0.0005  -0.0005   0.00    3.7
2022/07/04 01:10:00.000  -2508506.1529  -4637174.8611   3579500.0179   1   7   0.0005   0.0006   0.0007   0.0004  -0.0005  -0.0005   0.00    3.8
2022/07/04 01:10:15.000  -2508506.1531  -4637174.8612   3579500.0181   1   7   0.0005   0.0006   0.0007   0.0004  -0.0005  -0.0005   0.00    3.9
2022/07/04 01:10:30.000  -2508506.1532  -4637174.8612   3579500.0182   1   7   0.0005   0.0006   0.0007   0.0004  -0.0005  -0.0005   0.00    4.1
2022/07/04 01:10:45.000  -2508506.1533  -4637174.8612   3579500.0184   1   7   0.0005   0.0006   0.0007   0.0004  -0.0005  -0.0005   0.00    4.2
2022/07/04 01:11:00.000  -2508506.1534  -4637174.8612   3579500.0186   1   7   0.0005   0.0006   0.0007   0.0004  -0.0005  -0.0005   0.00    4.3
2022/07/04 01:11:15.000  -2508506.1536  -4637174.8612   3579500.0188   1   7   0.0005   0.0006   0.0007   0.0004  -0.0005  -0.0005   0.00    4.4
2022/07/04 01:11:30.000  -2508506.1538  -4637174.8613   3579500.0190   1   7   0.0005   0.0006   0.0007   0.0004  -0.0005  -0.0005   0.00    5.3
2022/07/04 01:11:45.000  -2508506.1511  -4637174.8626   3579500.0193   2   8   0.0005   0.0007   0.0008   0.0005  -0.0006  -0.0005   0.00    1.1
2022/07/04 01:12:00.000  -2508506.1512  -4637174.8627   3579500.0194   2   8   0.0005   0.0007   0.0008   0.0005  -0.0006  -0.0005   0.00    1.3
2022/07/04 01:12:15.000  -2508506.1513  -4637174.8627   3579500.0195   2   8   0.0005   0.0007   0.0008   0.0005  -0.0006  -0.0005   0.00    1.4
2022/07/04 01:12:30.000  -2508506.1514  -4637174.8627   3579500.0196   2   8   0.0005   0.0007   0.0008   0.0005  -0.0006  -0.0005   0.00    1.5
2022/07/04 01:12:45.000  -2508506.1515  -4637174.8627   3579500.0196   2   8   0.0005   0.0007   0.0008   0.0005  -0.0006  -0.0005   0.00    1.6
2022/07/04 01:13:00.000  -2508506.1516  -4637174.8627   3579500.0197   2   8   0.0005   0.0007   0.0008   0.0005  -0.0006  -0.0005   0.00    1.7
2022/07/04 01:13:15.000  -2508506.1516  -4637174.8627   3579500.0197   2   8   0.0005   0.0007   0.0008   0.0005  -0.0006  -0.0005   0.00    1.9
2022/07/04 01:13:30.000  -2508506.1517  -4637174.8627   3579500.0198   2   8   0.0005   0.0007   0.0008   0.0005  -0.0006  -0.0005   0.00    2.0
2022/07/04 01:13:45.000  -2508506.1517  -4637174.8627   3579500.0198   2   8   0.0005   0.0007   0.0008   0.0005  -0.0006  -0.0005   0.00    2.1
2022/07/04 01:14:00.000  -2508506.1518  -4637174.8627   3579500.0199   2   8   0.0005   0.0007   0.0008   0.0005  -0.0006  -0.0005   0.00    2.3
2022/07/04 01:14:15.000  -2508506.1519  -4637174.8628   3579500.0199   2   8   0.0005   0.0007   0.0008   0.0005  -0.0006  -0.0005   0.00    2.5
2022/07/04 01:14:30.000  -2508506.1519  -4637174.8628   3579500.0200   2   8   0.0005   0.0007   0.0008   0.0005  -0.0006  -0.0005   0.00    2.6
2022/07/04 01:14:45.000  -2508506.1520  -4637174.8629   3579500.0201   2   8   0.0005   0.0007   0.0008   0.0005  -0.0006  -0.0005   0.00    2.8
2022/07/04 01:15:00.000  -2508506.1521  -4637174.8629   3579500.0202   2   8   0.0005   0.0007   0.0008   0.0005  -0.0006  -0.0005   0.00    2.9
2022/07/04 01:15:15.000  -2508506.1549  -4637174.8613   3579500.0195   1   8   0.0005   0.0006   0.0007   0.0004  -0.0005  -0.0004   0.00    3.1
2022/07/04 01:15:30.000  -2508506.1549  -4637174.8614   3579500.0196   1   8   0.0005   0.0006   0.0007   0.0004  -0.0005  -0.0004   0.00    3.3
2022/07/04 01:15:45.000  -2508506.1550  -4637174.8615   3579500.0196   1   8   0.0005   0.0006   0.0007   0.0004  -0.0005  -0.0004   0.00    3.5
2022/07/04 01:16:00.000  -2508506.1551  -4637174.8615   3579500.0197   1   8   0.0005   0.0006   0.0007   0.0004  -0.0005  -0.0004   0.00    3.7
2022/07/04 01:16:15.000  -2508506.1552  -4637174.8616   3579500.0198   1   8   0.0005   0.0006   0.0007   0.0004  -0.0005  -0.0004   0.00    3.8
2022/07/04 01:16:30.000  -2508506.1553  -4637174.8617   3579500.0199   1   8   0.0005   0.0006   0.0007   0.0004  -0.0005  -0.0004   0.00    4.0
2022/07/04 01:16:45.000  -2508506.1554  -4637174.8618   3579500.0200   1   8   0.0005   0.0006   0.0006   0.0004  -0.0005  -0.0004   0.00    4.1
2022/07/04 01:17:00.000  -2508506.1554  -4637174.8619   3579500.0201   1   8   0.0005   0.0006   0.0006   0.0004  -0.0005  -0.0004   0.00    4.3
2022/07/04 01:17:15.000  -2508506.1555  -4637174.8620   3579500.0202   1   8   0.0005   0.0006   0.0006   0.0004  -0.0005  -0.0004   0.00    4.5
2022/07/04 01:17:30.000  -2508506.1556  -4637174.8621   3579500.0203   1   8   0.0005   0.0006   0.0006   0.0004  -0.0005  -0.0004   0.00    4.6
2022/07/04 01:17:45.000  -2508506.1556  -4637174.8622   3579500.0204   1   8   0.0005   0.0006   0.0006   0.0004  -0.0005  -0.0004   0.00    5.7
2022/07/04 01:18:00.000  -2508506.1557  -4637174.8623   3579500.0205   1   8   0.0005   0.0006   0.0006   0.0004  -0.0005  -0.0004   0.00    6.7
2022/07/04 01:18:15.000  -2508506.1558  -4637174.8624   3579500.0207   1   8   0.0004   0.0006   0.0006   0.0004  -0.0004  -0.0004   0.00    7.8
2022/07/04 01:18:30.000  -2508506.1559  -4637174.8624   3579500.0208   1   8   0.0004   0.0006   0.0006   0.0004  -0.0004  -0.0004   0.00    8.8
2022/07/04 01:18:45.000  -2508506.1560  -4637174.8625   3579500.0210   1   8   0.0004   0.0006   0.0006   0.0004  -0.0004  -0.0004   0.00    9.8
2022/07/04 01:19:00.000  -2508506.1561  -4637174.8626   3579500.0212   1   8   0.0004   0.0006   0.0006   0.0004  -0.0004  -0.0004   0.00   10.8
2022/07/04 01:19:15.000  -2508506.1562  -4637174.8626   3579500.0213   1   8   0.0004   0.0006   0.0006   0.0004  -0.0004  -0.0004   0.00   11.8
2022/07/04 01:19:30.000  -2508506.1563  -4637174.8627   3579500.0215   1   8   0.0004   0.0006   0.0006   0.0004  -0.0004  -0.0004   0.00   12.6
2022/07/04 01:19:45.000  -2508506.1563  -4637174.8627   3579500.0217   1   8   0.0004   0.0006   0.0006   0.0004  -0.0004  -0.0004   0.00   13.5
2022/07/04 01:20:00.000  -2508506.1564  -4637174.8628   3579500.0218   1   8   0.0004   0.0006   0.0006   0.0004  -0.0004  -0.0004   0.00   14.3
2022/07/04 01:20:15.000  -2508506.1565  -4637174.8628   3579500.0220   1   8   0.0004   0.0006   0.0006   0.0004  -0.0004  -0.0004   0.00   15.0
2022/07/04 01:20:30.000  -2508506.1566  -4637174.8629   3579500.0222   1   8   0.0004   0.0006   0.0006   0.0004  -0.0004  -0.0004   0.00   15.8
2022/07/04 01:20:45.000  -2508506.1567  -4637174.8630   3579500.0224   1   8   0.0004   0.0006   0.0006   0.0004  -0.0004  -0.0004   0.00   16.6
2022/07/04 01:21:00.000  -2508506.1568  -4637174.8630   3579500.0226   1   8   0.0004   0.0006   0.0006   0.0004  -0.0004  -0.0004   0.00   17.4
2022/07/04 01:21:15.000  -2508506.1568  -4637174.8631   3579500.0228   1   8   0.0004   0.0006   0.0006   0.0004  -0.0004  -0.0004   0.00   18.2
2022/07/04 01:21:30.000  -2508506.1569  -4637174.8632   3579500.0230   1   8   0.0004   0.0006   0.0006   0.0004  -0.0004  -0.0004   0.00   19.1
2022/07/04 01:21:45.000  -2508506.1570  -4637174.8632   3579500.0232   1   8   0.0004   0.0006   0.0006   0.0004  -0.0004  -0.0004   0.00   20.0
2022/07/04 01:22:00.000  -2508506.1570  -4637174.8633   3579500.0234   1   8   0.0004   0.0006   0.0006   0.0004  -0.0004  -0.0004   0.00   20.9
2022/07/04 01:22:15.000  -2508506.1571  -4637174.8634   3579500.0236   1   8   0.0004   0.0006   0.0006   0.0004  -0.0004  -0.0004   0.00   21.8
2022/07/04 01:22:30.000  -2508506.1572  -4637174.8635   3579500.0237   1   8   0.0004   0.0006   0.0006   0.0004  -0.0004  -0.0004   0.00   22.7
2022/07/04 01:22:45.000  -2508506.1573  -4637174.8636   3579500.0239   1   8   0.0004   0.0006   0.0006   0.0004  -0.0004  -0.0004   0.00   23.6
2022/07/04 01:23:00.000  -2508506.1574  -4637174.8636   3579500.0240   1   8   0.0004   0.0006   0.0006   0.0004  -0.0004  -0.0004   0.00   24.5
2022/07/04 01:23:15.000  -2508506.1574  -4637174.8637   3579500.0242   1   8   0.0004   0.0006   0.0006   0.0004  -0.0004  -0.0004   0.00   25.5
2022/07/04 01:23:30.000  -2508506.1575  -4637174.8638   3579500.0243   1   8   0.0004   0.0006   0.0006   0.0004  -0.0004  -0.0004   0.00   26.5
2022/07/04 01:23:45.000  -2508506.1576  -4637174.8638   3579500.0244   1   8   0.0004   0.0006   0.0006   0.0004  -0.0004  -0.0004   0.00   27.5
2022/07/04 01:24:00.000  -2508506.1576  -4637174.8639   3579500.0244   1   8   0.0004   0.0006   0.0006   0.0004  -0.0004  -0.0004   0.00   28.5
2022/07/04 01:24:15.000  -2508506.1577  -4637174.8640   3579500.0245   1   8   0.0004   0.0006   0.0006   0.0004  -0.0004  -0.0004   0.00   29.5
2022/07/04 01:24:30.000  -2508506.1577  -4637174.8641   3579500.0246   1   8   0.0004   0.0006   0.0006   0.0004  -0.0004  -0.0004   0.00   30.6
2022/07/04 01:24:45.000  -2508506.1577  -4637174.8642   3579500.0246   1   8   0.0004   0.0006   0.0006   0.0004  -0.0004  -0.0004   0.00   31.8
2022/07/04 01:25:00.000  -2508506.1577  -4637174.8643   3579500.0247   1   8   0.0004   0.0006   0.0006   0.0004  -0.0004  -0.0004   0.00   33.1
2022/07/04 01:25:15.000  -2508506.1578  -4637174.8644   3579500.0248   1   8   0.0004   0.0006   0.0006   0.0004  -0.0004  -0.0004   0.00   34.4
2022/07/04 01:25:30.000  -2508506.1578  -4637174.8645   3579500.0248   1   8   0.0004   0.0006   0.0006   0.0004  -0.0004  -0.0004   0.00   35.7
2022/07/04 01:25:45.000  -2508506.1579  -4637174.8646   3579500.0249   1   8   0.0004   0.0006   0.0006   0.0004  -0.0004  -0.0004   0.00   36.9
2022/07/04 01:26:00.000  -2508506.1579  -4637174.8647   3579500.0250   1   8   0.0004   0.0006   0.0006   0.0004  -0.0004  -0.0004   0.00   38.2
2022/07/04 01:26:15.000  -2508506.1580  -4637174.8648   3579500.0250   1   8   0.0004   0.0006   0.0006   0.0004  -0.0004  -0.0004   0.00   39.4
2022/07/04 01:26:30.000  -2508506.1581  -4637174.8649   3579500.0251   1   8   0.0004   0.0006   0.0006   0.0004  -0.0004  -0.0004   0.00   40.7
2022/07/04 01:26:45.000  -2508506.1581  -4637174.8650   3579500.0251   1   8   0.0004   0.0006   0.0006   0.0004  -0.0004  -0.0004   0.00   42.2
2022/07/04 01:27:00.000  -2508506.1582  -4637174.8651   3579500.0252   1   8   0.0004   0.0006   0.0006   0.0004  -0.0004  -0.0004   0.00   43.8
2022/07/04 01:27:15.000  -2508506.1582  -4637174.8652   3579500.0252   1   8   0.0004   0.0006   0.0006   0.0004  -0.0004  -0.0004   0.00   45.5
2022/07/04 01:27:30.000  -2508506.1583  -4637174.8652   3579500.0252   1   8   0.0004   0.0006   0.0006   0.0004  -0.0004  -0.0004   0.00   47.1
2022/07/04 01:27:45.000  -2508506.1584  -4637174.8653   3579500.0252   1   8   0.0004   0.0006   0.0005   0.0004  -0.0004  -0.0004   0.00   48.9
2022/07/04 01:28:00.000  -2508506.1584  -4637174.8654   3579500.0253   1   8   0.0004   0.0006   0.0005   0.0004  -0.0004  -0.0004   0.00   50.7
2022/07/04 01:28:15.000  -2508506.1585  -4637174.8654   3579500.0253   1   8   0.0004   0.0006   0.0005   0.0004  -0.0004  -0.0004   0.00   52.7
2022/07/04 01:28:30.000  -2508506.1586  -4637174.8655   3579500.0253   1   8   0.0004   0.0006   0.0005   0.0004  -0.0004  -0.0004   0.00   54.6
2022/07/04 01:28:45.000  -2508506.1586  -4637174.8655   3579500.0253   1   8   0.0004   0.0006   0.0005   0.0004  -0.0004  -0.0004   0.00   56.5
2022/07/04 01:29:00.000  -2508506.1587  -4637174.8655   3579500.0254   1   8   0.0004   0.0006   0.0005   0.0004  -0.0004  -0.0004   0.00   58.6
2022/07/04 01:29:15.000  -2508506.1588  -4637174.8655   3579500.0254   1   8   0.0004   0.0006   0.0005   0.0004  -0.0004  -0.0003   0.00   60.4
2022/07/04 01:29:30.000  -2508506.1588  -4637174.8655   3579500.0254   1   8   0.0004   0.0006   0.0005   0.0004  -0.0004  -0.0003   0.00   62.1
2022/07/04 01:29:45.000  -2508506.1589  -4637174.8655   3579500.0255   1   8   0.0004   0.0006   0.0005   0.0004  -0.0004  -0.0003   0.00   63.6
2022/07/04 01:30:00.000  -2508506.1590  -4637174.8655   3579500.0255   1   8   0.0004   0.0006   0.0005   0.0004  -0.0004  -0.0003   0.00   65.3
2022/07/04 01:30:15.000  -2508506.1591  -4637174.8655   3579500.0255   1   8   0.0004   0.0006   0.0005   0.0004  -0.0004  -0.0003   0.00   67.0
2022/07/04 01:30:30.000  -2508506.1592  -4637174.8655   3579500.0255   1   8   0.0004   0.0006   0.0005   0.0004  -0.0004  -0.0003   0.00   68.9
2022/07/04 01:30:45.000  -2508506.1592  -4637174.8655   3579500.0255   1   8   0.0004   0.0006   0.0005   0.0004  -0.0004  -0.0003   0.00   70.9
2022/07/04 01:31:00.000  -2508506.1593  -4637174.8655   3579500.0255   1   8   0.0004   0.0006   0.0005   0.0004  -0.0004  -0.0003   0.00   73.0
2022/07/04 01:31:15.000  -2508506.1593  -4637174.8655   3579500.0255   1   8   0.0004   0.0006   0.0005   0.0004  -0.0004  -0.0003   0.00   75.3
2022/07/04 01:31:30.000  -2508506.1594  -4637174.8654   3579500.0254   1   8   0.0004   0.0006   0.0005   0.0004  -0.0004  -0.0003   0.00   77.5
2022/07/04 01:31:45.000  -2508506.1595  -4637174.8654   3579500.0254   1   8   0.0004   0.0006   0.0005   0.0004  -0.0004  -0.0003   0.00   79.6
2022/07/04 01:32:00.000  -2508506.1595  -4637174.8654   3579500.0254   1   8   0.0004   0.0006   0.0005   0.0004  -0.0004  -0.0003   0.00   81.7
2022/07/04 01:32:15.000  -2508506.1596  -4637174.8654   3579500.0254   1   8   0.0004   0.0006   0.0005   0.0004  -0.0004  -0.0003   0.00   84.2
2022/07/04 01:32:30.000  -2508506.1596  -4637174.8654   3579500.0253   1   8   0.0004   0.0006   0.0005   0.0004  -0.0004  -0.0003   0.00   86.4
2022/07/04 01:32:45.000  -2508506.1596  -4637174.8654   3579500.0253   1   8   0.0004   0.0006   0.0005   0.0004  -0.0004  -0.0003   0.00   88.7
2022/07/04 01:33:00.000  -2508506.1596  -4637174.8653   3579500.0252   1   8   0.0004   0.0006   0.0005   0.0004  -0.0004  -0.0003   0.00   90.9
2022/07/04 01:33:15.000  -2508506.1575  -4637174.8653   3579500.0246   2   9   0.0004   0.0006   0.0006   0.0004  -0.0004  -0.0004   0.00    1.2
2022/07/04 01:33:30.000  -2508506.1576  -4637174.8653   3579500.0245   2   9   0.0004   0.0006   0.0006   0.0004  -0.0004  -0.0004   0.00    1.3
2022/07/04 01:33:45.000  -2508506.1576  -4637174.8652   3579500.0245   2   9   0.0004   0.0006   0.0006   0.0004  -0.0004  -0.0004   0.00    1.5
2022/07/04 01:34:00.000  -2508506.1576  -4637174.8652   3579500.0245   2   9   0.0004   0.0006   0.0006   0.0004  -0.0004  -0.0004   0.00    1.6
2022/07/04 01:34:15.000  -2508506.1577  -4637174.8652   3579500.0244   2   9   0.0004   0.0006   0.0006   0.0004  -0.0004  -0.0004   0.00    1.8
2022/07/04 01:34:30.000  -2508506.1577  -4637174.8652   3579500.0244   2   9   0.0004   0.0006   0.0006   0.0004  -0.0004  -0.0004   0.00    1.9
2022/07/04 01:34:45.000  -2508506.1577  -4637174.8651   3579500.0244   2   9   0.0004   0.0006   0.0006   0.0004  -0.0004  -0.0004   0.00    2.1
2022/07/04 01:35:00.000  -2508506.1578  -4637174.8651   3579500.0243   2   9   0.0004   0.0006   0.0006   0.0004  -0.0004  -0.0004   0.00    2.2
2022/07/04 01:35:15.000  -2508506.1578  -4637174.8651   3579500.0243   2   9   0.0004   0.0006   0.0006   0.0004  -0.0004  -0.0004   0.00    2.4
2022/07/04 01:35:30.000  -2508506.1578  -4637174.8650   3579500.0242   2   9   0.0004   0.0006   0.0006   0.0004  -0.0004  -0.0004   0.00    2.5
2022/07/04 01:35:45.000  -2508506.1579  -4637174.8650   3579500.0242   2   9   0.0004   0.0006   0.0006   0.0004  -0.0004  -0.0004   0.00    2.6
2022/07/04 01:36:00.000  -2508506.1579  -4637174.8650   3579500.0242   2   9   0.0004   0.0006   0.0006   0.0004  -0.0004  -0.0004   0.00    2.8
2022/07/04 01:36:15.000  -2508506.1580  -4637174.8649   3579500.0242   2   9   0.0004   0.0006   0.0006   0.0004  -0.0004  -0.0004   0.00    2.9
2022/07/04 01:36:30.000  -2508506.1600  -4637174.8640   3579500.0244   1   9   0.0004   0.0005   0.0005   0.0004  -0.0004  -0.0003   0.00    3.0
2022/07/04 01:36:45.000  -2508506.1600  -4637174.8639   3579500.0243   1   9   0.0004   0.0005   0.0005   0.0004  -0.0004  -0.0003   0.00    3.2
2022/07/04 01:37:00.000  -2508506.1600  -4637174.8638   3579500.0242   1   9   0.0004   0.0005   0.0005   0.0004  -0.0004  -0.0003   0.00    3.3
2022/07/04 01:37:15.000  -2508506.1599  -4637174.8636   3579500.0241   1   9   0.0004   0.0005   0.0005   0.0004  -0.0004  -0.0003   0.00    3.4
2022/07/04 01:37:30.000  -2508506.1599  -4637174.8635   3579500.0239   1   9   0.0004   0.0005   0.0005   0.0004  -0.0004  -0.0003   0.00    3.6
2022/07/04 01:37:45.000  -2508506.1599  -4637174.8634   3579500.0238   1   9   0.0004   0.0005   0.0005   0.0004  -0.0004  -0.0003   0.00    3.7
2022/07/04 01:38:00.000  -2508506.1599  -4637174.8634   3579500.0237   1   9   0.0004   0.0005   0.0005   0.0004  -0.0004  -0.0003   0.00    3.9
2022/07/04 01:38:15.000  -2508506.1599  -4637174.8633   3579500.0236   1   9   0.0004   0.0005   0.0005   0.0004  -0.0004  -0.0003   0.00    4.1
2022/07/04 01:38:30.000  -2508506.1599  -4637174.8632   3579500.0235   1   9   0.0004   0.0005   0.0005   0.0004  -0.0004  -0.0003   0.00    4.2
2022/07/04 01:38:45.000  -2508506.1599  -4637174.8632   3579500.0234   1   9   0.0004   0.0005   0.0005   0.0004  -0.0004  -0.0003   0.00    4.4
2022/07/04 01:39:00.000  -2508506.1599  -4637174.8632   3579500.0233   1   9   0.0004   0.0005   0.0005   0.0004  -0.0004  -0.0003   0.00   15.0
2022/07/04 01:39:15.000  -2508506.1600  -4637174.8632   3579500.0232   1   9   0.0004   0.0005   0.0005   0.0004  -0.0004  -0.0003   0.00   25.6
2022/07/04 01:39:30.000  -2508506.1600  -4637174.8632   3579500.0231   1   9   0.0004   0.0005   0.0005   0.0004  -0.0004  -0.0003   0.00   36.1
2022/07/04 01:39:45.000  -2508506.1600  -4637174.8632   3579500.0230   1   9   0.0004   0.0005   0.0005   0.0004  -0.0004  -0.0003   0.00   46.4
2022/07/04 01:40:00.000  -2508506.1601  -4637174.8632   3579500.0229   1   9   0.0004   0.0005   0.0005   0.0004  -0.0004  -0.0003   0.00   56.4
2022/07/04 01:40:15.000  -2508506.1601  -4637174.8633   3579500.0228   1   9   0.0004   0.0005   0.0005   0.0004  -0.0004  -0.0003   0.00   66.0
2022/07/04 01:40:30.000  -2508506.1602  -4637174.8633   3579500.0227   1   9   0.0004   0.0005   0.0005   0.0004  -0.0004  -0.0003   0.00   75.4
2022/07/04 01:40:45.000  -2508506.1602  -4637174.8634   3579500.0226   1   9   0.0004   0.0005   0.0005   0.0004  -0.0004  -0.0003   0.00   77.3
