% program   : RTKPOST ver.2.4.3 b34
% inp file  : C:\Users\89231\Documents\Учеба\Диссертация\Данные\Лос-Анджелес 03-05.07.22\05.07.2022\chil1860.22o
% inp file  : C:\Users\89231\Documents\Учеба\Диссертация\Данные\Лос-Анджелес 03-05.07.22\05.07.2022\wlsn1860.22o
% inp file  : C:\Users\89231\Documents\Учеба\Диссертация\Данные\Лос-Анджелес 03-05.07.22\05.07.2022\jplm1860.22n
% inp file  : C:\Users\89231\Documents\Учеба\Диссертация\Данные\Лос-Анджелес 03-05.07.22\05.07.2022\igs22172.sp3
% obs start : 2022/07/05 00:00:00.0 GPST (week2217 172800.0s)
% obs end   : 2022/07/05 23:59:45.0 GPST (week2217 259185.0s)
% pos mode  : Static
% freqs     : L1+2
% solution  : Forward
% elev mask : 15.0 deg
% dynamics  : off
% tidecorr  : off
% ionos opt : Broadcast
% tropo opt : Saastamoinen
% ephemeris : Precise
% navi sys  : GPS
% amb res   : Fix and Hold
% val thres : 3.0
% antenna1  :                       ( 0.0000  0.0000  0.6440)
% antenna2  :                       ( 0.0000  0.0000  0.0614)
% ref pos   : -2483640.9733  -4660072.8873   3568172.2297
%
% (x/y/z-ecef=WGS84,Q=1:fix,2:float,3:sbas,4:dgps,5:single,6:ppp,ns=# of satellites)
%  GPST                      x-ecef(m)      y-ecef(m)      z-ecef(m)   Q  ns   sdx(m)   sdy(m)   sdz(m)  sdxy(m)  sdyz(m)  sdzx(m) age(s)  ratio
2022/07/05 00:00:00.000  -2478003.2073  -4655349.5253   3577932.0465   2   8   0.5129   0.9842   0.7533   0.5458  -0.7262  -0.4808   0.00    1.3
2022/07/05 00:00:15.000  -2478003.1109  -4655349.4744   3577932.0043   2   7   0.3718   0.6923   0.5184   0.3891  -0.5027  -0.3381   0.00    1.3
2022/07/05 00:00:30.000  -2478003.0871  -4655349.4460   3577932.0163   2   7   0.2979   0.5487   0.3986   0.3045  -0.3870  -0.2603   0.00    1.3
2022/07/05 00:00:45.000  -2478003.0640  -4655349.3853   3577932.0482   2   7   0.2493   0.4569   0.3195   0.2477  -0.3102  -0.2074   0.00    1.4
2022/07/05 00:01:00.000  -2478003.0488  -4655349.3083   3577932.0271   2   7   0.2142   0.3918   0.2624   0.2059  -0.2546  -0.1686   0.00    1.4
2022/07/05 00:01:15.000  -2478003.0416  -4655349.3089   3577932.0891   2   7   0.1873   0.3430   0.2194   0.1740  -0.2127  -0.1391   0.00    1.4
2022/07/05 00:01:30.000  -2478003.0317  -4655349.2879   3577932.1296   2   7   0.1661   0.3050   0.1861   0.1489  -0.1804  -0.1162   0.00    1.4
2022/07/05 00:01:45.000  -2478003.0769  -4655349.2133   3577932.1581   2   7   0.1489   0.2747   0.1600   0.1287  -0.1551  -0.0982   0.00    1.3
2022/07/05 00:02:00.000  -2478003.1180  -4655349.1361   3577932.1738   2   7   0.1346   0.2499   0.1391   0.1122  -0.1349  -0.0838   0.00    1.3
2022/07/05 00:02:15.000  -2478003.1199  -4655349.0841   3577932.1729   2   7   0.1226   0.2293   0.1222   0.0985  -0.1186  -0.0723   0.00    1.3
2022/07/05 00:02:30.000  -2478003.1354  -4655349.0784   3577932.1896   2   7   0.1123   0.2117   0.1083   0.0870  -0.1053  -0.0628   0.00    1.2
2022/07/05 00:02:45.000  -2478003.1308  -4655349.0673   3577932.1984   2   7   0.1033   0.1965   0.0967   0.0772  -0.0943  -0.0550   0.00    1.2
2022/07/05 00:03:00.000  -2478003.1122  -4655349.0945   3577932.2092   2   7   0.0956   0.1833   0.0870   0.0688  -0.0851  -0.0486   0.00    1.2
2022/07/05 00:03:15.000  -2478003.1220  -4655349.1045   3577932.2200   2   7   0.0887   0.1717   0.0788   0.0615  -0.0773  -0.0431   0.00    1.1
2022/07/05 00:03:30.000  -2478003.1181  -4655349.0854   3577932.2308   2   7   0.0826   0.1613   0.0718   0.0552  -0.0707  -0.0386   0.00    1.1
2022/07/05 00:03:45.000  -2478003.1243  -4655349.0697   3577932.2336   2   7   0.0772   0.1520   0.0657   0.0497  -0.0650  -0.0347   0.00    1.0
2022/07/05 00:04:00.000  -2478003.1403  -4655349.0612   3577932.2568   2   7   0.0723   0.1436   0.0604   0.0448  -0.0600  -0.0313   0.00    1.0
2022/07/05 00:04:15.000  -2478003.1404  -4655349.0354   3577932.2602   2   7   0.0679   0.1359   0.0558   0.0404  -0.0557  -0.0284   0.00    1.1
2022/07/05 00:04:30.000  -2478003.1509  -4655349.0137   3577932.2639   2   7   0.0639   0.1289   0.0518   0.0366  -0.0518  -0.0259   0.00    1.1
2022/07/05 00:04:45.000  -2478003.1579  -4655348.9920   3577932.2682   2   7   0.0603   0.1225   0.0482   0.0332  -0.0485  -0.0237   0.00    1.2
2022/07/05 00:05:00.000  -2478003.1673  -4655348.9628   3577932.2782   2   7   0.0570   0.1166   0.0450   0.0301  -0.0454  -0.0218   0.00    1.3
2022/07/05 00:05:15.000  -2478003.1747  -4655348.9436   3577932.2898   2   7   0.0540   0.1111   0.0421   0.0274  -0.0427  -0.0201   0.00    1.4
2022/07/05 00:05:30.000  -2478003.1780  -4655348.9164   3577932.2912   2   7   0.0512   0.1061   0.0395   0.0249  -0.0403  -0.0186   0.00    1.4
2022/07/05 00:05:45.000  -2478003.1884  -4655348.9175   3577932.2986   2   7   0.0487   0.1013   0.0372   0.0227  -0.0381  -0.0173   0.00    1.4
2022/07/05 00:06:00.000  -2478003.1948  -4655348.9167   3577932.3120   2   7   0.0463   0.0970   0.0351   0.0207  -0.0361  -0.0161   0.00    1.4
2022/07/05 00:06:15.000  -2478003.2012  -4655348.9310   3577932.3193   2   7   0.0442   0.0929   0.0332   0.0189  -0.0342  -0.0150   0.00    1.4
2022/07/05 00:06:30.000  -2478003.2120  -4655348.9524   3577932.3325   2   7   0.0422   0.0891   0.0314   0.0173  -0.0326  -0.0141   0.00    1.4
2022/07/05 00:06:45.000  -2478003.2197  -4655348.9630   3577932.3408   2   7   0.0403   0.0855   0.0298   0.0158  -0.0310  -0.0132   0.00    1.4
2022/07/05 00:07:00.000  -2478003.2243  -4655348.9830   3577932.3500   2   7   0.0386   0.0821   0.0283   0.0145  -0.0296  -0.0124   0.00    1.4
2022/07/05 00:07:15.000  -2478003.2332  -4655348.9925   3577932.3577   2   7   0.0370   0.0789   0.0270   0.0133  -0.0283  -0.0117   0.00    1.4
2022/07/05 00:07:30.000  -2478003.2391  -4655349.0023   3577932.3585   2   7   0.0355   0.0760   0.0257   0.0122  -0.0271  -0.0111   0.00    1.4
2022/07/05 00:07:45.000  -2478003.2455  -4655349.0115   3577932.3568   2   7   0.0341   0.0732   0.0246   0.0112  -0.0260  -0.0105   0.00    1.4
2022/07/05 00:08:00.000  -2478003.2530  -4655349.0194   3577932.3565   2   7   0.0327   0.0705   0.0235   0.0102  -0.0249  -0.0099   0.00    1.3
2022/07/05 00:08:15.000  -2478003.2597  -4655349.0266   3577932.3552   2   7   0.0315   0.0680   0.0225   0.0094  -0.0239  -0.0094   0.00    1.3
2022/07/05 00:08:30.000  -2478003.2666  -4655349.0330   3577932.3501   2   7   0.0303   0.0657   0.0216   0.0086  -0.0230  -0.0090   0.00    1.3
2022/07/05 00:08:45.000  -2478003.2727  -4655349.0339   3577932.3472   2   7   0.0292   0.0634   0.0207   0.0079  -0.0221  -0.0086   0.00    1.3
2022/07/05 00:09:00.000  -2478003.2765  -4655349.0380   3577932.3452   2   7   0.0282   0.0613   0.0199   0.0073  -0.0213  -0.0082   0.00    1.3
2022/07/05 00:09:15.000  -2478003.2803  -4655349.0322   3577932.3433   2   7   0.0273   0.0593   0.0192   0.0067  -0.0206  -0.0078   0.00    1.3
2022/07/05 00:09:30.000  -2478003.2860  -4655349.0243   3577932.3414   2   7   0.0263   0.0574   0.0185   0.0061  -0.0199  -0.0075   0.00    1.3
2022/07/05 00:09:45.000  -2478003.2916  -4655349.0171   3577932.3381   2   7   0.0255   0.0556   0.0178   0.0056  -0.0192  -0.0072   0.00    1.3
2022/07/05 00:10:00.000  -2478003.2976  -4655349.0149   3577932.3374   2   7   0.0247   0.0539   0.0172   0.0052  -0.0186  -0.0069   0.00    1.3
2022/07/05 00:10:15.000  -2478003.3047  -4655349.0182   3577932.3401   2   7   0.0239   0.0522   0.0166   0.0048  -0.0180  -0.0067   0.00    1.3
2022/07/05 00:10:30.000  -2478003.3123  -4655349.0258   3577932.3428   2   7   0.0231   0.0507   0.0160   0.0044  -0.0174  -0.0064   0.00    1.3
2022/07/05 00:10:45.000  -2478003.3194  -4655349.0285   3577932.3427   2   7   0.0224   0.0492   0.0155   0.0040  -0.0169  -0.0062   0.00    1.3
2022/07/05 00:11:00.000  -2478003.3256  -4655349.0353   3577932.3417   2   7   0.0218   0.0478   0.0150   0.0037  -0.0164  -0.0060   0.00    1.3
2022/07/05 00:11:15.000  -2478003.3307  -4655349.0433   3577932.3422   2   7   0.0212   0.0464   0.0145   0.0034  -0.0159  -0.0058   0.00    1.4
2022/07/05 00:11:30.000  -2478003.3343  -4655349.0521   3577932.3427   2   7   0.0206   0.0451   0.0141   0.0031  -0.0154  -0.0056   0.00    1.4
2022/07/05 00:11:45.000  -2478003.3337  -4655349.0604   3577932.3424   2   7   0.0200   0.0439   0.0137   0.0029  -0.0150  -0.0054   0.00    1.4
2022/07/05 00:12:00.000  -2478003.3354  -4655349.0775   3577932.3425   2   7   0.0194   0.0427   0.0133   0.0026  -0.0146  -0.0052   0.00    1.4
2022/07/05 00:12:15.000  -2478003.3362  -4655349.0907   3577932.3426   2   7   0.0189   0.0416   0.0129   0.0024  -0.0142  -0.0051   0.00    1.4
2022/07/05 00:12:30.000  -2478003.3384  -4655349.1058   3577932.3426   2   7   0.0184   0.0405   0.0125   0.0023  -0.0138  -0.0049   0.00    1.4
2022/07/05 00:12:45.000  -2478003.3402  -4655349.1169   3577932.3422   2   7   0.0179   0.0394   0.0122   0.0021  -0.0134  -0.0048   0.00    1.4
2022/07/05 00:13:00.000  -2478003.3415  -4655349.1223   3577932.3405   2   7   0.0175   0.0384   0.0118   0.0020  -0.0131  -0.0046   0.00    1.4
2022/07/05 00:13:15.000  -2478003.3428  -4655349.1342   3577932.3400   2   7   0.0171   0.0375   0.0115   0.0018  -0.0127  -0.0045   0.00    1.4
2022/07/05 00:13:30.000  -2478003.3439  -4655349.1423   3577932.3390   2   7   0.0166   0.0366   0.0112   0.0017  -0.0124  -0.0044   0.00    1.4
2022/07/05 00:13:45.000  -2478003.3446  -4655349.1503   3577932.3392   2   7   0.0162   0.0357   0.0109   0.0016  -0.0121  -0.0043   0.00    1.5
2022/07/05 00:14:00.000  -2478003.3459  -4655349.1569   3577932.3390   2   7   0.0159   0.0348   0.0107   0.0015  -0.0118  -0.0042   0.00    1.5
2022/07/05 00:14:15.000  -2478003.3475  -4655349.1669   3577932.3401   2   7   0.0155   0.0340   0.0104   0.0015  -0.0115  -0.0041   0.00    1.5
2022/07/05 00:14:30.000  -2478003.3470  -4655349.1743   3577932.3400   2   7   0.0151   0.0332   0.0102   0.0014  -0.0113  -0.0040   0.00    1.5
2022/07/05 00:14:45.000  -2478003.3467  -4655349.1838   3577932.3401   2   7   0.0148   0.0325   0.0099   0.0014  -0.0110  -0.0039   0.00    1.5
2022/07/05 00:15:00.000  -2478003.3442  -4655349.1903   3577932.3395   2   7   0.0145   0.0317   0.0097   0.0013  -0.0108  -0.0038   0.00    1.5
2022/07/05 00:15:15.000  -2478003.3416  -4655349.1992   3577932.3389   2   7   0.0142   0.0310   0.0095   0.0013  -0.0105  -0.0037   0.00    1.5
2022/07/05 00:15:30.000  -2478003.3374  -4655349.2054   3577932.3390   2   7   0.0139   0.0304   0.0092   0.0013  -0.0103  -0.0036   0.00    1.5
2022/07/05 00:15:45.000  -2478003.3333  -4655349.2141   3577932.3392   2   7   0.0136   0.0297   0.0090   0.0013  -0.0101  -0.0035   0.00    1.5
2022/07/05 00:16:00.000  -2478003.3288  -4655349.2246   3577932.3392   2   7   0.0133   0.0291   0.0088   0.0013  -0.0099  -0.0035   0.00    1.6
2022/07/05 00:16:15.000  -2478003.3243  -4655349.2342   3577932.3388   2   7   0.0130   0.0285   0.0086   0.0013  -0.0097  -0.0034   0.00    1.6
2022/07/05 00:16:30.000  -2478003.3219  -4655349.2477   3577932.3390   2   7   0.0128   0.0279   0.0085   0.0013  -0.0095  -0.0033   0.00    1.6
2022/07/05 00:16:45.000  -2478003.3194  -4655349.2626   3577932.3410   2   7   0.0125   0.0273   0.0083   0.0013  -0.0093  -0.0033   0.00    1.6
2022/07/05 00:17:00.000  -2478003.3167  -4655349.2713   3577932.3413   2   7   0.0123   0.0268   0.0081   0.0013  -0.0091  -0.0032   0.00    1.6
2022/07/05 00:17:15.000  -2478003.3129  -4655349.2791   3577932.3415   2   7   0.0120   0.0262   0.0079   0.0013  -0.0089  -0.0031   0.00    1.6
2022/07/05 00:17:30.000  -2478003.3091  -4655349.2898   3577932.3423   2   7   0.0118   0.0257   0.0078   0.0014  -0.0087  -0.0031   0.00    1.7
2022/07/05 00:17:45.000  -2478003.3061  -4655349.2968   3577932.3431   2   7   0.0116   0.0252   0.0076   0.0014  -0.0086  -0.0030   0.00    1.7
2022/07/05 00:18:00.000  -2478003.3034  -4655349.3020   3577932.3436   2   7   0.0114   0.0247   0.0075   0.0014  -0.0084  -0.0030   0.00    1.7
2022/07/05 00:18:15.000  -2478003.3030  -4655349.3082   3577932.3442   2   7   0.0112   0.0243   0.0073   0.0014  -0.0083  -0.0029   0.00    1.7
2022/07/05 00:18:30.000  -2478003.3035  -4655349.3120   3577932.3442   2   7   0.0110   0.0238   0.0072   0.0014  -0.0081  -0.0029   0.00    1.8
2022/07/05 00:18:45.000  -2478003.3047  -4655349.3151   3577932.3444   2   8   0.0108   0.0234   0.0071   0.0014  -0.0080  -0.0028   0.00    1.0
2022/07/05 00:19:00.000  -2478003.3054  -4655349.3189   3577932.3442   2   8   0.0106   0.0230   0.0069   0.0015  -0.0078  -0.0028   0.00    1.0
2022/07/05 00:19:15.000  -2478003.3067  -4655349.3192   3577932.3439   2   8   0.0104   0.0226   0.0068   0.0015  -0.0077  -0.0027   0.00    1.1
2022/07/05 00:19:30.000  -2478003.3079  -4655349.3240   3577932.3442   2   8   0.0102   0.0221   0.0067   0.0015  -0.0076  -0.0027   0.00    1.1
2022/07/05 00:19:45.000  -2478003.3093  -4655349.3276   3577932.3445   2   8   0.0101   0.0218   0.0066   0.0015  -0.0074  -0.0026   0.00    1.1
2022/07/05 00:20:00.000  -2478003.3111  -4655349.3306   3577932.3448   2   8   0.0099   0.0214   0.0065   0.0015  -0.0073  -0.0026   0.00    1.1
2022/07/05 00:20:15.000  -2478003.3124  -4655349.3339   3577932.3449   2   8   0.0097   0.0210   0.0064   0.0015  -0.0072  -0.0026   0.00    1.1
2022/07/05 00:20:30.000  -2478003.3138  -4655349.3378   3577932.3449   2   8   0.0096   0.0207   0.0063   0.0016  -0.0071  -0.0025   0.00    1.2
2022/07/05 00:20:45.000  -2478003.3151  -4655349.3382   3577932.3449   2   8   0.0094   0.0203   0.0061   0.0016  -0.0070  -0.0025   0.00    1.2
2022/07/05 00:21:00.000  -2478003.3164  -4655349.3380   3577932.3446   2   8   0.0093   0.0200   0.0060   0.0016  -0.0068  -0.0025   0.00    1.2
2022/07/05 00:21:15.000  -2478003.3180  -4655349.3330   3577932.3442   2   9   0.0092   0.0198   0.0060   0.0015  -0.0068  -0.0024   0.00    1.0
2022/07/05 00:21:30.000  -2478003.3201  -4655349.3292   3577932.3445   2   9   0.0090   0.0195   0.0059   0.0014  -0.0067  -0.0024   0.00    1.1
2022/07/05 00:21:45.000  -2478003.3214  -4655349.3247   3577932.3449   2   9   0.0089   0.0193   0.0058   0.0013  -0.0066  -0.0023   0.00    1.1
2022/07/05 00:22:00.000  -2478003.3220  -4655349.3204   3577932.3455   2   9   0.0088   0.0191   0.0057   0.0012  -0.0065  -0.0023   0.00    1.1
2022/07/05 00:22:15.000  -2478003.3234  -4655349.3162   3577932.3460   2   9   0.0086   0.0189   0.0056   0.0011  -0.0064  -0.0023   0.00    1.2
2022/07/05 00:22:30.000  -2478003.3247  -4655349.3101   3577932.3457   2   9   0.0085   0.0187   0.0055   0.0011  -0.0063  -0.0022   0.00    1.2
2022/07/05 00:22:45.000  -2478003.3259  -4655349.3016   3577932.3451   2   9   0.0084   0.0184   0.0054   0.0010  -0.0063  -0.0022   0.00    1.2
2022/07/05 00:23:00.000  -2478003.3273  -4655349.2958   3577932.3454   2   9   0.0083   0.0182   0.0053   0.0009  -0.0062  -0.0022   0.00    1.3
2022/07/05 00:23:15.000  -2478003.3283  -4655349.2909   3577932.3459   2   9   0.0082   0.0180   0.0053   0.0009  -0.0061  -0.0021   0.00    1.3
2022/07/05 00:23:30.000  -2478003.3296  -4655349.2853   3577932.3466   2   9   0.0080   0.0178   0.0052   0.0008  -0.0060  -0.0021   0.00    1.3
2022/07/05 00:23:45.000  -2478003.3304  -4655349.2798   3577932.3472   2   9   0.0079   0.0176   0.0051   0.0007  -0.0060  -0.0021   0.00    1.3
2022/07/05 00:24:00.000  -2478003.3305  -4655349.2743   3577932.3480   2   9   0.0078   0.0174   0.0051   0.0007  -0.0059  -0.0021   0.00    1.4
2022/07/05 00:24:15.000  -2478003.3304  -4655349.2689   3577932.3484   2   9   0.0077   0.0172   0.0050   0.0006  -0.0058  -0.0020   0.00    1.4
2022/07/05 00:24:30.000  -2478003.3320  -4655349.2655   3577932.3487   2   9   0.0076   0.0170   0.0049   0.0005  -0.0057  -0.0020   0.00    1.4
2022/07/05 00:24:45.000  -2478003.3334  -4655349.2620   3577932.3483   2   9   0.0075   0.0168   0.0048   0.0005  -0.0057  -0.0020   0.00    1.4
2022/07/05 00:25:00.000  -2478003.3351  -4655349.2602   3577932.3485   2   9   0.0074   0.0167   0.0048   0.0004  -0.0056  -0.0020   0.00    1.5
2022/07/05 00:25:15.000  -2478003.3365  -4655349.2584   3577932.3483   2   9   0.0073   0.0165   0.0047   0.0003  -0.0055  -0.0019   0.00    1.5
2022/07/05 00:25:30.000  -2478003.3374  -4655349.2562   3577932.3479   2   9   0.0073   0.0163   0.0047   0.0003  -0.0055  -0.0019   0.00    1.5
2022/07/05 00:25:45.000  -2478003.3374  -4655349.2536   3577932.3472   2   9   0.0072   0.0161   0.0046   0.0002  -0.0054  -0.0019   0.00    1.5
2022/07/05 00:26:00.000  -2478003.3378  -4655349.2527   3577932.3472   2   9   0.0071   0.0159   0.0045   0.0001  -0.0054  -0.0019   0.00    1.5
2022/07/05 00:26:15.000  -2478003.3387  -4655349.2522   3577932.3470   2   9   0.0070   0.0157   0.0045  -0.0001  -0.0053  -0.0019   0.00    1.5
2022/07/05 00:26:30.000  -2478003.3397  -4655349.2521   3577932.3469   2   9   0.0069   0.0156   0.0044  -0.0002  -0.0052  -0.0018   0.00    1.6
2022/07/05 00:26:45.000  -2478003.3400  -4655349.2529   3577932.3471   2   9   0.0068   0.0154   0.0044  -0.0002  -0.0052  -0.0018   0.00    1.6
2022/07/05 00:27:00.000  -2478003.3391  -4655349.2502   3577932.3470   2   9   0.0068   0.0152   0.0043  -0.0002  -0.0051  -0.0018   0.00    1.6
2022/07/05 00:27:15.000  -2478003.3382  -4655349.2482   3577932.3469   2   9   0.0067   0.0151   0.0043  -0.0002  -0.0051  -0.0018   0.00    1.6
2022/07/05 00:27:30.000  -2478003.3374  -4655349.2462   3577932.3467   2   9   0.0066   0.0149   0.0042  -0.0003  -0.0050  -0.0018   0.00    1.6
2022/07/05 00:27:45.000  -2478003.3381  -4655349.2425   3577932.3470   2   9   0.0065   0.0147   0.0042  -0.0003  -0.0050  -0.0017   0.00    1.7
2022/07/05 00:28:00.000  -2478003.3383  -4655349.2397   3577932.3468   2   9   0.0065   0.0146   0.0041  -0.0003  -0.0049  -0.0017   0.00    1.7
2022/07/05 00:28:15.000  -2478003.3384  -4655349.2358   3577932.3464   2   9   0.0064   0.0144   0.0041  -0.0003  -0.0048  -0.0017   0.00    1.7
2022/07/05 00:28:30.000  -2478003.3387  -4655349.2327   3577932.3462   2   9   0.0063   0.0142   0.0040  -0.0003  -0.0048  -0.0017   0.00    1.7
2022/07/05 00:28:45.000  -2478003.3392  -4655349.2303   3577932.3460   2   9   0.0062   0.0141   0.0040  -0.0002  -0.0047  -0.0017   0.00    1.7
2022/07/05 00:29:00.000  -2478003.3404  -4655349.2291   3577932.3461   2   9   0.0062   0.0139   0.0039  -0.0002  -0.0047  -0.0017   0.00    1.7
2022/07/05 00:29:15.000  -2478003.3411  -4655349.2268   3577932.3459   2   9   0.0061   0.0138   0.0039  -0.0002  -0.0046  -0.0016   0.00    1.7
2022/07/05 00:29:30.000  -2478003.3420  -4655349.2263   3577932.3461   2   9   0.0061   0.0136   0.0038  -0.0002  -0.0046  -0.0016   0.00    1.8
2022/07/05 00:29:45.000  -2478003.3430  -4655349.2258   3577932.3463   2   9   0.0060   0.0135   0.0038  -0.0002  -0.0045  -0.0016   0.00    1.8
2022/07/05 00:30:00.000  -2478003.3442  -4655349.2255   3577932.3467   2   9   0.0059   0.0133   0.0038  -0.0001  -0.0045  -0.0016   0.00    1.8
2022/07/05 00:30:15.000  -2478003.3452  -4655349.2256   3577932.3469   2   9   0.0059   0.0132   0.0037  -0.0001  -0.0044  -0.0016   0.00    1.8
2022/07/05 00:30:30.000  -2478003.3463  -4655349.2263   3577932.3468   2   9   0.0058   0.0131   0.0037   0.0001  -0.0044  -0.0016   0.00    1.8
2022/07/05 00:30:45.000  -2478003.3475  -4655349.2247   3577932.3464   2   9   0.0058   0.0129   0.0036   0.0001  -0.0044  -0.0016   0.00    1.8
2022/07/05 00:31:00.000  -2478003.3485  -4655349.2235   3577932.3462   2   9   0.0057   0.0128   0.0036   0.0002  -0.0043  -0.0015   0.00    1.9
2022/07/05 00:31:15.000  -2478003.3487  -4655349.2238   3577932.3462   2   9   0.0056   0.0126   0.0036   0.0002  -0.0043  -0.0015   0.00    1.9
2022/07/05 00:31:30.000  -2478003.3495  -4655349.2263   3577932.3467   2   9   0.0056   0.0125   0.0035   0.0002  -0.0042  -0.0015   0.00    1.9
2022/07/05 00:31:45.000  -2478003.3504  -4655349.2284   3577932.3473   2   9   0.0055   0.0124   0.0035   0.0002  -0.0042  -0.0015   0.00    1.8
2022/07/05 00:32:00.000  -2478003.3513  -4655349.2305   3577932.3478   2   9   0.0055   0.0123   0.0035   0.0002  -0.0041  -0.0015   0.00    1.8
2022/07/05 00:32:15.000  -2478003.3521  -4655349.2322   3577932.3480   2   9   0.0054   0.0121   0.0034   0.0003  -0.0041  -0.0015   0.00    1.8
2022/07/05 00:32:30.000  -2478003.3547  -4655349.2127   3577932.3463   2   9   0.0054   0.0120   0.0034   0.0003  -0.0041  -0.0015   0.00    1.9
2022/07/05 00:32:45.000  -2478003.3567  -4655349.1930   3577932.3448   2   9   0.0053   0.0119   0.0034   0.0003  -0.0040  -0.0015   0.00    2.1
2022/07/05 00:33:00.000  -2478003.3585  -4655349.1730   3577932.3431   2   9   0.0053   0.0118   0.0033   0.0003  -0.0040  -0.0014   0.00    2.1
2022/07/05 00:33:15.000  -2478003.3592  -4655349.1716   3577932.3429   2   8   0.0052   0.0117   0.0033   0.0003  -0.0040  -0.0014   0.00    1.0
2022/07/05 00:33:30.000  -2478003.3596  -4655349.1714   3577932.3433   2   8   0.0052   0.0116   0.0033   0.0002  -0.0039  -0.0014   0.00    1.8
2022/07/05 00:33:45.000  -2478003.3604  -4655349.1716   3577932.3439   2   8   0.0052   0.0115   0.0032   0.0002  -0.0039  -0.0014   0.00    1.8
2022/07/05 00:34:00.000  -2478003.3609  -4655349.1715   3577932.3444   2   8   0.0051   0.0113   0.0032   0.0002  -0.0038  -0.0014   0.00    1.8
2022/07/05 00:34:15.000  -2478003.3613  -4655349.1702   3577932.3447   2   8   0.0051   0.0112   0.0032   0.0002  -0.0038  -0.0014   0.00    1.8
2022/07/05 00:34:30.000  -2478003.3624  -4655349.1685   3577932.3449   2   8   0.0050   0.0111   0.0031   0.0002  -0.0038  -0.0014   0.00    1.9
2022/07/05 00:34:45.000  -2478003.3632  -4655349.1668   3577932.3449   2   8   0.0050   0.0110   0.0031   0.0001  -0.0037  -0.0014   0.00    1.9
2022/07/05 00:35:00.000  -2478003.3643  -4655349.1655   3577932.3450   2   8   0.0049   0.0109   0.0031   0.0001  -0.0037  -0.0014   0.00    1.9
2022/07/05 00:35:15.000  -2478003.3651  -4655349.1640   3577932.3452   2   8   0.0049   0.0108   0.0031   0.0001  -0.0037  -0.0013   0.00    1.9
2022/07/05 00:35:30.000  -2478003.3662  -4655349.1623   3577932.3455   2   8   0.0049   0.0108   0.0030   0.0000  -0.0037  -0.0013   0.00    1.9
2022/07/05 00:35:45.000  -2478003.3674  -4655349.1613   3577932.3460   2   8   0.0048   0.0107   0.0030  -0.0001  -0.0036  -0.0013   0.00    2.0
2022/07/05 00:36:00.000  -2478003.3682  -4655349.1593   3577932.3462   2   8   0.0048   0.0106   0.0030  -0.0001  -0.0036  -0.0013   0.00    2.0
2022/07/05 00:36:15.000  -2478003.3691  -4655349.1590   3577932.3465   2   8   0.0047   0.0105   0.0030  -0.0001  -0.0036  -0.0013   0.00    2.0
2022/07/05 00:36:30.000  -2478003.3700  -4655349.1583   3577932.3468   2   8   0.0047   0.0104   0.0029  -0.0001  -0.0035  -0.0013   0.00    2.0
2022/07/05 00:36:45.000  -2478003.3709  -4655349.1582   3577932.3470   2   8   0.0047   0.0103   0.0029  -0.0002  -0.0035  -0.0013   0.00    2.0
2022/07/05 00:37:00.000  -2478003.3719  -4655349.1573   3577932.3471   2   8   0.0046   0.0102   0.0029  -0.0002  -0.0035  -0.0013   0.00    2.0
2022/07/05 00:37:15.000  -2478003.3730  -4655349.1568   3577932.3474   2   8   0.0046   0.0101   0.0029  -0.0002  -0.0034  -0.0013   0.00    2.0
2022/07/05 00:37:30.000  -2478003.3742  -4655349.1565   3577932.3475   2   8   0.0046   0.0100   0.0028  -0.0002  -0.0034  -0.0013   0.00    2.0
2022/07/05 00:37:45.000  -2478003.3753  -4655349.1568   3577932.3476   2   8   0.0045   0.0099   0.0028  -0.0002  -0.0034  -0.0013   0.00    2.1
2022/07/05 00:38:00.000  -2478003.3764  -4655349.1570   3577932.3478   2   8   0.0045   0.0099   0.0028  -0.0002  -0.0034  -0.0013   0.00    2.1
2022/07/05 00:38:15.000  -2478003.3777  -4655349.1580   3577932.3480   2   8   0.0045   0.0098   0.0028  -0.0002  -0.0033  -0.0012   0.00    2.1
2022/07/05 00:38:30.000  -2478003.3787  -4655349.1585   3577932.3483   2   8   0.0044   0.0097   0.0028  -0.0003  -0.0033  -0.0012   0.00    2.1
2022/07/05 00:38:45.000  -2478003.3796  -4655349.1598   3577932.3487   2   8   0.0044   0.0096   0.0027  -0.0003  -0.0033  -0.0012   0.00    2.1
2022/07/05 00:39:00.000  -2478003.3805  -4655349.1608   3577932.3489   2   8   0.0044   0.0095   0.0027  -0.0003  -0.0033  -0.0012   0.00    2.1
2022/07/05 00:39:15.000  -2478003.3812  -4655349.1619   3577932.3491   2   8   0.0043   0.0094   0.0027  -0.0003  -0.0032  -0.0012   0.00    2.2
2022/07/05 00:39:30.000  -2478003.3816  -4655349.1623   3577932.3491   2   8   0.0043   0.0094   0.0027  -0.0003  -0.0032  -0.0012   0.00    2.2
2022/07/05 00:39:45.000  -2478003.3821  -4655349.1628   3577932.3492   2   8   0.0043   0.0093   0.0026  -0.0003  -0.0032  -0.0012   0.00    2.2
2022/07/05 00:40:00.000  -2478003.3822  -4655349.1630   3577932.3492   2   8   0.0042   0.0092   0.0026  -0.0003  -0.0032  -0.0012   0.00    2.2
2022/07/05 00:40:15.000  -2478003.3824  -4655349.1630   3577932.3493   2   8   0.0042   0.0091   0.0026  -0.0003  -0.0031  -0.0012   0.00    2.2
2022/07/05 00:40:30.000  -2478003.3824  -4655349.1629   3577932.3492   2   8   0.0042   0.0091   0.0026  -0.0003  -0.0031  -0.0012   0.00    2.2
2022/07/05 00:40:45.000  -2478003.3825  -4655349.1628   3577932.3491   2   8   0.0042   0.0090   0.0026  -0.0003  -0.0031  -0.0012   0.00    2.2
2022/07/05 00:41:00.000  -2478003.3824  -4655349.1637   3577932.3492   2   8   0.0041   0.0089   0.0025  -0.0003  -0.0031  -0.0012   0.00    2.2
2022/07/05 00:41:15.000  -2478003.3823  -4655349.1643   3577932.3491   2   8   0.0041   0.0089   0.0025  -0.0004  -0.0030  -0.0012   0.00    2.2
2022/07/05 00:41:30.000  -2478003.3826  -4655349.1653   3577932.3492   2   8   0.0041   0.0088   0.0025  -0.0004  -0.0030  -0.0011   0.00    2.2
2022/07/05 00:41:45.000  -2478003.3830  -4655349.1661   3577932.3492   2   8   0.0041   0.0087   0.0025  -0.0004  -0.0030  -0.0011   0.00    2.2
2022/07/05 00:42:00.000  -2478003.3835  -4655349.1669   3577932.3494   2   8   0.0040   0.0086   0.0025  -0.0004  -0.0030  -0.0011   0.00    2.2
2022/07/05 00:42:15.000  -2478003.3210  -4655349.0689   3577932.3010   1   7   0.0008   0.0009   0.0012   0.0007  -0.0008  -0.0009   0.00   12.7
2022/07/05 00:42:30.000  -2478003.3212  -4655349.0688   3577932.3010   1   7   0.0008   0.0009   0.0012   0.0007  -0.0008  -0.0009   0.00   12.8
2022/07/05 00:42:45.000  -2478003.3213  -4655349.0688   3577932.3009   1   7   0.0008   0.0009   0.0012   0.0007  -0.0008  -0.0009   0.00   12.9
2022/07/05 00:43:00.000  -2478003.3215  -4655349.0688   3577932.3010   1   7   0.0008   0.0009   0.0012   0.0007  -0.0008  -0.0009   0.00   12.9
2022/07/05 00:43:15.000  -2478003.3216  -4655349.0687   3577932.3009   1   7   0.0008   0.0009   0.0012   0.0007  -0.0008  -0.0009   0.00   13.0
2022/07/05 00:43:30.000  -2478003.3217  -4655349.0687   3577932.3010   1   7   0.0008   0.0009   0.0012   0.0007  -0.0008  -0.0009   0.00   13.0
2022/07/05 00:43:45.000  -2478003.3219  -4655349.0686   3577932.3010   1   7   0.0008   0.0009   0.0012   0.0007  -0.0008  -0.0009   0.00   13.0
2022/07/05 00:44:00.000  -2478003.3221  -4655349.0687   3577932.3011   1   7   0.0008   0.0009   0.0012   0.0007  -0.0008  -0.0009   0.00   12.9
2022/07/05 00:44:15.000  -2478003.3222  -4655349.0687   3577932.3011   1   7   0.0008   0.0009   0.0012   0.0007  -0.0008  -0.0009   0.00   13.0
2022/07/05 00:44:30.000  -2478003.3224  -4655349.0688   3577932.3013   1   7   0.0008   0.0009   0.0012   0.0007  -0.0008  -0.0009   0.00   13.0
2022/07/05 00:44:45.000  -2478003.3225  -4655349.0687   3577932.3013   1   7   0.0008   0.0009   0.0012   0.0007  -0.0008  -0.0009   0.00   16.1
2022/07/05 00:45:00.000  -2478003.3227  -4655349.0688   3577932.3015   1   7   0.0008   0.0009   0.0012   0.0007  -0.0008  -0.0009   0.00   18.3
2022/07/05 00:45:15.000  -2478003.3228  -4655349.0688   3577932.3016   1   7   0.0008   0.0009   0.0012   0.0007  -0.0008  -0.0009   0.00   20.4
2022/07/05 00:45:30.000  -2478003.3230  -4655349.0688   3577932.3017   1   7   0.0008   0.0009   0.0012   0.0007  -0.0008  -0.0009   0.00   22.4
2022/07/05 00:45:45.000  -2478003.3232  -4655349.0689   3577932.3018   1   7   0.0008   0.0009   0.0012   0.0007  -0.0008  -0.0008   0.00   24.5
2022/07/05 00:46:00.000  -2478003.3234  -4655349.0690   3577932.3019   1   7   0.0008   0.0009   0.0012   0.0007  -0.0008  -0.0008   0.00   26.5
2022/07/05 00:46:15.000  -2478003.3236  -4655349.0691   3577932.3020   1   7   0.0008   0.0009   0.0011   0.0007  -0.0008  -0.0008   0.00   28.6
2022/07/05 00:46:30.000  -2478003.3238  -4655349.0691   3577932.3021   1   7   0.0008   0.0009   0.0011   0.0007  -0.0008  -0.0008   0.00   30.7
2022/07/05 00:46:45.000  -2478003.3240  -4655349.0692   3577932.3022   1   7   0.0008   0.0009   0.0011   0.0007  -0.0008  -0.0008   0.00   32.7
2022/07/05 00:47:00.000  -2478003.3242  -4655349.0693   3577932.3023   1   7   0.0008   0.0009   0.0011   0.0006  -0.0008  -0.0008   0.00   34.8
2022/07/05 00:47:15.000  -2478003.3244  -4655349.0694   3577932.3024   1   7   0.0008   0.0009   0.0011   0.0006  -0.0008  -0.0008   0.00   37.0
2022/07/05 00:47:30.000  -2478003.3246  -4655349.0695   3577932.3025   1   7   0.0008   0.0009   0.0011   0.0006  -0.0008  -0.0008   0.00   39.1
2022/07/05 00:47:45.000  -2478003.3248  -4655349.0697   3577932.3027   1   7   0.0008   0.0009   0.0011   0.0006  -0.0008  -0.0008   0.00   41.2
2022/07/05 00:48:00.000  -2478003.3250  -4655349.0699   3577932.3028   1   7   0.0008   0.0009   0.0011   0.0006  -0.0008  -0.0008   0.00   43.4
2022/07/05 00:48:15.000  -2478003.3252  -4655349.0700   3577932.3029   1   7   0.0008   0.0009   0.0011   0.0006  -0.0008  -0.0008   0.00   45.6
2022/07/05 00:48:30.000  -2478003.3254  -4655349.0702   3577932.3030   1   7   0.0008   0.0008   0.0011   0.0006  -0.0008  -0.0008   0.00   47.9
2022/07/05 00:48:45.000  -2478003.3256  -4655349.0703   3577932.3031   1   7   0.0008   0.0008   0.0011   0.0006  -0.0008  -0.0008   0.00   50.3
2022/07/05 00:49:00.000  -2478003.3257  -4655349.0703   3577932.3031   1   7   0.0008   0.0008   0.0011   0.0006  -0.0008  -0.0008   0.00   52.7
2022/07/05 00:49:15.000  -2478003.3259  -4655349.0703   3577932.3032   1   7   0.0008   0.0008   0.0011   0.0006  -0.0008  -0.0008   0.00   55.1
2022/07/05 00:49:30.000  -2478003.3261  -4655349.0703   3577932.3032   1   7   0.0008   0.0008   0.0011   0.0006  -0.0008  -0.0008   0.00   57.5
2022/07/05 00:49:45.000  -2478003.3263  -4655349.0703   3577932.3033   1   7   0.0008   0.0008   0.0011   0.0006  -0.0008  -0.0008   0.00   59.9
2022/07/05 00:50:00.000  -2478003.3265  -4655349.0703   3577932.3034   1   7   0.0008   0.0008   0.0011   0.0006  -0.0008  -0.0008   0.00   62.4
2022/07/05 00:50:15.000  -2478003.3267  -4655349.0703   3577932.3035   1   7   0.0008   0.0008   0.0011   0.0006  -0.0008  -0.0008   0.00   64.7
2022/07/05 00:50:30.000  -2478003.3269  -4655349.0703   3577932.3036   1   7   0.0008   0.0008   0.0011   0.0006  -0.0008  -0.0008   0.00   66.8
2022/07/05 00:50:45.000  -2478003.3272  -4655349.0704   3577932.3037   1   7   0.0008   0.0008   0.0011   0.0006  -0.0007  -0.0008   0.00   69.1
2022/07/05 00:51:00.000  -2478003.3274  -4655349.0704   3577932.3039   1   7   0.0008   0.0008   0.0011   0.0006  -0.0007  -0.0008   0.00   71.2
2022/07/05 00:51:15.000  -2478003.3277  -4655349.0705   3577932.3041   1   7   0.0008   0.0008   0.0011   0.0006  -0.0007  -0.0008   0.00   73.1
2022/07/05 00:51:30.000  -2478003.3280  -4655349.0705   3577932.3044   1   7   0.0007   0.0008   0.0011   0.0006  -0.0007  -0.0008   0.00   75.3
2022/07/05 00:51:45.000  -2478003.3283  -4655349.0706   3577932.3045   1   7   0.0007   0.0008   0.0011   0.0006  -0.0007  -0.0008   0.00   77.5
2022/07/05 00:52:00.000  -2478003.3285  -4655349.0706   3577932.3047   1   7   0.0007   0.0008   0.0011   0.0006  -0.0007  -0.0008   0.00   79.7
2022/07/05 00:52:15.000  -2478003.3288  -4655349.0706   3577932.3049   1   7   0.0007   0.0008   0.0011   0.0006  -0.0007  -0.0008   0.00   82.0
2022/07/05 00:52:30.000  -2478003.3290  -4655349.0706   3577932.3050   1   7   0.0007   0.0008   0.0011   0.0006  -0.0007  -0.0008   0.00   84.4
2022/07/05 00:52:45.000  -2478003.3293  -4655349.0707   3577932.3053   1   7   0.0007   0.0008   0.0011   0.0006  -0.0007  -0.0008   0.00   86.8
2022/07/05 00:53:00.000  -2478003.3296  -4655349.0708   3577932.3056   1   7   0.0007   0.0008   0.0011   0.0006  -0.0007  -0.0008   0.00   89.4
2022/07/05 00:53:15.000  -2478003.3300  -4655349.0709   3577932.3059   1   7   0.0007   0.0008   0.0011   0.0006  -0.0007  -0.0008   0.00   92.1
2022/07/05 00:53:30.000  -2478003.3303  -4655349.0710   3577932.3062   1   7   0.0007   0.0008   0.0011   0.0006  -0.0007  -0.0008   0.00   95.0
2022/07/05 00:53:45.000  -2478003.3307  -4655349.0712   3577932.3066   1   7   0.0007   0.0008   0.0011   0.0006  -0.0007  -0.0008   0.00   98.1
2022/07/05 00:54:00.000  -2478003.3310  -4655349.0713   3577932.3070   1   7   0.0007   0.0008   0.0011   0.0006  -0.0007  -0.0008   0.00  101.0
2022/07/05 00:54:15.000  -2478003.3313  -4655349.0714   3577932.3073   1   7   0.0007   0.0008   0.0011   0.0006  -0.0007  -0.0008   0.00  104.0
2022/07/05 00:54:30.000  -2478003.3316  -4655349.0714   3577932.3075   1   7   0.0007   0.0008   0.0011   0.0006  -0.0007  -0.0008   0.00  107.3
2022/07/05 00:54:45.000  -2478003.3319  -4655349.0715   3577932.3078   1   7   0.0007   0.0008   0.0011   0.0006  -0.0007  -0.0008   0.00  111.1
2022/07/05 00:55:00.000  -2478003.3322  -4655349.0716   3577932.3081   1   7   0.0007   0.0008   0.0011   0.0006  -0.0007  -0.0007   0.00  114.4
2022/07/05 00:55:15.000  -2478003.3324  -4655349.0716   3577932.3083   1   7   0.0007   0.0008   0.0010   0.0006  -0.0007  -0.0007   0.00  118.3
2022/07/05 00:55:30.000  -2478003.3327  -4655349.0716   3577932.3086   1   7   0.0007   0.0008   0.0010   0.0006  -0.0007  -0.0007   0.00  122.0
2022/07/05 00:55:45.000  -2478003.3329  -4655349.0717   3577932.3088   1   7   0.0007   0.0008   0.0010   0.0006  -0.0007  -0.0007   0.00  126.3
2022/07/05 00:56:00.000  -2478003.3332  -4655349.0717   3577932.3090   1   7   0.0007   0.0008   0.0010   0.0006  -0.0007  -0.0007   0.00  130.1
2022/07/05 00:56:15.000  -2478003.3335  -4655349.0718   3577932.3092   1   7   0.0007   0.0008   0.0010   0.0006  -0.0007  -0.0007   0.00  134.5
2022/07/05 00:56:30.000  -2478003.3337  -4655349.0718   3577932.3095   1   7   0.0007   0.0008   0.0010   0.0006  -0.0007  -0.0007   0.00  139.5
2022/07/05 00:56:45.000  -2478003.3340  -4655349.0720   3577932.3098   1   7   0.0007   0.0008   0.0010   0.0006  -0.0007  -0.0007   0.00  144.5
2022/07/05 00:57:00.000  -2478003.3343  -4655349.0721   3577932.3100   1   7   0.0007   0.0008   0.0010   0.0006  -0.0007  -0.0007   0.00  149.5
2022/07/05 00:57:15.000  -2478003.3345  -4655349.0721   3577932.3103   1   7   0.0007   0.0008   0.0010   0.0006  -0.0007  -0.0007   0.00  154.2
2022/07/05 00:57:30.000  -2478003.3348  -4655349.0722   3577932.3105   1   7   0.0007   0.0008   0.0010   0.0006  -0.0007  -0.0007   0.00  158.9
2022/07/05 00:57:45.000  -2478003.3350  -4655349.0722   3577932.3107   1   7   0.0007   0.0008   0.0010   0.0006  -0.0007  -0.0007   0.00  163.6
2022/07/05 00:58:00.000  -2478003.3353  -4655349.0723   3577932.3109   1   7   0.0007   0.0008   0.0010   0.0006  -0.0007  -0.0007   0.00  167.6
2022/07/05 00:58:15.000  -2478003.3355  -4655349.0724   3577932.3111   1   7   0.0007   0.0008   0.0010   0.0006  -0.0007  -0.0007   0.00  171.7
2022/07/05 00:58:30.000  -2478003.3357  -4655349.0724   3577932.3114   1   7   0.0007   0.0008   0.0010   0.0006  -0.0007  -0.0007   0.00  175.7
2022/07/05 00:58:45.000  -2478003.3359  -4655349.0724   3577932.3116   1   7   0.0007   0.0008   0.0010   0.0006  -0.0007  -0.0007   0.00  179.8
2022/07/05 00:59:00.000  -2478003.3398  -4655349.0781   3577932.3202   2   8   0.0009   0.0010   0.0012   0.0007  -0.0008  -0.0008   0.00    1.1
2022/07/05 00:59:15.000  -2478003.3399  -4655349.0782   3577932.3203   2   8   0.0009   0.0010   0.0012   0.0007  -0.0008  -0.0008   0.00    1.3
2022/07/05 00:59:30.000  -2478003.3402  -4655349.0782   3577932.3205   2   8   0.0009   0.0010   0.0012   0.0007  -0.0008  -0.0008   0.00    1.4
2022/07/05 00:59:45.000  -2478003.3404  -4655349.0783   3577932.3207   2   8   0.0009   0.0010   0.0012   0.0007  -0.0008  -0.0008   0.00    1.6
2022/07/05 01:00:00.000  -2478003.3406  -4655349.0784   3577932.3209   2   8   0.0009   0.0010   0.0012   0.0007  -0.0008  -0.0008   0.00    1.7
2022/07/05 01:00:15.000  -2478003.3407  -4655349.0785   3577932.3211   2   8   0.0009   0.0010   0.0012   0.0007  -0.0008  -0.0008   0.00    2.0
2022/07/05 01:00:30.000  -2478003.3409  -4655349.0786   3577932.3213   2   8   0.0009   0.0010   0.0012   0.0007  -0.0008  -0.0008   0.00    2.2
2022/07/05 01:00:45.000  -2478003.3411  -4655349.0787   3577932.3215   2   8   0.0009   0.0010   0.0012   0.0007  -0.0008  -0.0008   0.00    2.4
2022/07/05 01:01:00.000  -2478003.3413  -4655349.0788   3577932.3217   2   8   0.0009   0.0010   0.0012   0.0007  -0.0008  -0.0008   0.00    2.6
2022/07/05 01:01:15.000  -2478003.3414  -4655349.0789   3577932.3219   2   8   0.0008   0.0010   0.0012   0.0007  -0.0008  -0.0008   0.00    2.9
2022/07/05 01:01:30.000  -2478003.3402  -4655349.0747   3577932.3175   1   8   0.0006   0.0007   0.0009   0.0005  -0.0006  -0.0006   0.00    3.2
2022/07/05 01:01:45.000  -2478003.3406  -4655349.0749   3577932.3180   1   8   0.0006   0.0007   0.0009   0.0005  -0.0006  -0.0006   0.00    3.5
2022/07/05 01:02:00.000  -2478003.3411  -4655349.0751   3577932.3184   1   8   0.0006   0.0007   0.0009   0.0005  -0.0006  -0.0006   0.00    3.8
2022/07/05 01:02:15.000  -2478003.3414  -4655349.0753   3577932.3188   1   8   0.0006   0.0007   0.0009   0.0005  -0.0006  -0.0006   0.00    4.0
2022/07/05 01:02:30.000  -2478003.3418  -4655349.0755   3577932.3192   1   8   0.0006   0.0007   0.0009   0.0005  -0.0006  -0.0006   0.00    4.3
2022/07/05 01:02:45.000  -2478003.3421  -4655349.0757   3577932.3196   1   8   0.0006   0.0007   0.0009   0.0005  -0.0006  -0.0006   0.00    4.5
2022/07/05 01:03:00.000  -2478003.3425  -4655349.0759   3577932.3200   1   8   0.0006   0.0007   0.0009   0.0005  -0.0006  -0.0006   0.00    4.7
2022/07/05 01:03:15.000  -2478003.3428  -4655349.0760   3577932.3203   1   8   0.0006   0.0007   0.0009   0.0005  -0.0006  -0.0006   0.00    4.9
2022/07/05 01:03:30.000  -2478003.3432  -4655349.0762   3577932.3207   1   8   0.0006   0.0007   0.0009   0.0005  -0.0006  -0.0006   0.00    5.2
2022/07/05 01:03:45.000  -2478003.3435  -4655349.0763   3577932.3211   1   8   0.0006   0.0007   0.0009   0.0005  -0.0006  -0.0006   0.00    5.4
2022/07/05 01:04:00.000  -2478003.3438  -4655349.0764   3577932.3214   1   8   0.0006   0.0007   0.0009   0.0005  -0.0006  -0.0006   0.00    8.4
2022/07/05 01:04:15.000  -2478003.3441  -4655349.0766   3577932.3217   1   8   0.0006   0.0007   0.0009   0.0005  -0.0006  -0.0006   0.00   11.6
2022/07/05 01:04:30.000  -2478003.3444  -4655349.0767   3577932.3220   1   8   0.0006   0.0007   0.0009   0.0005  -0.0006  -0.0006   0.00   15.0
2022/07/05 01:04:45.000  -2478003.3447  -4655349.0768   3577932.3223   1   8   0.0006   0.0007   0.0009   0.0005  -0.0006  -0.0006   0.00   18.6
2022/07/05 01:05:00.000  -2478003.3449  -4655349.0770   3577932.3226   1   8   0.0006   0.0007   0.0008   0.0005  -0.0006  -0.0006   0.00   22.4
2022/07/05 01:05:15.000  -2478003.3452  -4655349.0771   3577932.3229   1   8   0.0006   0.0007   0.0008   0.0005  -0.0006  -0.0006   0.00   26.2
2022/07/05 01:05:30.000  -2478003.3454  -4655349.0771   3577932.3230   1   8   0.0006   0.0007   0.0008   0.0005  -0.0006  -0.0006   0.00   30.2
2022/07/05 01:05:45.000  -2478003.3456  -4655349.0772   3577932.3232   1   8   0.0006   0.0007   0.0008   0.0005  -0.0006  -0.0006   0.00   34.2
2022/07/05 01:06:00.000  -2478003.3458  -4655349.0772   3577932.3233   1   8   0.0006   0.0007   0.0008   0.0005  -0.0005  -0.0006   0.00   38.3
2022/07/05 01:06:15.000  -2478003.3460  -4655349.0773   3577932.3235   1   8   0.0006   0.0007   0.0008   0.0005  -0.0005  -0.0006   0.00   42.5
2022/07/05 01:06:30.000  -2478003.3463  -4655349.0774   3577932.3237   1   8   0.0006   0.0007   0.0008   0.0005  -0.0005  -0.0006   0.00   46.6
2022/07/05 01:06:45.000  -2478003.3465  -4655349.0774   3577932.3238   1   8   0.0006   0.0007   0.0008   0.0005  -0.0005  -0.0006   0.00   51.1
2022/07/05 01:07:00.000  -2478003.3467  -4655349.0775   3577932.3240   1   8   0.0006   0.0007   0.0008   0.0005  -0.0005  -0.0006   0.00   55.5
2022/07/05 01:07:15.000  -2478003.3469  -4655349.0775   3577932.3242   1   8   0.0006   0.0007   0.0008   0.0005  -0.0005  -0.0005   0.00   60.4
2022/07/05 01:07:30.000  -2478003.3472  -4655349.0776   3577932.3244   1   8   0.0006   0.0007   0.0008   0.0005  -0.0005  -0.0005   0.00   65.4
2022/07/05 01:07:45.000  -2478003.3474  -4655349.0777   3577932.3246   1   8   0.0006   0.0007   0.0008   0.0005  -0.0005  -0.0005   0.00   70.5
2022/07/05 01:08:00.000  -2478003.3477  -4655349.0777   3577932.3247   1   8   0.0006   0.0007   0.0008   0.0005  -0.0005  -0.0005   0.00   75.8
2022/07/05 01:08:15.000  -2478003.3479  -4655349.0778   3577932.3248   1   8   0.0006   0.0007   0.0008   0.0005  -0.0005  -0.0005   0.00   81.2
2022/07/05 01:08:30.000  -2478003.3481  -4655349.0778   3577932.3249   1   8   0.0006   0.0007   0.0008   0.0005  -0.0005  -0.0005   0.00   86.0
2022/07/05 01:08:45.000  -2478003.3482  -4655349.0778   3577932.3250   1   8   0.0006   0.0007   0.0008   0.0005  -0.0005  -0.0005   0.00   90.9
2022/07/05 01:09:00.000  -2478003.3484  -4655349.0779   3577932.3251   1   8   0.0006   0.0007   0.0008   0.0005  -0.0005  -0.0005   0.00   95.6
2022/07/05 01:09:15.000  -2478003.3486  -4655349.0779   3577932.3252   1   8   0.0006   0.0007   0.0008   0.0005  -0.0005  -0.0005   0.00  100.8
2022/07/05 01:09:30.000  -2478003.3488  -4655349.0779   3577932.3254   1   8   0.0006   0.0007   0.0008   0.0005  -0.0005  -0.0005   0.00  106.5
2022/07/05 01:09:45.000  -2478003.3489  -4655349.0780   3577932.3255   1   8   0.0006   0.0007   0.0008   0.0005  -0.0005  -0.0005   0.00  112.2
2022/07/05 01:10:00.000  -2478003.3491  -4655349.0780   3577932.3256   1   8   0.0006   0.0007   0.0008   0.0005  -0.0005  -0.0005   0.00  118.0
2022/07/05 01:10:15.000  -2478003.3493  -4655349.0780   3577932.3258   1   8   0.0006   0.0007   0.0007   0.0005  -0.0005  -0.0005   0.00  124.2
2022/07/05 01:10:30.000  -2478003.3495  -4655349.0781   3577932.3259   1   8   0.0006   0.0007   0.0007   0.0005  -0.0005  -0.0005   0.00  130.2
2022/07/05 01:10:45.000  -2478003.3496  -4655349.0781   3577932.3261   1   8   0.0006   0.0007   0.0007   0.0005  -0.0005  -0.0005   0.00  136.5
2022/07/05 01:11:00.000  -2478003.3498  -4655349.0781   3577932.3263   1   8   0.0006   0.0007   0.0007   0.0005  -0.0005  -0.0005   0.00  142.9
2022/07/05 01:11:15.000  -2478003.3500  -4655349.0781   3577932.3264   1   8   0.0005   0.0007   0.0007   0.0005  -0.0005  -0.0005   0.00  149.1
2022/07/05 01:11:30.000  -2478003.3502  -4655349.0781   3577932.3266   1   8   0.0005   0.0007   0.0007   0.0005  -0.0005  -0.0005   0.00  154.9
2022/07/05 01:11:45.000  -2478003.3503  -4655349.0781   3577932.3268   1   8   0.0005   0.0007   0.0007   0.0005  -0.0005  -0.0005   0.00  160.8
2022/07/05 01:12:00.000  -2478003.3505  -4655349.0781   3577932.3269   1   8   0.0005   0.0007   0.0007   0.0005  -0.0005  -0.0005   0.00  165.4
2022/07/05 01:12:15.000  -2478003.3506  -4655349.0782   3577932.3271   1   8   0.0005   0.0007   0.0007   0.0005  -0.0005  -0.0005   0.00  169.7
2022/07/05 01:12:30.000  -2478003.3508  -4655349.0782   3577932.3272   1   8   0.0005   0.0007   0.0007   0.0005  -0.0005  -0.0005   0.00  173.7
2022/07/05 01:12:45.000  -2478003.3510  -4655349.0782   3577932.3274   1   8   0.0005   0.0007   0.0007   0.0005  -0.0005  -0.0005   0.00  177.0
2022/07/05 01:13:00.000  -2478003.3511  -4655349.0783   3577932.3275   1   8   0.0005   0.0007   0.0007   0.0005  -0.0005  -0.0005   0.00  180.2
2022/07/05 01:13:15.000  -2478003.3512  -4655349.0783   3577932.3277   1   8   0.0005   0.0007   0.0007   0.0004  -0.0005  -0.0005   0.00  183.9
2022/07/05 01:13:30.000  -2478003.3513  -4655349.0783   3577932.3278   1   8   0.0005   0.0007   0.0007   0.0004  -0.0005  -0.0005   0.00  187.0
2022/07/05 01:13:45.000  -2478003.3514  -4655349.0784   3577932.3279   1   8   0.0005   0.0007   0.0007   0.0004  -0.0005  -0.0005   0.00  190.0
2022/07/05 01:14:00.000  -2478003.3515  -4655349.0784   3577932.3280   1   8   0.0005   0.0007   0.0007   0.0004  -0.0005  -0.0005   0.00  192.8
2022/07/05 01:14:15.000  -2478003.3516  -4655349.0784   3577932.3281   1   8   0.0005   0.0007   0.0007   0.0004  -0.0005  -0.0005   0.00  195.8
2022/07/05 01:14:30.000  -2478003.3517  -4655349.0785   3577932.3283   1   8   0.0005   0.0007   0.0007   0.0004  -0.0005  -0.0005   0.00  198.6
2022/07/05 01:14:45.000  -2478003.3518  -4655349.0786   3577932.3284   1   8   0.0005   0.0007   0.0007   0.0004  -0.0005  -0.0005   0.00  201.9
2022/07/05 01:15:00.000  -2478003.3520  -4655349.0786   3577932.3286   1   8   0.0005   0.0007   0.0007   0.0004  -0.0005  -0.0005   0.00  206.0
2022/07/05 01:15:15.000  -2478003.3521  -4655349.0787   3577932.3288   1   8   0.0005   0.0007   0.0007   0.0004  -0.0005  -0.0005   0.00  208.8
2022/07/05 01:15:30.000  -2478003.3522  -4655349.0788   3577932.3289   1   8   0.0005   0.0007   0.0007   0.0004  -0.0005  -0.0005   0.00  211.6
2022/07/05 01:15:45.000  -2478003.3523  -4655349.0789   3577932.3291   1   8   0.0005   0.0007   0.0007   0.0004  -0.0005  -0.0005   0.00  215.3
2022/07/05 01:16:00.000  -2478003.3524  -4655349.0790   3577932.3293   1   8   0.0005   0.0007   0.0007   0.0004  -0.0005  -0.0004   0.00  218.0
2022/07/05 01:16:15.000  -2478003.3525  -4655349.0791   3577932.3295   1   8   0.0005   0.0006   0.0007   0.0004  -0.0004  -0.0004   0.00  221.0
2022/07/05 01:16:30.000  -2478003.3526  -4655349.0791   3577932.3296   1   8   0.0005   0.0006   0.0007   0.0004  -0.0004  -0.0004   0.00  223.4
2022/07/05 01:16:45.000  -2478003.3527  -4655349.0792   3577932.3298   1   8   0.0005   0.0006   0.0007   0.0004  -0.0004  -0.0004   0.00  226.1
2022/07/05 01:17:00.000  -2478003.3528  -4655349.0793   3577932.3300   1   8   0.0005   0.0006   0.0007   0.0004  -0.0004  -0.0004   0.00  228.2
2022/07/05 01:17:15.000  -2478003.3529  -4655349.0794   3577932.3302   1   8   0.0005   0.0006   0.0007   0.0004  -0.0004  -0.0004   0.00  230.7
2022/07/05 01:17:30.000  -2478003.3530  -4655349.0795   3577932.3303   1   8   0.0005   0.0006   0.0006   0.0004  -0.0004  -0.0004   0.00  233.7
2022/07/05 01:17:45.000  -2478003.3531  -4655349.0795   3577932.3305   1   8   0.0005   0.0006   0.0006   0.0004  -0.0004  -0.0004   0.00  237.0
2022/07/05 01:18:00.000  -2478003.3532  -4655349.0796   3577932.3307   1   8   0.0005   0.0006   0.0006   0.0004  -0.0004  -0.0004   0.00  238.7
2022/07/05 01:18:15.000  -2478003.3533  -4655349.0796   3577932.3308   1   8   0.0005   0.0006   0.0006   0.0004  -0.0004  -0.0004   0.00  241.2
2022/07/05 01:18:30.000  -2478003.3533  -4655349.0796   3577932.3309   1   8   0.0005   0.0006   0.0006   0.0004  -0.0004  -0.0004   0.00  243.4
2022/07/05 01:18:45.000  -2478003.3534  -4655349.0797   3577932.3310   1   8   0.0005   0.0006   0.0006   0.0004  -0.0004  -0.0004   0.00  243.9
2022/07/05 01:19:00.000  -2478003.3534  -4655349.0796   3577932.3311   1   8   0.0005   0.0006   0.0006   0.0004  -0.0004  -0.0004   0.00  243.8
2022/07/05 01:19:15.000  -2478003.3535  -4655349.0797   3577932.3312   1   8   0.0005   0.0006   0.0006   0.0004  -0.0004  -0.0004   0.00  242.2
2022/07/05 01:19:30.000  -2478003.3536  -4655349.0797   3577932.3312   1   8   0.0005   0.0006   0.0006   0.0004  -0.0004  -0.0004   0.00  241.1
2022/07/05 01:19:45.000  -2478003.3537  -4655349.0797   3577932.3313   1   8   0.0005   0.0006   0.0006   0.0004  -0.0004  -0.0004   0.00  239.7
2022/07/05 01:20:00.000  -2478003.3537  -4655349.0797   3577932.3314   1   8   0.0005   0.0006   0.0006   0.0004  -0.0004  -0.0004   0.00  237.7
2022/07/05 01:20:15.000  -2478003.3538  -4655349.0798   3577932.3315   1   8   0.0005   0.0006   0.0006   0.0004  -0.0004  -0.0004   0.00  235.9
2022/07/05 01:20:30.000  -2478003.3538  -4655349.0798   3577932.3315   1   8   0.0005   0.0006   0.0006   0.0004  -0.0004  -0.0004   0.00  234.3
2022/07/05 01:20:45.000  -2478003.3538  -4655349.0798   3577932.3315   1   8   0.0005   0.0006   0.0006   0.0004  -0.0004  -0.0004   0.00  231.6
2022/07/05 01:21:00.000  -2478003.3538  -4655349.0798   3577932.3315   1   8   0.0005   0.0006   0.0006   0.0004  -0.0004  -0.0004   0.00  229.2
2022/07/05 01:21:15.000  -2478003.3538  -4655349.0798   3577932.3315   1   8   0.0005   0.0006   0.0006   0.0004  -0.0004  -0.0004   0.00  228.0
2022/07/05 01:21:30.000  -2478003.3538  -4655349.0798   3577932.3315   1   8   0.0005   0.0006   0.0006   0.0004  -0.0004  -0.0004   0.00  226.8
2022/07/05 01:21:45.000  -2478003.3538  -4655349.0798   3577932.3315   1   8   0.0005   0.0006   0.0006   0.0004  -0.0004  -0.0004   0.00  224.9
2022/07/05 01:22:00.000  -2478003.3539  -4655349.0799   3577932.3315   1   8   0.0005   0.0006   0.0006   0.0004  -0.0004  -0.0004   0.00  225.0
2022/07/05 01:22:15.000  -2478003.3540  -4655349.0799   3577932.3315   1   8   0.0005   0.0006   0.0006   0.0004  -0.0004  -0.0004   0.00  225.1
2022/07/05 01:22:30.000  -2478003.3540  -4655349.0800   3577932.3316   1   8   0.0005   0.0006   0.0006   0.0004  -0.0004  -0.0004   0.00  225.2
2022/07/05 01:22:45.000  -2478003.3541  -4655349.0800   3577932.3315   1   8   0.0005   0.0006   0.0006   0.0004  -0.0004  -0.0004   0.00  226.3
2022/07/05 01:23:00.000  -2478003.3542  -4655349.0801   3577932.3316   1   8   0.0005   0.0006   0.0006   0.0004  -0.0004  -0.0004   0.00  226.8
2022/07/05 01:23:15.000  -2478003.3543  -4655349.0801   3577932.3316   1   8   0.0005   0.0006   0.0006   0.0004  -0.0004  -0.0004   0.00  228.1
2022/07/05 01:23:30.000  -2478003.3544  -4655349.0802   3577932.3316   1   8   0.0005   0.0006   0.0006   0.0004  -0.0004  -0.0004   0.00  230.1
2022/07/05 01:23:45.000  -2478003.3544  -4655349.0802   3577932.3316   1   8   0.0005   0.0006   0.0006   0.0004  -0.0004  -0.0004   0.00  231.2
2022/07/05 01:24:00.000  -2478003.3545  -4655349.0803   3577932.3316   1   8   0.0005   0.0006   0.0006   0.0004  -0.0004  -0.0004   0.00  232.4
2022/07/05 01:24:15.000  -2478003.3546  -4655349.0803   3577932.3317   1   8   0.0005   0.0006   0.0006   0.0004  -0.0004  -0.0004   0.00  234.4
2022/07/05 01:24:30.000  -2478003.3546  -4655349.0804   3577932.3317   1   8   0.0005   0.0006   0.0006   0.0004  -0.0004  -0.0004   0.00  237.6
2022/07/05 01:24:45.000  -2478003.3547  -4655349.0804   3577932.3318   1   8   0.0005   0.0006   0.0006   0.0004  -0.0004  -0.0004   0.00  240.3
2022/07/05 01:25:00.000  -2478003.3548  -4655349.0805   3577932.3319   1   8   0.0005   0.0006   0.0006   0.0004  -0.0004  -0.0004   0.00  244.7
2022/07/05 01:25:15.000  -2478003.3549  -4655349.0806   3577932.3320   1   8   0.0005   0.0006   0.0006   0.0004  -0.0004  -0.0004   0.00  248.3
2022/07/05 01:25:30.000  -2478003.3551  -4655349.0807   3577932.3321   1   8   0.0005   0.0006   0.0006   0.0004  -0.0004  -0.0004   0.00  252.0
2022/07/05 01:25:45.000  -2478003.3552  -4655349.0808   3577932.3322   1   8   0.0005   0.0006   0.0006   0.0004  -0.0004  -0.0004   0.00  255.3
2022/07/05 01:26:00.000  -2478003.3553  -4655349.0809   3577932.3322   1   8   0.0005   0.0006   0.0006   0.0004  -0.0004  -0.0004   0.00  258.4
2022/07/05 01:26:15.000  -2478003.3554  -4655349.0809   3577932.3323   1   8   0.0005   0.0006   0.0006   0.0004  -0.0004  -0.0004   0.00  261.0
2022/07/05 01:26:30.000  -2478003.3555  -4655349.0810   3577932.3323   1   8   0.0005   0.0006   0.0006   0.0004  -0.0004  -0.0004   0.00  263.6
2022/07/05 01:26:45.000  -2478003.3556  -4655349.0811   3577932.3324   1   8   0.0005   0.0006   0.0006   0.0004  -0.0004  -0.0004   0.00  266.0
2022/07/05 01:27:00.000  -2478003.3557  -4655349.0811   3577932.3325   1   8   0.0005   0.0006   0.0006   0.0004  -0.0004  -0.0004   0.00  269.3
2022/07/05 01:27:15.000  -2478003.3558  -4655349.0812   3577932.3325   1   8   0.0005   0.0006   0.0006   0.0004  -0.0004  -0.0004   0.00  272.8
2022/07/05 01:27:30.000  -2478003.3559  -4655349.0813   3577932.3325   1   8   0.0005   0.0006   0.0006   0.0004  -0.0004  -0.0004   0.00  276.3
2022/07/05 01:27:45.000  -2478003.3560  -4655349.0814   3577932.3326   1   8   0.0005   0.0006   0.0006   0.0004  -0.0004  -0.0004   0.00  279.9
2022/07/05 01:28:00.000  -2478003.3560  -4655349.0814   3577932.3326   1   8   0.0005   0.0006   0.0005   0.0004  -0.0004  -0.0004   0.00  282.9
2022/07/05 01:28:15.000  -2478003.3561  -4655349.0815   3577932.3326   1   8   0.0005   0.0006   0.0005   0.0004  -0.0004  -0.0004   0.00  285.4
2022/07/05 01:28:30.000  -2478003.3561  -4655349.0815   3577932.3326   1   8   0.0005   0.0006   0.0005   0.0004  -0.0004  -0.0004   0.00  287.8
2022/07/05 01:28:45.000  -2478003.3561  -4655349.0816   3577932.3327   1   8   0.0005   0.0006   0.0005   0.0004  -0.0004  -0.0004   0.00  290.5
2022/07/05 01:29:00.000  -2478003.3557  -4655349.0820   3577932.3329   2   9   0.0005   0.0007   0.0006   0.0005  -0.0004  -0.0004   0.00    1.5
2022/07/05 01:29:15.000  -2478003.3557  -4655349.0820   3577932.3329   2   9   0.0005   0.0007   0.0006   0.0005  -0.0004  -0.0004   0.00    1.9
2022/07/05 01:29:30.000  -2478003.3558  -4655349.0821   3577932.3330   2   9   0.0005   0.0007   0.0006   0.0005  -0.0004  -0.0004   0.00    2.4
2022/07/05 01:29:45.000  -2478003.3558  -4655349.0821   3577932.3330   2   9   0.0005   0.0007   0.0006   0.0005  -0.0004  -0.0004   0.00    2.8
2022/07/05 01:30:00.000  -2478003.3564  -4655349.0819   3577932.3330   1   9   0.0005   0.0006   0.0005   0.0004  -0.0004  -0.0004   0.00    3.3
2022/07/05 01:30:15.000  -2478003.3565  -4655349.0819   3577932.3331   1   9   0.0005   0.0006   0.0005   0.0004  -0.0004  -0.0004   0.00    3.8
2022/07/05 01:30:30.000  -2478003.3565  -4655349.0820   3577932.3331   1   9   0.0005   0.0006   0.0005   0.0004  -0.0004  -0.0004   0.00    4.2
2022/07/05 01:30:45.000  -2478003.3566  -4655349.0820   3577932.3331   1   9   0.0005   0.0006   0.0005   0.0004  -0.0004  -0.0004   0.00    4.6
2022/07/05 01:31:00.000  -2478003.3567  -4655349.0820   3577932.3331   1   9   0.0005   0.0006   0.0005   0.0004  -0.0004  -0.0003   0.00    5.1
2022/07/05 01:31:15.000  -2478003.3567  -4655349.0820   3577932.3331   1   9   0.0005   0.0006   0.0005   0.0004  -0.0004  -0.0003   0.00    5.5
2022/07/05 01:31:30.000  -2478003.3568  -4655349.0820   3577932.3331   1   9   0.0005   0.0006   0.0005   0.0004  -0.0004  -0.0003   0.00    6.0
2022/07/05 01:31:45.000  -2478003.3569  -4655349.0820   3577932.3331   1   9   0.0005   0.0006   0.0005   0.0004  -0.0004  -0.0003   0.00    6.5
2022/07/05 01:32:00.000  -2478003.3569  -4655349.0821   3577932.3331   1   9   0.0005   0.0006   0.0005   0.0004  -0.0004  -0.0003   0.00    6.9
2022/07/05 01:32:15.000  -2478003.3570  -4655349.0821   3577932.3331   1   9   0.0004   0.0006   0.0005   0.0004  -0.0004  -0.0003   0.00    7.4
2022/07/05 01:32:30.000  -2478003.3570  -4655349.0821   3577932.3330   1   9   0.0004   0.0006   0.0005   0.0004  -0.0004  -0.0003   0.00   37.9
2022/07/05 01:32:45.000  -2478003.3571  -4655349.0821   3577932.3330   1   9   0.0004   0.0006   0.0005   0.0004  -0.0004  -0.0003   0.00   68.9
2022/07/05 01:33:00.000  -2478003.3571  -4655349.0822   3577932.3330   1   9   0.0004   0.0006   0.0005   0.0004  -0.0004  -0.0003   0.00  100.6
2022/07/05 01:33:15.000  -2478003.3572  -4655349.0822   3577932.3329   1   9   0.0004   0.0006   0.0005   0.0004  -0.0004  -0.0003   0.00  132.4
2022/07/05 01:33:30.000  -2478003.3572  -4655349.0822   3577932.3329   1   9   0.0004   0.0006   0.0005   0.0004  -0.0004  -0.0003   0.00  163.4
2022/07/05 01:33:45.000  -2478003.3573  -4655349.0823   3577932.3329   1   9   0.0004   0.0006   0.0005   0.0004  -0.0004  -0.0003   0.00  194.1
2022/07/05 01:34:00.000  -2478003.3573  -4655349.0824   3577932.3329   1   9   0.0004   0.0006   0.0005   0.0004  -0.0004  -0.0003   0.00  224.1
2022/07/05 01:34:15.000  -2478003.3574  -4655349.0824   3577932.3329   1   9   0.0004   0.0006   0.0005   0.0004  -0.0004  -0.0003   0.00  252.8
2022/07/05 01:34:30.000  -2478003.3575  -4655349.0825   3577932.3329   1   9   0.0004   0.0006   0.0005   0.0004  -0.0004  -0.0003   0.00  272.6
2022/07/05 01:34:45.000  -2478003.3575  -4655349.0826   3577932.3329   1   9   0.0004   0.0006   0.0005   0.0004  -0.0004  -0.0003   0.00  272.6
2022/07/05 01:35:00.000  -2478003.3576  -4655349.0827   3577932.3330   1   9   0.0004   0.0006   0.0005   0.0004  -0.0004  -0.0003   0.00  272.6
2022/07/05 01:35:15.000  -2478003.3577  -4655349.0829   3577932.3330   1   9   0.0004   0.0006   0.0005   0.0004  -0.0004  -0.0003   0.00  272.5
2022/07/05 01:35:30.000  -2478003.3577  -4655349.0829   3577932.3330   1   9   0.0004   0.0006   0.0005   0.0004  -0.0004  -0.0003   0.00  271.6
2022/07/05 01:35:45.000  -2478003.3578  -4655349.0830   3577932.3330   1   9   0.0004   0.0006   0.0005   0.0004  -0.0004  -0.0003   0.00  269.8
2022/07/05 01:36:00.000  -2478003.3578  -4655349.0831   3577932.3330   1   9   0.0004   0.0006   0.0005   0.0004  -0.0004  -0.0003   0.00  268.6
2022/07/05 01:36:15.000  -2478003.3579  -4655349.0832   3577932.3331   1   9   0.0004   0.0006   0.0005   0.0004  -0.0004  -0.0003   0.00  268.0
2022/07/05 01:36:30.000  -2478003.3579  -4655349.0833   3577932.3331   1   9   0.0004   0.0006   0.0005   0.0004  -0.0004  -0.0003   0.00  267.6
2022/07/05 01:36:45.000  -2478003.3580  -4655349.0834   3577932.3331   1   9   0.0004   0.0006   0.0005   0.0004  -0.0004  -0.0003   0.00  266.9
2022/07/05 01:37:00.000  -2478003.3580  -4655349.0835   3577932.3331   1   9   0.0004   0.0006   0.0005   0.0004  -0.0004  -0.0003   0.00  266.1
2022/07/05 01:37:15.000  -2478003.3580  -4655349.0835   3577932.3330   1   9   0.0004   0.0006   0.0005   0.0004  -0.0004  -0.0003   0.00  266.1
2022/07/05 01:37:30.000  -2478003.3580  -4655349.0836   3577932.3330   1   9   0.0004   0.0006   0.0005   0.0004  -0.0004  -0.0003   0.00  265.7
2022/07/05 01:37:45.000  -2478003.3580  -4655349.0836   3577932.3330   1   9   0.0004   0.0006   0.0005   0.0004  -0.0004  -0.0003   0.00  265.1
2022/07/05 01:38:00.000  -2478003.3580  -4655349.0836   3577932.3330   1   9   0.0004   0.0006   0.0005   0.0004  -0.0004  -0.0003   0.00  264.3
2022/07/05 01:38:15.000  -2478003.3580  -4655349.0836   3577932.3329   1   9   0.0004   0.0006   0.0005   0.0004  -0.0003  -0.0003   0.00  264.0
2022/07/05 01:38:30.000  -2478003.3580  -4655349.0836   3577932.3329   1   9   0.0004   0.0006   0.0005   0.0004  -0.0003  -0.0003   0.00  264.0
2022/07/05 01:38:45.000  -2478003.3579  -4655349.0836   3577932.3329   1   9   0.0004   0.0006   0.0005   0.0004  -0.0003  -0.0003   0.00  262.9
2022/07/05 01:39:00.000  -2478003.3579  -4655349.0835   3577932.3329   1   9   0.0004   0.0006   0.0005   0.0004  -0.0003  -0.0003   0.00  262.7
2022/07/05 01:39:15.000  -2478003.3579  -4655349.0835   3577932.3328   1   9   0.0004   0.0006   0.0005   0.0004  -0.0003  -0.0003   0.00  261.2
2022/07/05 01:39:30.000  -2478003.3579  -4655349.0835   3577932.3328   1   9   0.0004   0.0006   0.0005   0.0004  -0.0003  -0.0003   0.00  259.5
2022/07/05 01:39:45.000  -2478003.3579  -4655349.0835   3577932.3328   1   9   0.0004   0.0006   0.0005   0.0004  -0.0003  -0.0003   0.00  258.3
2022/07/05 01:40:00.000  -2478003.3579  -4655349.0834   3577932.3328   1   9   0.0004   0.0006   0.0005   0.0004  -0.0003  -0.0003   0.00  257.8
2022/07/05 01:40:15.000  -2478003.3578  -4655349.0834   3577932.3327   1   9   0.0004   0.0006   0.0005   0.0004  -0.0003  -0.0003   0.00  257.7
2022/07/05 01:40:30.000  -2478003.3578  -4655349.0833   3577932.3327   1   9   0.0004   0.0006   0.0005   0.0004  -0.0003  -0.0003   0.00  257.9
2022/07/05 01:40:45.000  -2478003.3578  -4655349.0833   3577932.3326   1   9   0.0004   0.0006   0.0005   0.0004  -0.0003  -0.0003   0.00  259.4
