% program   : RTKPOST ver.2.4.3 b34
% inp file  : C:\Users\89231\Documents\Учеба\Диссертация\Данные\Лос-Анджелес 03-05.07.22\03.07.2022\jplm1840.22o
% inp file  : C:\Users\89231\Documents\Учеба\Диссертация\Данные\Лос-Анджелес 03-05.07.22\03.07.2022\wlsn1840.22o
% inp file  : C:\Users\89231\Documents\Учеба\Диссертация\Данные\Лос-Анджелес 03-05.07.22\03.07.2022\jplm1840.22n
% inp file  : C:\Users\89231\Documents\Учеба\Диссертация\Данные\Лос-Анджелес 03-05.07.22\03.07.2022\igs22170.sp3
% obs start : 2022/07/03 00:00:00.0 GPST (week2217      0.0s)
% obs end   : 2022/07/03 23:59:30.0 GPST (week2217  86370.0s)
% pos mode  : Static
% freqs     : L1+2
% solution  : Forward
% elev mask : 15.0 deg
% dynamics  : off
% tidecorr  : off
% ionos opt : Broadcast
% tropo opt : Saastamoinen
% ephemeris : Precise
% navi sys  : GPS
% amb res   : Fix and Hold
% val thres : 3.0
% antenna1  :                       ( 0.0000  0.0000  0.0610)
% antenna2  :                       ( 0.0000  0.0000  0.0614)
% ref pos   : -2483640.9733  -4660072.8873   3568172.2297
%
% (x/y/z-ecef=WGS84,Q=1:fix,2:float,3:sbas,4:dgps,5:single,6:ppp,ns=# of satellites)
%  GPST                      x-ecef(m)      y-ecef(m)      z-ecef(m)   Q  ns   sdx(m)   sdy(m)   sdz(m)  sdxy(m)  sdyz(m)  sdzx(m) age(s)  ratio
2022/07/03 00:00:00.000  -2493304.5694  -4655215.2446   3565497.5819   1   8   0.0054   0.0102   0.0075   0.0058  -0.0075  -0.0049   0.00    4.1
2022/07/03 00:00:30.000  -2493304.5692  -4655215.2472   3565497.5837   1   8   0.0038   0.0072   0.0053   0.0041  -0.0053  -0.0035   0.00    3.4
2022/07/03 00:01:00.000  -2493304.5696  -4655215.2474   3565497.5851   1   8   0.0031   0.0059   0.0043   0.0033  -0.0043  -0.0028   0.00    3.3
2022/07/03 00:01:30.000  -2493304.5697  -4655215.2475   3565497.5865   1   8   0.0027   0.0051   0.0038   0.0029  -0.0037  -0.0025   0.00    3.6
2022/07/03 00:02:00.000  -2493304.5683  -4655215.2474   3565497.5873   1   8   0.0024   0.0046   0.0034   0.0026  -0.0033  -0.0022   0.00    3.8
2022/07/03 00:02:30.000  -2493304.5667  -4655215.2466   3565497.5873   1   8   0.0022   0.0042   0.0031   0.0024  -0.0030  -0.0020   0.00    4.0
2022/07/03 00:03:00.000  -2493304.5654  -4655215.2457   3565497.5871   1   8   0.0020   0.0039   0.0028   0.0022  -0.0028  -0.0019   0.00    4.0
2022/07/03 00:03:30.000  -2493304.5640  -4655215.2452   3565497.5871   1   8   0.0019   0.0036   0.0027   0.0020  -0.0026  -0.0017   0.00    3.8
2022/07/03 00:04:00.000  -2493304.5628  -4655215.2448   3565497.5866   1   8   0.0018   0.0034   0.0025   0.0019  -0.0025  -0.0016   0.00    3.6
2022/07/03 00:04:30.000  -2493304.5618  -4655215.2446   3565497.5864   1   8   0.0017   0.0032   0.0024   0.0018  -0.0024  -0.0016   0.00    3.5
2022/07/03 00:05:00.000  -2493304.5608  -4655215.2442   3565497.5857   1   8   0.0016   0.0031   0.0023   0.0017  -0.0023  -0.0015   0.00    9.0
2022/07/03 00:05:30.000  -2493304.5602  -4655215.2440   3565497.5852   1   8   0.0015   0.0029   0.0022   0.0017  -0.0022  -0.0014   0.00   12.0
2022/07/03 00:06:00.000  -2493304.5599  -4655215.2441   3565497.5845   1   8   0.0015   0.0028   0.0021   0.0016  -0.0021  -0.0014   0.00   14.9
2022/07/03 00:06:30.000  -2493304.5599  -4655215.2449   3565497.5843   1   8   0.0014   0.0027   0.0020   0.0015  -0.0020  -0.0013   0.00   17.5
2022/07/03 00:07:00.000  -2493304.5598  -4655215.2453   3565497.5844   1   8   0.0014   0.0026   0.0020   0.0015  -0.0019  -0.0013   0.00   19.6
2022/07/03 00:07:30.000  -2493304.5597  -4655215.2458   3565497.5844   1   8   0.0013   0.0025   0.0019   0.0014  -0.0019  -0.0012   0.00   21.1
2022/07/03 00:08:00.000  -2493304.5566  -4655215.2431   3565497.5821   1   7   0.0013   0.0025   0.0019   0.0014  -0.0018  -0.0012   0.00   34.7
2022/07/03 00:08:30.000  -2493304.5560  -4655215.2428   3565497.5818   1   7   0.0013   0.0024   0.0018   0.0014  -0.0018  -0.0012   0.00   37.3
2022/07/03 00:09:00.000  -2493304.5556  -4655215.2424   3565497.5815   1   7   0.0013   0.0024   0.0018   0.0014  -0.0017  -0.0012   0.00   39.6
2022/07/03 00:09:30.000  -2493304.5553  -4655215.2418   3565497.5813   1   7   0.0012   0.0023   0.0017   0.0013  -0.0017  -0.0011   0.00   41.5
2022/07/03 00:10:00.000  -2493304.5551  -4655215.2414   3565497.5810   1   7   0.0012   0.0023   0.0017   0.0013  -0.0017  -0.0011   0.00   43.1
2022/07/03 00:10:30.000  -2493304.5551  -4655215.2409   3565497.5808   1   7   0.0012   0.0022   0.0017   0.0013  -0.0016  -0.0011   0.00   44.2
2022/07/03 00:11:00.000  -2493304.5549  -4655215.2402   3565497.5805   1   7   0.0012   0.0022   0.0016   0.0012  -0.0016  -0.0011   0.00   45.1
2022/07/03 00:11:30.000  -2493304.5545  -4655215.2394   3565497.5802   1   7   0.0011   0.0021   0.0016   0.0012  -0.0016  -0.0011   0.00   46.2
2022/07/03 00:12:00.000  -2493304.5540  -4655215.2385   3565497.5800   1   7   0.0011   0.0021   0.0016   0.0012  -0.0015  -0.0010   0.00   47.3
2022/07/03 00:12:30.000  -2493304.5533  -4655215.2377   3565497.5796   1   7   0.0011   0.0020   0.0015   0.0012  -0.0015  -0.0010   0.00   48.6
2022/07/03 00:13:00.000  -2493304.5528  -4655215.2371   3565497.5794   1   7   0.0011   0.0020   0.0015   0.0012  -0.0015  -0.0010   0.00   49.8
2022/07/03 00:13:30.000  -2493304.5524  -4655215.2367   3565497.5794   1   7   0.0011   0.0020   0.0015   0.0011  -0.0015  -0.0010   0.00   50.5
2022/07/03 00:14:00.000  -2493304.5520  -4655215.2362   3565497.5794   1   7   0.0011   0.0019   0.0015   0.0011  -0.0014  -0.0010   0.00   50.3
2022/07/03 00:14:30.000  -2493304.5518  -4655215.2357   3565497.5796   1   7   0.0010   0.0019   0.0015   0.0011  -0.0014  -0.0010   0.00   50.8
2022/07/03 00:15:00.000  -2493304.5515  -4655215.2352   3565497.5797   1   7   0.0010   0.0019   0.0014   0.0011  -0.0014  -0.0009   0.00   51.3
2022/07/03 00:15:30.000  -2493304.5513  -4655215.2347   3565497.5797   1   7   0.0010   0.0018   0.0014   0.0011  -0.0014  -0.0009   0.00   51.2
2022/07/03 00:16:00.000  -2493304.5509  -4655215.2338   3565497.5795   1   7   0.0010   0.0018   0.0014   0.0011  -0.0014  -0.0009   0.00   50.7
2022/07/03 00:16:30.000  -2493304.5507  -4655215.2332   3565497.5795   1   7   0.0010   0.0018   0.0014   0.0010  -0.0013  -0.0009   0.00   50.4
2022/07/03 00:17:00.000  -2493304.5505  -4655215.2325   3565497.5794   1   7   0.0010   0.0018   0.0014   0.0010  -0.0013  -0.0009   0.00   50.3
2022/07/03 00:17:30.000  -2493304.5504  -4655215.2318   3565497.5794   1   7   0.0010   0.0017   0.0013   0.0010  -0.0013  -0.0009   0.00   49.9
2022/07/03 00:18:00.000  -2493304.5503  -4655215.2314   3565497.5796   1   7   0.0009   0.0017   0.0013   0.0010  -0.0013  -0.0009   0.00   49.3
2022/07/03 00:18:30.000  -2493304.5503  -4655215.2311   3565497.5796   1   7   0.0009   0.0017   0.0013   0.0010  -0.0013  -0.0009   0.00   48.8
2022/07/03 00:19:00.000  -2493304.5503  -4655215.2308   3565497.5796   1   7   0.0009   0.0017   0.0013   0.0010  -0.0012  -0.0009   0.00   48.3
2022/07/03 00:19:30.000  -2493304.5503  -4655215.2305   3565497.5795   1   7   0.0009   0.0017   0.0013   0.0010  -0.0012  -0.0008   0.00   48.1
2022/07/03 00:20:00.000  -2493304.5501  -4655215.2300   3565497.5791   1   7   0.0009   0.0016   0.0013   0.0009  -0.0012  -0.0008   0.00   48.2
2022/07/03 00:20:30.000  -2493304.5500  -4655215.2295   3565497.5788   1   7   0.0009   0.0016   0.0013   0.0009  -0.0012  -0.0008   0.00   48.0
2022/07/03 00:21:00.000  -2493304.5499  -4655215.2291   3565497.5785   1   7   0.0009   0.0016   0.0012   0.0009  -0.0012  -0.0008   0.00   47.4
2022/07/03 00:21:30.000  -2493304.5499  -4655215.2289   3565497.5784   1   7   0.0009   0.0016   0.0012   0.0009  -0.0012  -0.0008   0.00   46.7
2022/07/03 00:22:00.000  -2493304.5499  -4655215.2289   3565497.5784   1   7   0.0009   0.0016   0.0012   0.0009  -0.0012  -0.0008   0.00   46.1
2022/07/03 00:22:30.000  -2493304.5500  -4655215.2291   3565497.5787   1   7   0.0009   0.0015   0.0012   0.0009  -0.0012  -0.0008   0.00   45.5
2022/07/03 00:23:00.000  -2493304.5501  -4655215.2293   3565497.5790   1   7   0.0008   0.0015   0.0012   0.0009  -0.0011  -0.0008   0.00   44.9
2022/07/03 00:23:30.000  -2493304.5502  -4655215.2294   3565497.5792   1   7   0.0008   0.0015   0.0012   0.0009  -0.0011  -0.0008   0.00   44.4
2022/07/03 00:24:00.000  -2493304.5501  -4655215.2295   3565497.5794   1   7   0.0008   0.0015   0.0012   0.0009  -0.0011  -0.0008   0.00   43.9
2022/07/03 00:24:30.000  -2493304.5502  -4655215.2296   3565497.5796   1   7   0.0008   0.0015   0.0012   0.0009  -0.0011  -0.0008   0.00   43.7
2022/07/03 00:25:00.000  -2493304.5527  -4655215.2304   3565497.5790   1   6   0.0008   0.0015   0.0012   0.0009  -0.0011  -0.0008   0.00   56.2
2022/07/03 00:25:30.000  -2493304.5532  -4655215.2309   3565497.5796   1   6   0.0008   0.0015   0.0012   0.0008  -0.0011  -0.0007   0.00   56.0
2022/07/03 00:26:00.000  -2493304.5537  -4655215.2314   3565497.5802   1   6   0.0008   0.0014   0.0012   0.0008  -0.0011  -0.0007   0.00   55.7
2022/07/03 00:26:30.000  -2493304.5559  -4655215.2404   3565497.5872   2   7   0.0010   0.0016   0.0014   0.0010  -0.0013  -0.0009   0.00    1.5
2022/07/03 00:27:00.000  -2493304.5564  -4655215.2409   3565497.5878   2   8   0.0010   0.0016   0.0014   0.0010  -0.0013  -0.0009   0.00    1.2
2022/07/03 00:27:30.000  -2493304.5569  -4655215.2413   3565497.5884   2   8   0.0010   0.0016   0.0014   0.0010  -0.0013  -0.0009   0.00    1.4
2022/07/03 00:28:00.000  -2493304.5574  -4655215.2417   3565497.5889   2   8   0.0010   0.0016   0.0014   0.0010  -0.0013  -0.0009   0.00    1.5
2022/07/03 00:28:30.000  -2493304.5578  -4655215.2420   3565497.5894   2   8   0.0010   0.0016   0.0014   0.0010  -0.0013  -0.0009   0.00    1.6
2022/07/03 00:29:00.000  -2493304.5582  -4655215.2422   3565497.5898   2   8   0.0010   0.0016   0.0014   0.0010  -0.0012  -0.0009   0.00    1.7
2022/07/03 00:29:30.000  -2493304.5585  -4655215.2424   3565497.5902   2   9   0.0010   0.0016   0.0014   0.0010  -0.0012  -0.0009   0.00    1.2
2022/07/03 00:30:00.000  -2493304.5587  -4655215.2424   3565497.5905   2   9   0.0010   0.0016   0.0014   0.0010  -0.0012  -0.0009   0.00    1.3
2022/07/03 00:30:30.000  -2493304.5589  -4655215.2423   3565497.5907   2   9   0.0010   0.0016   0.0014   0.0010  -0.0012  -0.0009   0.00    1.4
2022/07/03 00:31:00.000  -2493304.5590  -4655215.2422   3565497.5909   2   9   0.0010   0.0015   0.0014   0.0010  -0.0012  -0.0009   0.00    1.5
2022/07/03 00:31:30.000  -2493304.5593  -4655215.2422   3565497.5912   2   9   0.0010   0.0015   0.0014   0.0010  -0.0012  -0.0008   0.00    1.5
2022/07/03 00:32:00.000  -2493304.5595  -4655215.2422   3565497.5913   2   9   0.0009   0.0015   0.0014   0.0009  -0.0012  -0.0008   0.00    1.6
2022/07/03 00:32:30.000  -2493304.5596  -4655215.2420   3565497.5913   2   9   0.0009   0.0015   0.0014   0.0009  -0.0012  -0.0008   0.00    1.6
2022/07/03 00:33:00.000  -2493304.5597  -4655215.2418   3565497.5913   2   9   0.0009   0.0015   0.0013   0.0009  -0.0012  -0.0008   0.00    1.6
2022/07/03 00:33:30.000  -2493304.5597  -4655215.2416   3565497.5913   2   9   0.0009   0.0015   0.0013   0.0009  -0.0012  -0.0008   0.00    1.6
2022/07/03 00:34:00.000  -2493304.5597  -4655215.2412   3565497.5912   2   9   0.0009   0.0015   0.0013   0.0009  -0.0012  -0.0008   0.00    1.6
2022/07/03 00:34:30.000  -2493304.5598  -4655215.2409   3565497.5911   2   9   0.0009   0.0015   0.0013   0.0009  -0.0012  -0.0008   0.00    1.6
2022/07/03 00:35:00.000  -2493304.5598  -4655215.2406   3565497.5910   2   9   0.0009   0.0015   0.0013   0.0009  -0.0012  -0.0008   0.00    1.6
2022/07/03 00:35:30.000  -2493304.5598  -4655215.2404   3565497.5909   2   9   0.0009   0.0015   0.0013   0.0009  -0.0012  -0.0008   0.00    1.6
2022/07/03 00:36:00.000  -2493304.5599  -4655215.2402   3565497.5909   2   9   0.0009   0.0015   0.0013   0.0009  -0.0012  -0.0008   0.00    1.6
2022/07/03 00:36:30.000  -2493304.5599  -4655215.2401   3565497.5909   2   9   0.0009   0.0015   0.0013   0.0009  -0.0011  -0.0008   0.00    1.6
2022/07/03 00:37:00.000  -2493304.5600  -4655215.2399   3565497.5908   2   9   0.0009   0.0014   0.0013   0.0009  -0.0011  -0.0008   0.00    1.7
2022/07/03 00:37:30.000  -2493304.5600  -4655215.2398   3565497.5908   2   9   0.0009   0.0014   0.0013   0.0009  -0.0011  -0.0008   0.00    1.7
2022/07/03 00:38:00.000  -2493304.5601  -4655215.2397   3565497.5908   2   9   0.0009   0.0014   0.0013   0.0009  -0.0011  -0.0008   0.00    1.7
2022/07/03 00:38:30.000  -2493304.5601  -4655215.2396   3565497.5909   2   9   0.0009   0.0014   0.0013   0.0009  -0.0011  -0.0008   0.00    1.7
2022/07/03 00:39:00.000  -2493304.5602  -4655215.2395   3565497.5909   2   9   0.0009   0.0014   0.0013   0.0009  -0.0011  -0.0008   0.00    1.7
2022/07/03 00:39:30.000  -2493304.5602  -4655215.2393   3565497.5908   2   9   0.0009   0.0014   0.0013   0.0009  -0.0011  -0.0008   0.00    1.7
2022/07/03 00:40:00.000  -2493304.5602  -4655215.2393   3565497.5907   2   9   0.0009   0.0014   0.0013   0.0009  -0.0011  -0.0008   0.00    1.7
2022/07/03 00:40:30.000  -2493304.5603  -4655215.2392   3565497.5907   2   9   0.0009   0.0014   0.0013   0.0009  -0.0011  -0.0008   0.00    1.0
2022/07/03 00:41:00.000  -2493304.5603  -4655215.2392   3565497.5907   2   8   0.0009   0.0014   0.0013   0.0009  -0.0011  -0.0008   0.00    1.1
2022/07/03 00:41:30.000  -2493304.5603  -4655215.2391   3565497.5906   2   8   0.0009   0.0014   0.0013   0.0009  -0.0011  -0.0008   0.00    1.1
2022/07/03 00:42:00.000  -2493304.5603  -4655215.2390   3565497.5906   2   8   0.0009   0.0014   0.0013   0.0009  -0.0011  -0.0008   0.00    1.1
2022/07/03 00:42:30.000  -2493304.5603  -4655215.2388   3565497.5905   2   8   0.0009   0.0014   0.0012   0.0009  -0.0011  -0.0008   0.00    1.1
2022/07/03 00:43:00.000  -2493304.5602  -4655215.2386   3565497.5904   2   8   0.0009   0.0014   0.0012   0.0009  -0.0011  -0.0008   0.00    1.2
2022/07/03 00:43:30.000  -2493304.5602  -4655215.2383   3565497.5902   2   8   0.0009   0.0014   0.0012   0.0009  -0.0011  -0.0008   0.00    1.2
2022/07/03 00:44:00.000  -2493304.5602  -4655215.2380   3565497.5900   2   8   0.0009   0.0014   0.0012   0.0009  -0.0011  -0.0008   0.00    1.2
2022/07/03 00:44:30.000  -2493304.5601  -4655215.2378   3565497.5898   2   8   0.0009   0.0014   0.0012   0.0009  -0.0011  -0.0008   0.00    1.2
2022/07/03 00:45:00.000  -2493304.5600  -4655215.2374   3565497.5895   2   8   0.0009   0.0014   0.0012   0.0009  -0.0011  -0.0008   0.00    1.2
2022/07/03 00:45:30.000  -2493304.5599  -4655215.2372   3565497.5892   2   8   0.0009   0.0014   0.0012   0.0009  -0.0011  -0.0008   0.00    1.3
2022/07/03 00:46:00.000  -2493304.5599  -4655215.2369   3565497.5890   2   8   0.0009   0.0013   0.0012   0.0009  -0.0010  -0.0007   0.00    1.3
2022/07/03 00:46:30.000  -2493304.5598  -4655215.2367   3565497.5888   2   8   0.0009   0.0013   0.0012   0.0009  -0.0010  -0.0007   0.00    1.3
2022/07/03 00:47:00.000  -2493304.5597  -4655215.2364   3565497.5885   2   8   0.0009   0.0013   0.0012   0.0009  -0.0010  -0.0007   0.00    1.3
2022/07/03 00:47:30.000  -2493304.5597  -4655215.2362   3565497.5883   2   8   0.0009   0.0013   0.0012   0.0009  -0.0010  -0.0007   0.00    1.3
2022/07/03 00:48:00.000  -2493304.5596  -4655215.2361   3565497.5882   2   8   0.0009   0.0013   0.0012   0.0009  -0.0010  -0.0007   0.00    1.3
2022/07/03 00:48:30.000  -2493304.5596  -4655215.2361   3565497.5880   2   8   0.0009   0.0013   0.0012   0.0009  -0.0010  -0.0007   0.00    1.4
2022/07/03 00:49:00.000  -2493304.5596  -4655215.2360   3565497.5880   2   8   0.0009   0.0013   0.0012   0.0009  -0.0010  -0.0007   0.00    1.4
2022/07/03 00:49:30.000  -2493304.5595  -4655215.2359   3565497.5879   2   8   0.0009   0.0013   0.0012   0.0008  -0.0010  -0.0007   0.00    1.4
2022/07/03 00:50:00.000  -2493304.5595  -4655215.2359   3565497.5878   2   8   0.0009   0.0013   0.0012   0.0008  -0.0010  -0.0007   0.00    1.5
2022/07/03 00:50:30.000  -2493304.5596  -4655215.2358   3565497.5878   2   7   0.0009   0.0013   0.0012   0.0008  -0.0010  -0.0007   0.00    1.5
2022/07/03 00:51:00.000  -2493304.5596  -4655215.2358   3565497.5878   2   7   0.0009   0.0013   0.0012   0.0008  -0.0010  -0.0007   0.00    1.5
2022/07/03 00:51:30.000  -2493304.5596  -4655215.2358   3565497.5878   2   7   0.0009   0.0013   0.0012   0.0008  -0.0010  -0.0007   0.00    1.6
2022/07/03 00:52:00.000  -2493304.5444  -4655215.2193   3565497.5711   1   7   0.0007   0.0010   0.0010   0.0006  -0.0008  -0.0006   0.00    6.7
2022/07/03 00:52:30.000  -2493304.5443  -4655215.2191   3565497.5709   1   7   0.0007   0.0010   0.0010   0.0006  -0.0008  -0.0006   0.00    6.9
2022/07/03 00:53:00.000  -2493304.5442  -4655215.2188   3565497.5707   1   7   0.0007   0.0010   0.0010   0.0006  -0.0008  -0.0006   0.00    7.0
2022/07/03 00:53:30.000  -2493304.5442  -4655215.2186   3565497.5706   1   7   0.0007   0.0009   0.0010   0.0006  -0.0008  -0.0006   0.00    7.1
2022/07/03 00:54:00.000  -2493304.5442  -4655215.2185   3565497.5704   1   7   0.0007   0.0009   0.0010   0.0006  -0.0008  -0.0006   0.00    7.2
2022/07/03 00:54:30.000  -2493304.5441  -4655215.2182   3565497.5702   1   7   0.0007   0.0009   0.0009   0.0006  -0.0008  -0.0006   0.00    7.4
2022/07/03 00:55:00.000  -2493304.5440  -4655215.2180   3565497.5700   1   7   0.0007   0.0009   0.0009   0.0006  -0.0007  -0.0006   0.00    7.5
2022/07/03 00:55:30.000  -2493304.5440  -4655215.2178   3565497.5699   1   7   0.0007   0.0009   0.0009   0.0006  -0.0007  -0.0006   0.00    7.6
2022/07/03 00:56:00.000  -2493304.5439  -4655215.2175   3565497.5696   1   7   0.0007   0.0009   0.0009   0.0006  -0.0007  -0.0006   0.00    7.8
2022/07/03 00:56:30.000  -2493304.5438  -4655215.2172   3565497.5693   1   7   0.0007   0.0009   0.0009   0.0006  -0.0007  -0.0006   0.00    7.9
2022/07/03 00:57:00.000  -2493304.5437  -4655215.2169   3565497.5691   1   7   0.0007   0.0009   0.0009   0.0006  -0.0007  -0.0006   0.00    9.0
2022/07/03 00:57:30.000  -2493304.5437  -4655215.2165   3565497.5688   1   7   0.0007   0.0009   0.0009   0.0006  -0.0007  -0.0006   0.00   10.1
2022/07/03 00:58:00.000  -2493304.5436  -4655215.2162   3565497.5685   1   7   0.0006   0.0009   0.0009   0.0006  -0.0007  -0.0006   0.00   11.2
2022/07/03 00:58:30.000  -2493304.5436  -4655215.2159   3565497.5683   1   7   0.0006   0.0009   0.0009   0.0006  -0.0007  -0.0006   0.00   12.5
2022/07/03 00:59:00.000  -2493304.5436  -4655215.2156   3565497.5681   1   7   0.0006   0.0009   0.0009   0.0006  -0.0007  -0.0006   0.00   13.7
2022/07/03 00:59:30.000  -2493304.5436  -4655215.2153   3565497.5680   1   7   0.0006   0.0009   0.0009   0.0006  -0.0007  -0.0006   0.00   15.0
2022/07/03 01:00:00.000  -2493304.5436  -4655215.2150   3565497.5678   1   7   0.0006   0.0009   0.0009   0.0006  -0.0007  -0.0006   0.00   16.5
2022/07/03 01:00:30.000  -2493304.5436  -4655215.2148   3565497.5677   1   7   0.0006   0.0009   0.0009   0.0006  -0.0007  -0.0006   0.00   17.9
2022/07/03 01:01:00.000  -2493304.5436  -4655215.2145   3565497.5676   1   7   0.0006   0.0009   0.0009   0.0006  -0.0007  -0.0006   0.00   19.5
2022/07/03 01:01:30.000  -2493304.5437  -4655215.2144   3565497.5677   1   7   0.0006   0.0009   0.0009   0.0006  -0.0007  -0.0006   0.00   21.2
2022/07/03 01:02:00.000  -2493304.5437  -4655215.2143   3565497.5677   1   7   0.0006   0.0009   0.0009   0.0006  -0.0007  -0.0006   0.00   23.0
2022/07/03 01:02:30.000  -2493304.5437  -4655215.2141   3565497.5676   1   7   0.0006   0.0009   0.0009   0.0006  -0.0007  -0.0006   0.00   24.8
2022/07/03 01:03:00.000  -2493304.5437  -4655215.2138   3565497.5676   1   7   0.0006   0.0009   0.0009   0.0006  -0.0007  -0.0006   0.00   26.7
2022/07/03 01:03:30.000  -2493304.5436  -4655215.2136   3565497.5676   1   7   0.0006   0.0009   0.0009   0.0006  -0.0007  -0.0006   0.00   28.6
2022/07/03 01:04:00.000  -2493304.5436  -4655215.2133   3565497.5675   1   7   0.0006   0.0009   0.0009   0.0006  -0.0007  -0.0006   0.00   30.3
2022/07/03 01:04:30.000  -2493304.5436  -4655215.2131   3565497.5674   1   7   0.0006   0.0009   0.0009   0.0006  -0.0007  -0.0006   0.00   32.1
2022/07/03 01:05:00.000  -2493304.5436  -4655215.2129   3565497.5674   1   7   0.0006   0.0009   0.0009   0.0006  -0.0007  -0.0006   0.00   34.1
2022/07/03 01:05:30.000  -2493304.5436  -4655215.2127   3565497.5673   1   7   0.0006   0.0009   0.0009   0.0006  -0.0007  -0.0006   0.00   36.3
2022/07/03 01:06:00.000  -2493304.5437  -4655215.2126   3565497.5673   1   7   0.0006   0.0009   0.0009   0.0006  -0.0007  -0.0006   0.00   38.4
2022/07/03 01:06:30.000  -2493304.5437  -4655215.2125   3565497.5674   1   7   0.0006   0.0009   0.0009   0.0006  -0.0007  -0.0006   0.00   40.7
2022/07/03 01:07:00.000  -2493304.5514  -4655215.2232   3565497.5784   2   8   0.0007   0.0010   0.0010   0.0007  -0.0008  -0.0006   0.00    1.1
2022/07/03 01:07:30.000  -2493304.5514  -4655215.2232   3565497.5784   2   8   0.0007   0.0010   0.0010   0.0007  -0.0008  -0.0006   0.00    1.2
2022/07/03 01:08:00.000  -2493304.5515  -4655215.2231   3565497.5784   2   8   0.0007   0.0010   0.0010   0.0007  -0.0008  -0.0006   0.00    1.3
2022/07/03 01:08:30.000  -2493304.5515  -4655215.2231   3565497.5784   2   8   0.0007   0.0010   0.0010   0.0007  -0.0008  -0.0006   0.00    1.4
2022/07/03 01:09:00.000  -2493304.5515  -4655215.2230   3565497.5783   2   8   0.0007   0.0010   0.0010   0.0007  -0.0008  -0.0006   0.00    1.5
2022/07/03 01:09:30.000  -2493304.5516  -4655215.2230   3565497.5783   2   8   0.0007   0.0010   0.0010   0.0007  -0.0008  -0.0006   0.00    1.7
2022/07/03 01:10:00.000  -2493304.5516  -4655215.2229   3565497.5783   2   8   0.0007   0.0010   0.0010   0.0007  -0.0008  -0.0006   0.00    1.8
2022/07/03 01:10:30.000  -2493304.5517  -4655215.2229   3565497.5783   2   8   0.0007   0.0010   0.0010   0.0007  -0.0008  -0.0006   0.00    2.0
2022/07/03 01:11:00.000  -2493304.5517  -4655215.2228   3565497.5782   2   8   0.0007   0.0010   0.0010   0.0007  -0.0008  -0.0006   0.00    2.1
2022/07/03 01:11:30.000  -2493304.5517  -4655215.2227   3565497.5782   2   8   0.0007   0.0010   0.0010   0.0007  -0.0008  -0.0006   0.00    2.2
2022/07/03 01:12:00.000  -2493304.5517  -4655215.2226   3565497.5781   2   8   0.0007   0.0010   0.0010   0.0007  -0.0008  -0.0006   0.00    2.4
2022/07/03 01:12:30.000  -2493304.5517  -4655215.2225   3565497.5781   2   8   0.0007   0.0010   0.0010   0.0007  -0.0008  -0.0006   0.00    2.5
2022/07/03 01:13:00.000  -2493304.5517  -4655215.2224   3565497.5780   2   8   0.0007   0.0010   0.0010   0.0007  -0.0008  -0.0006   0.00    2.6
2022/07/03 01:13:30.000  -2493304.5517  -4655215.2222   3565497.5779   2   8   0.0007   0.0010   0.0010   0.0007  -0.0008  -0.0006   0.00    2.7
2022/07/03 01:14:00.000  -2493304.5517  -4655215.2221   3565497.5778   2   8   0.0007   0.0010   0.0010   0.0007  -0.0008  -0.0006   0.00    2.8
2022/07/03 01:14:30.000  -2493304.5517  -4655215.2220   3565497.5777   2   8   0.0007   0.0010   0.0010   0.0007  -0.0008  -0.0006   0.00    2.9
2022/07/03 01:15:00.000  -2493304.5464  -4655215.2126   3565497.5715   1   8   0.0006   0.0008   0.0008   0.0005  -0.0006  -0.0005   0.00    3.1
2022/07/03 01:15:30.000  -2493304.5465  -4655215.2126   3565497.5717   1   8   0.0006   0.0008   0.0008   0.0005  -0.0006  -0.0005   0.00    3.2
2022/07/03 01:16:00.000  -2493304.5466  -4655215.2126   3565497.5720   1   8   0.0006   0.0008   0.0008   0.0005  -0.0006  -0.0005   0.00    3.3
2022/07/03 01:16:30.000  -2493304.5467  -4655215.2126   3565497.5722   1   8   0.0006   0.0008   0.0008   0.0005  -0.0006  -0.0005   0.00    3.4
2022/07/03 01:17:00.000  -2493304.5467  -4655215.2125   3565497.5724   1   8   0.0006   0.0008   0.0008   0.0005  -0.0006  -0.0005   0.00    3.5
2022/07/03 01:17:30.000  -2493304.5468  -4655215.2125   3565497.5725   1   8   0.0006   0.0008   0.0008   0.0005  -0.0006  -0.0005   0.00    3.7
2022/07/03 01:18:00.000  -2493304.5468  -4655215.2124   3565497.5726   1   8   0.0006   0.0008   0.0008   0.0005  -0.0006  -0.0005   0.00    3.9
2022/07/03 01:18:30.000  -2493304.5469  -4655215.2124   3565497.5728   1   8   0.0006   0.0008   0.0008   0.0005  -0.0006  -0.0005   0.00    4.0
2022/07/03 01:19:00.000  -2493304.5470  -4655215.2124   3565497.5731   1   8   0.0006   0.0008   0.0008   0.0005  -0.0006  -0.0005   0.00    4.2
2022/07/03 01:19:30.000  -2493304.5471  -4655215.2124   3565497.5733   1   8   0.0006   0.0008   0.0008   0.0005  -0.0006  -0.0005   0.00    4.4
2022/07/03 01:20:00.000  -2493304.5472  -4655215.2123   3565497.5734   1   8   0.0006   0.0008   0.0008   0.0005  -0.0006  -0.0005   0.00    6.1
2022/07/03 01:20:30.000  -2493304.5472  -4655215.2123   3565497.5736   1   8   0.0006   0.0008   0.0008   0.0005  -0.0006  -0.0005   0.00    8.0
2022/07/03 01:21:00.000  -2493304.5473  -4655215.2124   3565497.5737   1   8   0.0006   0.0008   0.0008   0.0005  -0.0006  -0.0005   0.00   10.0
2022/07/03 01:21:30.000  -2493304.5473  -4655215.2124   3565497.5739   1   8   0.0006   0.0008   0.0007   0.0005  -0.0006  -0.0005   0.00   12.1
2022/07/03 01:22:00.000  -2493304.5474  -4655215.2125   3565497.5741   1   8   0.0006   0.0008   0.0007   0.0005  -0.0006  -0.0005   0.00   14.3
2022/07/03 01:22:30.000  -2493304.5474  -4655215.2126   3565497.5743   1   8   0.0006   0.0008   0.0007   0.0005  -0.0006  -0.0005   0.00   16.6
2022/07/03 01:23:00.000  -2493304.5475  -4655215.2126   3565497.5745   1   8   0.0006   0.0008   0.0007   0.0005  -0.0006  -0.0005   0.00   19.1
2022/07/03 01:23:30.000  -2493304.5476  -4655215.2127   3565497.5747   1   8   0.0005   0.0008   0.0007   0.0005  -0.0006  -0.0005   0.00   22.0
2022/07/03 01:24:00.000  -2493304.5476  -4655215.2128   3565497.5748   1   8   0.0005   0.0008   0.0007   0.0005  -0.0005  -0.0005   0.00   25.0
2022/07/03 01:24:30.000  -2493304.5476  -4655215.2128   3565497.5749   1   8   0.0005   0.0008   0.0007   0.0005  -0.0005  -0.0005   0.00   28.1
2022/07/03 01:25:00.000  -2493304.5476  -4655215.2128   3565497.5750   1   8   0.0005   0.0008   0.0007   0.0005  -0.0005  -0.0005   0.00   31.4
2022/07/03 01:25:30.000  -2493304.5476  -4655215.2128   3565497.5751   1   8   0.0005   0.0008   0.0007   0.0005  -0.0005  -0.0005   0.00   34.8
2022/07/03 01:26:00.000  -2493304.5475  -4655215.2128   3565497.5752   1   8   0.0005   0.0008   0.0007   0.0005  -0.0005  -0.0005   0.00   38.3
2022/07/03 01:26:30.000  -2493304.5475  -4655215.2128   3565497.5752   1   8   0.0005   0.0008   0.0007   0.0005  -0.0005  -0.0005   0.00   41.8
2022/07/03 01:27:00.000  -2493304.5475  -4655215.2127   3565497.5753   1   8   0.0005   0.0008   0.0007   0.0005  -0.0005  -0.0005   0.00   45.4
2022/07/03 01:27:30.000  -2493304.5475  -4655215.2127   3565497.5753   1   8   0.0005   0.0008   0.0007   0.0005  -0.0005  -0.0004   0.00   49.4
2022/07/03 01:28:00.000  -2493304.5475  -4655215.2127   3565497.5753   1   8   0.0005   0.0007   0.0007   0.0005  -0.0005  -0.0004   0.00   53.6
2022/07/03 01:28:30.000  -2493304.5475  -4655215.2126   3565497.5753   1   8   0.0005   0.0007   0.0007   0.0005  -0.0005  -0.0004   0.00   57.7
2022/07/03 01:29:00.000  -2493304.5474  -4655215.2126   3565497.5753   1   8   0.0005   0.0007   0.0007   0.0005  -0.0005  -0.0004   0.00   61.8
2022/07/03 01:29:30.000  -2493304.5473  -4655215.2125   3565497.5753   1   8   0.0005   0.0007   0.0007   0.0005  -0.0005  -0.0004   0.00   65.6
2022/07/03 01:30:00.000  -2493304.5473  -4655215.2125   3565497.5754   1   8   0.0005   0.0007   0.0007   0.0005  -0.0005  -0.0004   0.00   69.7
2022/07/03 01:30:30.000  -2493304.5473  -4655215.2125   3565497.5754   1   8   0.0005   0.0007   0.0007   0.0005  -0.0005  -0.0004   0.00   74.1
2022/07/03 01:31:00.000  -2493304.5473  -4655215.2125   3565497.5754   1   8   0.0005   0.0007   0.0007   0.0005  -0.0005  -0.0004   0.00   78.6
2022/07/03 01:31:30.000  -2493304.5473  -4655215.2125   3565497.5755   1   8   0.0005   0.0007   0.0007   0.0005  -0.0005  -0.0004   0.00   83.3
2022/07/03 01:32:00.000  -2493304.5473  -4655215.2125   3565497.5755   1   8   0.0005   0.0007   0.0007   0.0005  -0.0005  -0.0004   0.00   88.2
2022/07/03 01:32:30.000  -2493304.5472  -4655215.2125   3565497.5756   1   8   0.0005   0.0007   0.0007   0.0005  -0.0005  -0.0004   0.00   93.1
2022/07/03 01:33:00.000  -2493304.5472  -4655215.2125   3565497.5757   1   8   0.0005   0.0007   0.0007   0.0005  -0.0005  -0.0004   0.00   97.7
2022/07/03 01:33:30.000  -2493304.5473  -4655215.2126   3565497.5758   1   8   0.0005   0.0007   0.0007   0.0005  -0.0005  -0.0004   0.00  101.9
2022/07/03 01:34:00.000  -2493304.5473  -4655215.2126   3565497.5759   1   8   0.0005   0.0007   0.0007   0.0005  -0.0005  -0.0004   0.00  106.8
2022/07/03 01:34:30.000  -2493304.5473  -4655215.2127   3565497.5759   1   8   0.0005   0.0007   0.0007   0.0005  -0.0005  -0.0004   0.00  111.4
2022/07/03 01:35:00.000  -2493304.5473  -4655215.2127   3565497.5760   1   8   0.0005   0.0007   0.0006   0.0005  -0.0005  -0.0004   0.00  115.8
2022/07/03 01:35:30.000  -2493304.5473  -4655215.2127   3565497.5760   1   8   0.0005   0.0007   0.0006   0.0005  -0.0005  -0.0004   0.00  120.6
2022/07/03 01:36:00.000  -2493304.5473  -4655215.2127   3565497.5760   1   8   0.0005   0.0007   0.0006   0.0005  -0.0005  -0.0004   0.00  125.6
2022/07/03 01:36:30.000  -2493304.5472  -4655215.2127   3565497.5760   1   8   0.0005   0.0007   0.0006   0.0005  -0.0005  -0.0004   0.00  130.2
2022/07/03 01:37:00.000  -2493304.5472  -4655215.2127   3565497.5761   1   8   0.0005   0.0007   0.0006   0.0005  -0.0005  -0.0004   0.00  135.3
2022/07/03 01:37:30.000  -2493304.5494  -4655215.2169   3565497.5778   2   9   0.0006   0.0008   0.0007   0.0005  -0.0006  -0.0005   0.00    1.5
2022/07/03 01:38:00.000  -2493304.5494  -4655215.2169   3565497.5778   2   9   0.0006   0.0008   0.0007   0.0005  -0.0006  -0.0005   0.00    1.9
2022/07/03 01:38:30.000  -2493304.5494  -4655215.2169   3565497.5778   2   9   0.0006   0.0008   0.0007   0.0005  -0.0006  -0.0005   0.00    2.3
2022/07/03 01:39:00.000  -2493304.5494  -4655215.2169   3565497.5778   2   9   0.0006   0.0008   0.0007   0.0005  -0.0006  -0.0005   0.00    2.7
2022/07/03 01:39:30.000  -2493304.5471  -4655215.2127   3565497.5760   1   9   0.0005   0.0007   0.0006   0.0005  -0.0005  -0.0004   0.00    3.1
2022/07/03 01:40:00.000  -2493304.5471  -4655215.2127   3565497.5760   1   9   0.0005   0.0007   0.0006   0.0005  -0.0005  -0.0004   0.00    3.5
2022/07/03 01:40:30.000  -2493304.5471  -4655215.2127   3565497.5760   1   9   0.0005   0.0007   0.0006   0.0005  -0.0005  -0.0004   0.00    4.0
2022/07/03 01:41:00.000  -2493304.5471  -4655215.2128   3565497.5759   1   9   0.0005   0.0007   0.0006   0.0005  -0.0005  -0.0004   0.00    4.5
2022/07/03 01:41:30.000  -2493304.5471  -4655215.2128   3565497.5759   1   9   0.0005   0.0007   0.0006   0.0005  -0.0005  -0.0004   0.00    5.1
2022/07/03 01:42:00.000  -2493304.5471  -4655215.2128   3565497.5759   1   9   0.0005   0.0007   0.0006   0.0005  -0.0005  -0.0004   0.00    5.7
2022/07/03 01:42:30.000  -2493304.5471  -4655215.2129   3565497.5759   1   9   0.0005   0.0007   0.0006   0.0005  -0.0005  -0.0004   0.00    6.4
2022/07/03 01:43:00.000  -2493304.5472  -4655215.2130   3565497.5760   1   9   0.0005   0.0007   0.0006   0.0005  -0.0005  -0.0004   0.00    7.1
2022/07/03 01:43:30.000  -2493304.5473  -4655215.2132   3565497.5761   1   9   0.0005   0.0007   0.0006   0.0005  -0.0005  -0.0004   0.00    7.9
2022/07/03 01:44:00.000  -2493304.5473  -4655215.2133   3565497.5761   1   9   0.0005   0.0007   0.0006   0.0005  -0.0005  -0.0004   0.00    8.6
2022/07/03 01:44:30.000  -2493304.5473  -4655215.2134   3565497.5761   1   9   0.0005   0.0007   0.0006   0.0005  -0.0005  -0.0004   0.00   45.4
2022/07/03 01:45:00.000  -2493304.5474  -4655215.2135   3565497.5762   1   9   0.0005   0.0007   0.0006   0.0005  -0.0005  -0.0004   0.00   84.3
2022/07/03 01:45:30.000  -2493304.5474  -4655215.2135   3565497.5762   1   9   0.0005   0.0007   0.0006   0.0005  -0.0005  -0.0004   0.00  124.8
2022/07/03 01:46:00.000  -2493304.5474  -4655215.2136   3565497.5762   1   9   0.0005   0.0007   0.0006   0.0005  -0.0005  -0.0004   0.00  166.2
2022/07/03 01:46:30.000  -2493304.5473  -4655215.2136   3565497.5762   1   9   0.0005   0.0007   0.0006   0.0005  -0.0005  -0.0004   0.00  200.1
2022/07/03 01:47:00.000  -2493304.5473  -4655215.2136   3565497.5762   1   9   0.0005   0.0007   0.0006   0.0005  -0.0005  -0.0004   0.00  206.1
2022/07/03 01:47:30.000  -2493304.5472  -4655215.2136   3565497.5762   1   9   0.0005   0.0007   0.0006   0.0005  -0.0005  -0.0004   0.00  211.2
2022/07/03 01:48:00.000  -2493304.5472  -4655215.2136   3565497.5762   1   9   0.0005   0.0007   0.0006   0.0005  -0.0005  -0.0004   0.00  216.7
2022/07/03 01:48:30.000  -2493304.5471  -4655215.2135   3565497.5762   1   9   0.0005   0.0007   0.0006   0.0005  -0.0004  -0.0004   0.00  221.3
2022/07/03 01:49:00.000  -2493304.5471  -4655215.2135   3565497.5762   1   9   0.0005   0.0007   0.0006   0.0005  -0.0004  -0.0004   0.00  224.9
2022/07/03 01:49:30.000  -2493304.5470  -4655215.2134   3565497.5762   1   9   0.0005   0.0007   0.0006   0.0005  -0.0004  -0.0004   0.00  229.2
2022/07/03 01:50:00.000  -2493304.5469  -4655215.2133   3565497.5762   1   9   0.0005   0.0007   0.0006   0.0005  -0.0004  -0.0004   0.00  235.0
2022/07/03 01:50:30.000  -2493304.5468  -4655215.2133   3565497.5762   1   9   0.0005   0.0007   0.0006   0.0005  -0.0004  -0.0004   0.00  240.8
2022/07/03 01:51:00.000  -2493304.5468  -4655215.2132   3565497.5762   1   9   0.0005   0.0007   0.0006   0.0005  -0.0004  -0.0004   0.00  246.6
2022/07/03 01:51:30.000  -2493304.5467  -4655215.2132   3565497.5762   1   9   0.0005   0.0007   0.0006   0.0005  -0.0004  -0.0004   0.00  251.6
2022/07/03 01:52:00.000  -2493304.5467  -4655215.2131   3565497.5763   1   9   0.0005   0.0007   0.0006   0.0005  -0.0004  -0.0004   0.00  256.1
2022/07/03 01:52:30.000  -2493304.5467  -4655215.2131   3565497.5763   1   9   0.0005   0.0007   0.0006   0.0004  -0.0004  -0.0004   0.00  258.7
2022/07/03 01:53:00.000  -2493304.5468  -4655215.2131   3565497.5764   1   8   0.0005   0.0007   0.0006   0.0005  -0.0004  -0.0004   0.00  262.1
2022/07/03 01:53:30.000  -2493304.5467  -4655215.2131   3565497.5765   1   8   0.0005   0.0007   0.0006   0.0005  -0.0004  -0.0004   0.00  264.7
2022/07/03 01:54:00.000  -2493304.5467  -4655215.2131   3565497.5765   1   8   0.0005   0.0007   0.0006   0.0005  -0.0004  -0.0004   0.00  265.2
2022/07/03 01:54:30.000  -2493304.5466  -4655215.2130   3565497.5765   1   8   0.0005   0.0007   0.0006   0.0005  -0.0004  -0.0004   0.00  265.1
2022/07/03 01:55:00.000  -2493304.5466  -4655215.2130   3565497.5766   1   8   0.0005   0.0007   0.0006   0.0005  -0.0004  -0.0004   0.00  265.2
2022/07/03 01:55:30.000  -2493304.5465  -4655215.2129   3565497.5766   1   8   0.0005   0.0007   0.0006   0.0005  -0.0004  -0.0004   0.00  265.3
2022/07/03 01:56:00.000  -2493304.5465  -4655215.2129   3565497.5767   1   8   0.0005   0.0007   0.0006   0.0005  -0.0004  -0.0004   0.00  266.2
2022/07/03 01:56:30.000  -2493304.5464  -4655215.2129   3565497.5768   1   8   0.0005   0.0007   0.0006   0.0005  -0.0004  -0.0004   0.00  266.1
2022/07/03 01:57:00.000  -2493304.5464  -4655215.2129   3565497.5768   1   8   0.0005   0.0007   0.0006   0.0005  -0.0004  -0.0004   0.00  266.4
2022/07/03 01:57:30.000  -2493304.5463  -4655215.2128   3565497.5769   1   8   0.0005   0.0007   0.0006   0.0005  -0.0004  -0.0004   0.00  267.4
2022/07/03 01:58:00.000  -2493304.5463  -4655215.2127   3565497.5769   1   8   0.0005   0.0007   0.0006   0.0005  -0.0004  -0.0004   0.00  270.6
2022/07/03 01:58:30.000  -2493304.5463  -4655215.2127   3565497.5769   1   8   0.0005   0.0007   0.0006   0.0005  -0.0004  -0.0004   0.00  273.0
2022/07/03 01:59:00.000  -2493304.5463  -4655215.2127   3565497.5770   1   8   0.0005   0.0007   0.0005   0.0005  -0.0004  -0.0004   0.00  275.8
2022/07/03 01:59:30.000  -2493304.5463  -4655215.2124   3565497.5766   1   7   0.0005   0.0007   0.0006   0.0005  -0.0004  -0.0004   0.00  313.2
2022/07/03 02:00:00.000  -2493304.5462  -4655215.2123   3565497.5766   1   7   0.0005   0.0007   0.0006   0.0005  -0.0004  -0.0004   0.00  317.2
2022/07/03 02:00:30.000  -2493304.5462  -4655215.2122   3565497.5766   1   7   0.0005   0.0007   0.0006   0.0005  -0.0004  -0.0004   0.00  319.6
2022/07/03 02:01:00.000  -2493304.5462  -4655215.2121   3565497.5765   1   7   0.0005   0.0007   0.0006   0.0005  -0.0004  -0.0004   0.00  319.8
2022/07/03 02:01:30.000  -2493304.5462  -4655215.2119   3565497.5765   1   7   0.0005   0.0007   0.0006   0.0005  -0.0004  -0.0004   0.00  321.4
2022/07/03 02:02:00.000  -2493304.5461  -4655215.2118   3565497.5764   1   7   0.0005   0.0007   0.0006   0.0005  -0.0004  -0.0004   0.00  324.6
2022/07/03 02:02:30.000  -2493304.5461  -4655215.2117   3565497.5763   1   7   0.0005   0.0007   0.0006   0.0005  -0.0004  -0.0004   0.00  329.4
2022/07/03 02:03:00.000  -2493304.5460  -4655215.2116   3565497.5763   1   7   0.0005   0.0007   0.0005   0.0005  -0.0004  -0.0004   0.00  335.8
2022/07/03 02:03:30.000  -2493304.5460  -4655215.2114   3565497.5762   1   7   0.0005   0.0007   0.0005   0.0005  -0.0004  -0.0004   0.00  342.1
2022/07/03 02:04:00.000  -2493304.5459  -4655215.2112   3565497.5761   1   7   0.0005   0.0007   0.0005   0.0005  -0.0004  -0.0004   0.00  345.1
2022/07/03 02:04:30.000  -2493304.5459  -4655215.2111   3565497.5760   1   7   0.0005   0.0007   0.0005   0.0005  -0.0004  -0.0004   0.00  350.9
2022/07/03 02:05:00.000  -2493304.5459  -4655215.2110   3565497.5759   1   7   0.0005   0.0007   0.0005   0.0005  -0.0004  -0.0004   0.00  358.0
2022/07/03 02:05:30.000  -2493304.5458  -4655215.2108   3565497.5758   1   7   0.0005   0.0007   0.0005   0.0005  -0.0004  -0.0004   0.00  364.8
2022/07/03 02:06:00.000  -2493304.5457  -4655215.2108   3565497.5757   1   7   0.0005   0.0007   0.0005   0.0005  -0.0004  -0.0004   0.00  372.5
2022/07/03 02:06:30.000  -2493304.5457  -4655215.2107   3565497.5756   1   7   0.0005   0.0007   0.0005   0.0005  -0.0004  -0.0004   0.00  381.0
2022/07/03 02:07:00.000  -2493304.5457  -4655215.2107   3565497.5756   1   7   0.0005   0.0007   0.0005   0.0005  -0.0004  -0.0004   0.00  391.5
2022/07/03 02:07:30.000  -2493304.5457  -4655215.2106   3565497.5756   1   7   0.0005   0.0007   0.0005   0.0004  -0.0004  -0.0004   0.00  400.3
2022/07/03 02:08:00.000  -2493304.5456  -4655215.2106   3565497.5755   1   7   0.0005   0.0007   0.0005   0.0004  -0.0004  -0.0004   0.00  408.7
2022/07/03 02:08:30.000  -2493304.5456  -4655215.2105   3565497.5755   1   7   0.0005   0.0007   0.0005   0.0004  -0.0004  -0.0004   0.00  414.6
2022/07/03 02:09:00.000  -2493304.5456  -4655215.2104   3565497.5754   1   7   0.0005   0.0007   0.0005   0.0004  -0.0004  -0.0004   0.00  418.3
2022/07/03 02:09:30.000  -2493304.5455  -4655215.2104   3565497.5754   1   7   0.0005   0.0007   0.0005   0.0004  -0.0004  -0.0004   0.00  421.1
2022/07/03 02:10:00.000  -2493304.5455  -4655215.2104   3565497.5753   1   7   0.0005   0.0007   0.0005   0.0004  -0.0004  -0.0004   0.00  426.1
2022/07/03 02:10:30.000  -2493304.5455  -4655215.2104   3565497.5753   1   7   0.0005   0.0007   0.0005   0.0004  -0.0004  -0.0004   0.00  433.3
2022/07/03 02:11:00.000  -2493304.5455  -4655215.2104   3565497.5752   1   7   0.0005   0.0007   0.0005   0.0004  -0.0004  -0.0004   0.00  443.5
2022/07/03 02:11:30.000  -2493304.5455  -4655215.2103   3565497.5752   1   7   0.0005   0.0007   0.0005   0.0004  -0.0004  -0.0004   0.00  453.8
2022/07/03 02:12:00.000  -2493304.5455  -4655215.2103   3565497.5751   1   7   0.0005   0.0006   0.0005   0.0004  -0.0004  -0.0004   0.00  462.8
2022/07/03 02:12:30.000  -2493304.5455  -4655215.2103   3565497.5751   1   7   0.0005   0.0006   0.0005   0.0004  -0.0004  -0.0004   0.00  471.5
2022/07/03 02:13:00.000  -2493304.5455  -4655215.2103   3565497.5750   1   7   0.0005   0.0006   0.0005   0.0004  -0.0004  -0.0004   0.00  486.0
2022/07/03 02:13:30.000  -2493304.5456  -4655215.2103   3565497.5751   1   7   0.0005   0.0006   0.0005   0.0004  -0.0004  -0.0003   0.00  508.0
2022/07/03 02:14:00.000  -2493304.5456  -4655215.2103   3565497.5750   1   7   0.0005   0.0006   0.0005   0.0004  -0.0004  -0.0003   0.00  524.4
2022/07/03 02:14:30.000  -2493304.5456  -4655215.2103   3565497.5750   1   7   0.0005   0.0006   0.0005   0.0004  -0.0004  -0.0003   0.00  536.3
2022/07/03 02:15:00.000  -2493304.5456  -4655215.2104   3565497.5750   1   7   0.0005   0.0006   0.0005   0.0004  -0.0004  -0.0003   0.00  546.3
2022/07/03 02:15:30.000  -2493304.5456  -4655215.2104   3565497.5750   1   7   0.0005   0.0006   0.0005   0.0004  -0.0004  -0.0003   0.00  551.0
2022/07/03 02:16:00.000  -2493304.5456  -4655215.2104   3565497.5750   1   7   0.0005   0.0006   0.0005   0.0004  -0.0004  -0.0003   0.00  552.3
2022/07/03 02:16:30.000  -2493304.5456  -4655215.2105   3565497.5749   1   7   0.0005   0.0006   0.0005   0.0004  -0.0004  -0.0003   0.00  546.2
2022/07/03 02:17:00.000  -2493304.5456  -4655215.2105   3565497.5749   1   7   0.0005   0.0006   0.0005   0.0004  -0.0004  -0.0003   0.00  541.1
2022/07/03 02:17:30.000  -2493304.5455  -4655215.2105   3565497.5748   1   7   0.0005   0.0006   0.0005   0.0004  -0.0004  -0.0003   0.00  532.3
2022/07/03 02:18:00.000  -2493304.5455  -4655215.2106   3565497.5747   1   7   0.0005   0.0006   0.0005   0.0004  -0.0004  -0.0003   0.00  526.9
2022/07/03 02:18:30.000  -2493304.5456  -4655215.2106   3565497.5747   1   7   0.0005   0.0006   0.0005   0.0004  -0.0004  -0.0003   0.00  522.0
2022/07/03 02:19:00.000  -2493304.5456  -4655215.2107   3565497.5747   1   7   0.0005   0.0006   0.0005   0.0004  -0.0004  -0.0003   0.00  519.4
2022/07/03 02:19:30.000  -2493304.5456  -4655215.2107   3565497.5746   1   7   0.0005   0.0006   0.0005   0.0004  -0.0004  -0.0003   0.00  519.1
2022/07/03 02:20:00.000  -2493304.5456  -4655215.2108   3565497.5746   1   7   0.0005   0.0006   0.0005   0.0004  -0.0004  -0.0003   0.00  518.6
2022/07/03 02:20:30.000  -2493304.5457  -4655215.2108   3565497.5746   1   7   0.0005   0.0006   0.0005   0.0004  -0.0004  -0.0003   0.00  514.6
2022/07/03 02:21:00.000  -2493304.5457  -4655215.2109   3565497.5746   1   7   0.0005   0.0006   0.0005   0.0004  -0.0004  -0.0003   0.00  509.1
2022/07/03 02:21:30.000  -2493304.5457  -4655215.2109   3565497.5745   1   7   0.0005   0.0006   0.0005   0.0004  -0.0004  -0.0003   0.00  504.7
2022/07/03 02:22:00.000  -2493304.5458  -4655215.2110   3565497.5745   1   7   0.0005   0.0006   0.0005   0.0004  -0.0004  -0.0003   0.00  500.7
2022/07/03 02:22:30.000  -2493304.5458  -4655215.2110   3565497.5744   1   7   0.0005   0.0006   0.0005   0.0004  -0.0004  -0.0003   0.00  493.1
2022/07/03 02:23:00.000  -2493304.5458  -4655215.2111   3565497.5744   1   7   0.0005   0.0006   0.0005   0.0004  -0.0004  -0.0003   0.00  488.4
2022/07/03 02:23:30.000  -2493304.5458  -4655215.2111   3565497.5744   1   7   0.0005   0.0006   0.0005   0.0004  -0.0004  -0.0003   0.00  482.9
2022/07/03 02:24:00.000  -2493304.5459  -4655215.2112   3565497.5744   1   7   0.0005   0.0006   0.0005   0.0004  -0.0004  -0.0003   0.00  477.9
2022/07/03 02:24:30.000  -2493304.5459  -4655215.2112   3565497.5743   1   7   0.0005   0.0006   0.0005   0.0004  -0.0004  -0.0003   0.00  470.8
2022/07/03 02:25:00.000  -2493304.5459  -4655215.2113   3565497.5743   1   7   0.0005   0.0006   0.0005   0.0004  -0.0004  -0.0003   0.00  466.6
2022/07/03 02:25:30.000  -2493304.5459  -4655215.2114   3565497.5743   1   7   0.0005   0.0006   0.0005   0.0004  -0.0004  -0.0003   0.00  465.4
2022/07/03 02:26:00.000  -2493304.5459  -4655215.2115   3565497.5743   1   7   0.0005   0.0006   0.0005   0.0004  -0.0004  -0.0003   0.00  465.9
2022/07/03 02:26:30.000  -2493304.5459  -4655215.2115   3565497.5744   1   7   0.0005   0.0006   0.0005   0.0004  -0.0004  -0.0003   0.00  468.8
2022/07/03 02:27:00.000  -2493304.5459  -4655215.2116   3565497.5744   1   7   0.0005   0.0006   0.0005   0.0004  -0.0004  -0.0003   0.00  467.3
2022/07/03 02:27:30.000  -2493304.5460  -4655215.2118   3565497.5744   1   7   0.0005   0.0006   0.0005   0.0004  -0.0004  -0.0003   0.00  462.2
2022/07/03 02:28:00.000  -2493304.5460  -4655215.2119   3565497.5743   1   7   0.0005   0.0006   0.0005   0.0004  -0.0004  -0.0003   0.00  451.7
2022/07/03 02:28:30.000  -2493304.5460  -4655215.2120   3565497.5744   1   7   0.0005   0.0006   0.0005   0.0004  -0.0004  -0.0003   0.00  442.3
2022/07/03 02:29:00.000  -2493304.5461  -4655215.2120   3565497.5742   1   6   0.0005   0.0006   0.0005   0.0004  -0.0004  -0.0003   0.00  493.6
2022/07/03 02:29:30.000  -2493304.5461  -4655215.2121   3565497.5742   1   6   0.0005   0.0006   0.0005   0.0004  -0.0004  -0.0003   0.00  496.8
2022/07/03 02:30:00.000  -2493304.5461  -4655215.2122   3565497.5742   1   6   0.0005   0.0006   0.0005   0.0004  -0.0004  -0.0003   0.00  500.3
2022/07/03 02:30:30.000  -2493304.5461  -4655215.2122   3565497.5742   1   6   0.0005   0.0006   0.0005   0.0004  -0.0004  -0.0003   0.00  504.9
2022/07/03 02:31:00.000  -2493304.5462  -4655215.2123   3565497.5742   1   6   0.0005   0.0006   0.0005   0.0004  -0.0004  -0.0003   0.00  509.6
2022/07/03 02:31:30.000  -2493304.5462  -4655215.2123   3565497.5741   1   6   0.0005   0.0006   0.0005   0.0004  -0.0004  -0.0003   0.00  513.4
2022/07/03 02:32:00.000  -2493304.5461  -4655215.2123   3565497.5741   1   6   0.0005   0.0006   0.0005   0.0004  -0.0004  -0.0003   0.00  511.2
2022/07/03 02:32:30.000  -2493304.5461  -4655215.2123   3565497.5740   1   6   0.0005   0.0006   0.0005   0.0004  -0.0004  -0.0003   0.00  516.8
2022/07/03 02:33:00.000  -2493304.5461  -4655215.2123   3565497.5740   1   6   0.0005   0.0006   0.0005   0.0004  -0.0004  -0.0003   0.00  521.2
2022/07/03 02:33:30.000  -2493304.5461  -4655215.2123   3565497.5740   1   6   0.0005   0.0006   0.0005   0.0004  -0.0004  -0.0003   0.00  529.2
2022/07/03 02:34:00.000  -2493304.5460  -4655215.2123   3565497.5739   1   6   0.0005   0.0006   0.0005   0.0004  -0.0004  -0.0003   0.00  540.6
2022/07/03 02:34:30.000  -2493304.5460  -4655215.2123   3565497.5739   1   6   0.0005   0.0006   0.0005   0.0004  -0.0004  -0.0003   0.00  557.0
2022/07/03 02:35:00.000  -2493304.5460  -4655215.2122   3565497.5739   1   6   0.0005   0.0006   0.0005   0.0004  -0.0004  -0.0003   0.00  578.4
2022/07/03 02:35:30.000  -2493304.5459  -4655215.2122   3565497.5739   1   6   0.0005   0.0006   0.0005   0.0004  -0.0004  -0.0003   0.00  598.9
2022/07/03 02:36:00.000  -2493304.5459  -4655215.2122   3565497.5739   1   6   0.0005   0.0006   0.0005   0.0004  -0.0004  -0.0003   0.00  620.0
2022/07/03 02:36:30.000  -2493304.5459  -4655215.2122   3565497.5740   1   6   0.0005   0.0006   0.0005   0.0004  -0.0004  -0.0003   0.00  643.5
2022/07/03 02:37:00.000  -2493304.5459  -4655215.2122   3565497.5740   1   6   0.0005   0.0006   0.0005   0.0004  -0.0004  -0.0003   0.00  660.8
2022/07/03 02:37:30.000  -2493304.5459  -4655215.2122   3565497.5740   1   6   0.0005   0.0006   0.0005   0.0004  -0.0004  -0.0003   0.00  685.2
2022/07/03 02:38:00.000  -2493304.5459  -4655215.2121   3565497.5740   1   6   0.0004   0.0006   0.0005   0.0004  -0.0004  -0.0003   0.00  722.0
2022/07/03 02:38:30.000  -2493304.5458  -4655215.2121   3565497.5740   1   6   0.0004   0.0006   0.0005   0.0004  -0.0004  -0.0003   0.00  762.1
2022/07/03 02:39:00.000  -2493304.5458  -4655215.2121   3565497.5740   1   6   0.0004   0.0006   0.0005   0.0004  -0.0004  -0.0003   0.00  786.6
2022/07/03 02:39:30.000  -2493304.5457  -4655215.2121   3565497.5740   1   6   0.0004   0.0006   0.0005   0.0004  -0.0004  -0.0003   0.00  803.8
2022/07/03 02:40:00.000  -2493304.5457  -4655215.2122   3565497.5740   1   6   0.0004   0.0006   0.0005   0.0004  -0.0004  -0.0003   0.00  817.0
2022/07/03 02:40:30.000  -2493304.5456  -4655215.2122   3565497.5740   1   6   0.0004   0.0006   0.0005   0.0004  -0.0004  -0.0003   0.00  840.5
2022/07/03 02:41:00.000  -2493304.5456  -4655215.2122   3565497.5740   1   6   0.0004   0.0006   0.0005   0.0004  -0.0004  -0.0003   0.00  860.0
2022/07/03 02:41:30.000  -2493304.5455  -4655215.2122   3565497.5741   1   6   0.0004   0.0006   0.0005   0.0004  -0.0004  -0.0003   0.00  873.2
2022/07/03 02:42:00.000  -2493304.5455  -4655215.2122   3565497.5741   1   6   0.0004   0.0006   0.0005   0.0004  -0.0004  -0.0003   0.00  891.4
2022/07/03 02:42:30.000  -2493304.5455  -4655215.2122   3565497.5741   1   6   0.0004   0.0006   0.0005   0.0004  -0.0004  -0.0003   0.00  906.8
2022/07/03 02:43:00.000  -2493304.5455  -4655215.2122   3565497.5742   1   6   0.0004   0.0006   0.0005   0.0004  -0.0004  -0.0003   0.00  918.9
2022/07/03 02:43:30.000  -2493304.5455  -4655215.2123   3565497.5742   1   6   0.0004   0.0006   0.0005   0.0004  -0.0004  -0.0003   0.00  928.1
2022/07/03 02:44:00.000  -2493304.5455  -4655215.2123   3565497.5742   1   6   0.0004   0.0006   0.0005   0.0004  -0.0004  -0.0003   0.00  935.2
2022/07/03 02:44:30.000  -2493304.5454  -4655215.2123   3565497.5743   1   6   0.0004   0.0006   0.0005   0.0004  -0.0004  -0.0003   0.00  935.9
2022/07/03 02:45:00.000  -2493304.5457  -4655215.2124   3565497.5749   2   7   0.0005   0.0006   0.0005   0.0004  -0.0004  -0.0003   0.00    2.5
2022/07/03 02:45:30.000  -2493304.5454  -4655215.2124   3565497.5744   1   7   0.0004   0.0006   0.0005   0.0004  -0.0004  -0.0003   0.00    3.8
2022/07/03 02:46:00.000  -2493304.5454  -4655215.2124   3565497.5744   1   7   0.0004   0.0006   0.0005   0.0004  -0.0004  -0.0003   0.00    4.7
2022/07/03 02:46:30.000  -2493304.5453  -4655215.2124   3565497.5745   1   7   0.0004   0.0006   0.0005   0.0004  -0.0004  -0.0003   0.00    5.3
2022/07/03 02:47:00.000  -2493304.5453  -4655215.2125   3565497.5745   1   7   0.0004   0.0006   0.0005   0.0004  -0.0004  -0.0003   0.00    5.6
2022/07/03 02:47:30.000  -2493304.5452  -4655215.2125   3565497.5746   1   7   0.0004   0.0006   0.0005   0.0004  -0.0004  -0.0003   0.00    5.7
2022/07/03 02:48:00.000  -2493304.5451  -4655215.2125   3565497.5747   1   7   0.0004   0.0006   0.0005   0.0004  -0.0004  -0.0003   0.00    5.9
2022/07/03 02:48:30.000  -2493304.5451  -4655215.2124   3565497.5747   1   7   0.0004   0.0006   0.0005   0.0004  -0.0004  -0.0003   0.00    5.9
2022/07/03 02:49:00.000  -2493304.5450  -4655215.2124   3565497.5748   1   7   0.0004   0.0006   0.0005   0.0004  -0.0004  -0.0003   0.00    5.9
2022/07/03 02:49:30.000  -2493304.5449  -4655215.2124   3565497.5748   1   7   0.0004   0.0006   0.0005   0.0004  -0.0004  -0.0003   0.00    5.9
2022/07/03 02:50:00.000  -2493304.5448  -4655215.2124   3565497.5749   1   7   0.0004   0.0006   0.0005   0.0004  -0.0004  -0.0003   0.00    5.9
2022/07/03 02:50:30.000  -2493304.5447  -4655215.2125   3565497.5750   1   7   0.0004   0.0006   0.0005   0.0004  -0.0004  -0.0003   0.00   10.3
2022/07/03 02:51:00.000  -2493304.5447  -4655215.2125   3565497.5750   1   7   0.0004   0.0006   0.0005   0.0004  -0.0004  -0.0003   0.00   14.1
2022/07/03 02:51:30.000  -2493304.5446  -4655215.2125   3565497.5751   1   7   0.0004   0.0006   0.0005   0.0004  -0.0004  -0.0003   0.00   17.4
2022/07/03 02:52:00.000  -2493304.5445  -4655215.2126   3565497.5751   1   7   0.0004   0.0006   0.0005   0.0004  -0.0004  -0.0003   0.00   20.1
2022/07/03 02:52:30.000  -2493304.5445  -4655215.2126   3565497.5752   1   7   0.0004   0.0006   0.0005   0.0004  -0.0004  -0.0003   0.00   22.4
2022/07/03 02:53:00.000  -2493304.5444  -4655215.2127   3565497.5753   1   7   0.0004   0.0006   0.0005   0.0004  -0.0004  -0.0003   0.00   24.3
2022/07/03 02:53:30.000  -2493304.5443  -4655215.2127   3565497.5753   1   7   0.0004   0.0006   0.0005   0.0004  -0.0004  -0.0003   0.00   25.9
2022/07/03 02:54:00.000  -2493304.5442  -4655215.2127   3565497.5754   1   7   0.0004   0.0006   0.0005   0.0004  -0.0004  -0.0003   0.00   27.2
2022/07/03 02:54:30.000  -2493304.5441  -4655215.2127   3565497.5755   1   7   0.0004   0.0006   0.0005   0.0004  -0.0004  -0.0003   0.00   28.2
2022/07/03 02:55:00.000  -2493304.5440  -4655215.2127   3565497.5756   1   7   0.0004   0.0006   0.0005   0.0004  -0.0004  -0.0003   0.00   29.0
2022/07/03 02:55:30.000  -2493304.5439  -4655215.2128   3565497.5756   1   7   0.0004   0.0006   0.0005   0.0004  -0.0004  -0.0003   0.00   29.4
2022/07/03 02:56:00.000  -2493304.5438  -4655215.2128   3565497.5757   1   7   0.0004   0.0006   0.0005   0.0004  -0.0004  -0.0003   0.00   29.7
2022/07/03 02:56:30.000  -2493304.5437  -4655215.2128   3565497.5758   1   7   0.0004   0.0006   0.0005   0.0004  -0.0004  -0.0003   0.00   30.0
2022/07/03 02:57:00.000  -2493304.5436  -4655215.2128   3565497.5759   1   7   0.0004   0.0006   0.0005   0.0004  -0.0004  -0.0003   0.00   30.2
2022/07/03 02:57:30.000  -2493304.5435  -4655215.2128   3565497.5759   1   7   0.0004   0.0006   0.0005   0.0004  -0.0004  -0.0003   0.00   30.5
2022/07/03 02:58:00.000  -2493304.5434  -4655215.2127   3565497.5760   1   7   0.0004   0.0006   0.0005   0.0004  -0.0004  -0.0003   0.00   30.5
2022/07/03 02:58:30.000  -2493304.5433  -4655215.2127   3565497.5760   1   7   0.0004   0.0006   0.0005   0.0004  -0.0004  -0.0003   0.00   30.7
2022/07/03 02:59:00.000  -2493304.5432  -4655215.2126   3565497.5761   1   7   0.0004   0.0006   0.0005   0.0004  -0.0004  -0.0003   0.00   30.8
2022/07/03 02:59:30.000  -2493304.5430  -4655215.2125   3565497.5761   1   7   0.0004   0.0006   0.0005   0.0004  -0.0004  -0.0003   0.00   30.9
2022/07/03 03:00:00.000  -2493304.5429  -4655215.2124   3565497.5761   1   7   0.0004   0.0006   0.0005   0.0004  -0.0004  -0.0003   0.00   31.1
2022/07/03 03:00:30.000  -2493304.5428  -4655215.2123   3565497.5761   1   7   0.0004   0.0006   0.0005   0.0004  -0.0004  -0.0003   0.00   31.0
2022/07/03 03:01:00.000  -2493304.5426  -4655215.2122   3565497.5762   1   7   0.0004   0.0006   0.0005   0.0004  -0.0004  -0.0003   0.00   31.0
2022/07/03 03:01:30.000  -2493304.5425  -4655215.2122   3565497.5762   1   7   0.0004   0.0006   0.0005   0.0004  -0.0004  -0.0003   0.00   30.8
2022/07/03 03:02:00.000  -2493304.5424  -4655215.2121   3565497.5762   1   7   0.0004   0.0006   0.0005   0.0004  -0.0004  -0.0003   0.00   30.5
2022/07/03 03:02:30.000  -2493304.5422  -4655215.2120   3565497.5762   1   7   0.0004   0.0006   0.0005   0.0004  -0.0004  -0.0003   0.00   30.0
2022/07/03 03:03:00.000  -2493304.5421  -4655215.2119   3565497.5763   1   7   0.0004   0.0006   0.0005   0.0004  -0.0004  -0.0003   0.00   29.5
2022/07/03 03:03:30.000  -2493304.5419  -4655215.2118   3565497.5763   1   7   0.0004   0.0006   0.0005   0.0004  -0.0004  -0.0003   0.00   28.9
2022/07/03 03:04:00.000  -2493304.5417  -4655215.2117   3565497.5763   1   7   0.0004   0.0006   0.0005   0.0004  -0.0004  -0.0003   0.00   28.2
2022/07/03 03:04:30.000  -2493304.5416  -4655215.2116   3565497.5764   1   7   0.0004   0.0006   0.0005   0.0004  -0.0004  -0.0003   0.00   27.6
2022/07/03 03:05:00.000  -2493304.5414  -4655215.2116   3565497.5764   1   7   0.0004   0.0006   0.0005   0.0004  -0.0004  -0.0003   0.00   27.0
2022/07/03 03:05:30.000  -2493304.5412  -4655215.2115   3565497.5765   1   7   0.0004   0.0006   0.0005   0.0004  -0.0004  -0.0003   0.00   26.5
2022/07/03 03:06:00.000  -2493304.5411  -4655215.2114   3565497.5765   1   7   0.0004   0.0006   0.0005   0.0004  -0.0004  -0.0003   0.00   26.0
2022/07/03 03:06:30.000  -2493304.5409  -4655215.2114   3565497.5765   1   7   0.0004   0.0006   0.0005   0.0004  -0.0004  -0.0003   0.00   25.5
2022/07/03 03:07:00.000  -2493304.5407  -4655215.2113   3565497.5766   1   7   0.0004   0.0006   0.0005   0.0004  -0.0004  -0.0003   0.00   24.9
2022/07/03 03:07:30.000  -2493304.5405  -4655215.2112   3565497.5766   1   7   0.0004   0.0006   0.0005   0.0004  -0.0004  -0.0003   0.00   24.3
2022/07/03 03:08:00.000  -2493304.5403  -4655215.2111   3565497.5766   1   7   0.0004   0.0006   0.0005   0.0004  -0.0004  -0.0003   0.00   23.6
2022/07/03 03:08:30.000  -2493304.5401  -4655215.2109   3565497.5766   1   7   0.0004   0.0006   0.0005   0.0004  -0.0004  -0.0003   0.00   22.9
2022/07/03 03:09:00.000  -2493304.5399  -4655215.2108   3565497.5766   1   7   0.0004   0.0006   0.0005   0.0004  -0.0004  -0.0003   0.00   22.2
2022/07/03 03:09:30.000  -2493304.5396  -4655215.2107   3565497.5766   1   7   0.0004   0.0006   0.0005   0.0004  -0.0004  -0.0003   0.00   21.4
2022/07/03 03:10:00.000  -2493304.5394  -4655215.2106   3565497.5767   1   7   0.0004   0.0006   0.0005   0.0004  -0.0004  -0.0003   0.00   20.8
2022/07/03 03:10:30.000  -2493304.5392  -4655215.2104   3565497.5767   1   7   0.0004   0.0006   0.0005   0.0004  -0.0004  -0.0003   0.00   20.2
2022/07/03 03:11:00.000  -2493304.5390  -4655215.2103   3565497.5767   1   7   0.0004   0.0006   0.0005   0.0004  -0.0004  -0.0003   0.00   19.7
2022/07/03 03:11:30.000  -2493304.5387  -4655215.2101   3565497.5767   1   7   0.0004   0.0006   0.0005   0.0004  -0.0004  -0.0003   0.00   19.1
2022/07/03 03:12:00.000  -2493304.5385  -4655215.2100   3565497.5767   1   7   0.0004   0.0006   0.0005   0.0004  -0.0004  -0.0003   0.00   18.6
2022/07/03 03:12:30.000  -2493304.5400  -4655215.2106   3565497.5760   2   8   0.0004   0.0006   0.0005   0.0004  -0.0004  -0.0003   0.00    1.0
2022/07/03 03:13:00.000  -2493304.5398  -4655215.2105   3565497.5760   2   8   0.0004   0.0006   0.0005   0.0004  -0.0004  -0.0003   0.00    1.1
2022/07/03 03:13:30.000  -2493304.5396  -4655215.2104   3565497.5760   2   8   0.0004   0.0006   0.0005   0.0004  -0.0004  -0.0003   0.00    1.1
2022/07/03 03:14:00.000  -2493304.5393  -4655215.2102   3565497.5759   2   8   0.0004   0.0006   0.0005   0.0004  -0.0004  -0.0003   0.00    1.1
2022/07/03 03:14:30.000  -2493304.5391  -4655215.2101   3565497.5759   2   8   0.0004   0.0006   0.0005   0.0004  -0.0004  -0.0003   0.00    1.1
2022/07/03 03:15:00.000  -2493304.5388  -4655215.2099   3565497.5758   2   8   0.0004   0.0006   0.0005   0.0004  -0.0004  -0.0003   0.00    1.2
2022/07/03 03:15:30.000  -2493304.5385  -4655215.2097   3565497.5758   2   8   0.0004   0.0006   0.0005   0.0004  -0.0004  -0.0003   0.00    1.2
2022/07/03 03:16:00.000  -2493304.5383  -4655215.2095   3565497.5757   2   8   0.0004   0.0006   0.0005   0.0004  -0.0004  -0.0003   0.00    1.2
2022/07/03 03:16:30.000  -2493304.5380  -4655215.2093   3565497.5757   2   8   0.0004   0.0006   0.0005   0.0004  -0.0004  -0.0003   0.00    1.2
2022/07/03 03:17:00.000  -2493304.5377  -4655215.2091   3565497.5756   2   8   0.0004   0.0006   0.0005   0.0004  -0.0004  -0.0003   0.00    1.2
2022/07/03 03:17:30.000  -2493304.5375  -4655215.2089   3565497.5756   2   8   0.0004   0.0006   0.0005   0.0004  -0.0004  -0.0003   0.00    1.2
2022/07/03 03:18:00.000  -2493304.5372  -4655215.2087   3565497.5755   2   8   0.0004   0.0006   0.0005   0.0004  -0.0004  -0.0003   0.00    1.2
2022/07/03 03:18:30.000  -2493304.5369  -4655215.2085   3565497.5755   2   8   0.0004   0.0006   0.0005   0.0004  -0.0004  -0.0003   0.00    1.2
2022/07/03 03:19:00.000  -2493304.5367  -4655215.2083   3565497.5754   2   8   0.0004   0.0006   0.0005   0.0004  -0.0004  -0.0003   0.00    1.2
2022/07/03 03:19:30.000  -2493304.5364  -4655215.2081   3565497.5753   2   8   0.0004   0.0006   0.0005   0.0004  -0.0004  -0.0003   0.00    1.2
2022/07/03 03:20:00.000  -2493304.5361  -4655215.2079   3565497.5753   2   8   0.0004   0.0006   0.0005   0.0004  -0.0004  -0.0003   0.00    1.2
2022/07/03 03:20:30.000  -2493304.5359  -4655215.2077   3565497.5752   2   8   0.0004   0.0006   0.0005   0.0004  -0.0004  -0.0003   0.00    1.2
2022/07/03 03:21:00.000  -2493304.5356  -4655215.2075   3565497.5752   2   8   0.0004   0.0006   0.0005   0.0004  -0.0004  -0.0003   0.00    1.2
2022/07/03 03:21:30.000  -2493304.5353  -4655215.2073   3565497.5751   2   8   0.0004   0.0006   0.0005   0.0004  -0.0004  -0.0003   0.00    1.2
